{"type":"FeatureCollection","features":[{"type":"Feature","geometry":{"coordinates":[-0.2892315442557703,39.297596296685256],"type":"Point"},"properties":{"id_parada":2180.0,"codvia":32880.0,"numportal":"FTE 145","suprimida":0,"denominacion":"Gavines (parell) - Platja (2180)","lineas":"25","proximas_llegadas":"http:\/\/www.emtvalencia.es\/QR.php?sec=est&p=2180","geo_point_2d":{"lon":-0.2892315442557703,"lat":39.297596296685256}}},{"type":"Feature","geometry":{"coordinates":[-0.3624389000375285,39.448551757224315],"type":"Point"},"properties":{"id_parada":2240.0,"codvia":81612.0,"numportal":"S\/N","suprimida":0,"denominacion":"Actor Antonio Ferrandis (imparell) - En Corts (2240)","lineas":"99","proximas_llegadas":"http:\/\/www.emtvalencia.es\/QR.php?sec=est&p=2240","geo_point_2d":{"lon":-0.3624389000375285,"lat":39.448551757224315}}},{"type":"Feature","geometry":{"coordinates":[-0.3742677624589383,39.47872157854415],"type":"Point"},"properties":{"id_parada":2032.0,"codvia":20310.0,"numportal":"4-6","suprimida":0,"denominacion":"Les Corts (2032)","lineas":"11,16,26,6,80,94,N10","proximas_llegadas":"http:\/\/www.emtvalencia.es\/QR.php?sec=est&p=2032","geo_point_2d":{"lon":-0.3742677624589383,"lat":39.47872157854415}}},{"type":"Feature","geometry":{"coordinates":[-0.2945519235758161,39.30528470219565],"type":"Point"},"properties":{"id_parada":2194.0,"codvia":32880.0,"numportal":"59","suprimida":0,"denominacion":"Gavines - Botavara (2194)","lineas":"25","proximas_llegadas":"http:\/\/www.emtvalencia.es\/QR.php?sec=est&p=2194","geo_point_2d":{"lon":-0.2945519235758161,"lat":39.30528470219565}}},{"type":"Feature","geometry":{"coordinates":[-0.29169434896846114,39.30210177176995],"type":"Point"},"properties":{"id_parada":2193.0,"codvia":32880.0,"numportal":"107","suprimida":0,"denominacion":"Gavines - Les dunes (2193)","lineas":"25","proximas_llegadas":"http:\/\/www.emtvalencia.es\/QR.php?sec=est&p=2193","geo_point_2d":{"lon":-0.29169434896846114,"lat":39.30210177176995}}},{"type":"Feature","geometry":{"coordinates":[-0.32086058821602126,39.357493611266456],"type":"Point"},"properties":{"id_parada":2198.0,"codvia":81238.0,"numportal":"S\/N","suprimida":0,"denominacion":"Gola de Puchol (IV) (2198)","lineas":"24,25","proximas_llegadas":"http:\/\/www.emtvalencia.es\/QR.php?sec=est&p=2198","geo_point_2d":{"lon":-0.32086058821602126,"lat":39.357493611266456}}},{"type":"Feature","geometry":{"coordinates":[-0.33254542772893125,39.38320878943973],"type":"Point"},"properties":{"id_parada":2165.0,"codvia":42390.0,"numportal":"10","suprimida":0,"denominacion":"Pinars (parell) - El Saler (2165)","lineas":"24,25","proximas_llegadas":"http:\/\/www.emtvalencia.es\/QR.php?sec=est&p=2165","geo_point_2d":{"lon":-0.33254542772893125,"lat":39.38320878943973}}},{"type":"Feature","geometry":{"coordinates":[-0.36956817829456495,39.47207596206278],"type":"Point"},"properties":{"id_parada":2257.0,"codvia":55320.0,"numportal":"1","suprimida":0,"denominacion":"Palau de Just\u00edcia (2257)","lineas":"11,31,32,6,70,71,81,N10,N2","proximas_llegadas":"http:\/\/www.emtvalencia.es\/QR.php?sec=est&p=2257","geo_point_2d":{"lon":-0.36956817829456495,"lat":39.47207596206278}}},{"type":"Feature","geometry":{"coordinates":[-0.32460945801156404,39.4742645348839],"type":"Point"},"properties":{"id_parada":2271.0,"codvia":990215.0,"numportal":"133 ACC","suprimida":0,"denominacion":"Passeig Mar\u00edtim - Pavia (2271)","lineas":"93,98","proximas_llegadas":"http:\/\/www.emtvalencia.es\/QR.php?sec=est&p=2271","geo_point_2d":{"lon":-0.32460945801156404,"lat":39.4742645348839}}},{"type":"Feature","geometry":{"coordinates":[-0.3735744715296922,39.46819493294377],"type":"Point"},"properties":{"id_parada":2260.0,"codvia":19350.0,"numportal":"13-15","suprimida":0,"denominacion":"Col\u00f3n - Pascual i Gen\u00eds (2260)","lineas":"10,11,28,32,40,70,71,8,81,N1,N10,N2,N8","proximas_llegadas":"http:\/\/www.emtvalencia.es\/QR.php?sec=est&p=2260","geo_point_2d":{"lon":-0.3735744715296922,"lat":39.46819493294377}}},{"type":"Feature","geometry":{"coordinates":[-0.37649526457013743,39.467514635721294],"type":"Point"},"properties":{"id_parada":2261.0,"codvia":38100.0,"numportal":"17","suprimida":0,"denominacion":"Estaci\u00f3 del Nord (2261)","lineas":"19,35,40,6,8,N1,N7,N8,N9","proximas_llegadas":"http:\/\/www.emtvalencia.es\/QR.php?sec=est&p=2261","geo_point_2d":{"lon":-0.37649526457013743,"lat":39.467514635721294}}},{"type":"Feature","geometry":{"coordinates":[-0.34532807433998286,39.47927736170695],"type":"Point"},"properties":{"id_parada":1283.0,"codvia":62850.0,"numportal":"NOVES FACULTATS","suprimida":0,"denominacion":"Campus Tarongers (1283)","lineas":"40,71","proximas_llegadas":"http:\/\/www.emtvalencia.es\/QR.php?sec=est&p=1283","geo_point_2d":{"lon":-0.34532807433998286,"lat":39.47927736170695}}},{"type":"Feature","geometry":{"coordinates":[-0.3843959717064521,39.4721221939705],"type":"Point"},"properties":{"id_parada":1298.0,"codvia":28800.0,"numportal":"1","suprimida":0,"denominacion":"Espinosa - Ferran el Cat\u00f2lic (1298)","lineas":"60,62,73","proximas_llegadas":"http:\/\/www.emtvalencia.es\/QR.php?sec=est&p=1298","geo_point_2d":{"lon":-0.3843959717064521,"lat":39.4721221939705}}},{"type":"Feature","geometry":{"coordinates":[-0.3755159116763595,39.49602306488437],"type":"Point"},"properties":{"id_parada":1129.0,"codvia":70530.0,"numportal":"51","suprimida":0,"denominacion":"Sant Dom\u00e9nec Savio - Josep Esteve (1129)","lineas":"6,60","proximas_llegadas":"http:\/\/www.emtvalencia.es\/QR.php?sec=est&p=1129","geo_point_2d":{"lon":-0.3755159116763595,"lat":39.49602306488437}}},{"type":"Feature","geometry":{"coordinates":[-0.3681617463809649,39.442507726023],"type":"Point"},"properties":{"id_parada":1143.0,"codvia":34500.0,"numportal":"74","suprimida":0,"denominacion":"Centre de Salut Fonteta (1143)","lineas":"13,7,N7","proximas_llegadas":"http:\/\/www.emtvalencia.es\/QR.php?sec=est&p=1143","geo_point_2d":{"lon":-0.3681617463809649,"lat":39.442507726023}}},{"type":"Feature","geometry":{"coordinates":[-0.37273030129435136,39.49471895590445],"type":"Point"},"properties":{"id_parada":1151.0,"codvia":20010.0,"numportal":"4 (DAVANT)","suprimida":0,"denominacion":"Centre de Salut Salvador Allende (1151)","lineas":"16,N2","proximas_llegadas":"http:\/\/www.emtvalencia.es\/QR.php?sec=est&p=1151","geo_point_2d":{"lon":-0.37273030129435136,"lat":39.49471895590445}}},{"type":"Feature","geometry":{"coordinates":[-0.34419196205892433,39.46330636258073],"type":"Point"},"properties":{"id_parada":2027.0,"codvia":25680.0,"numportal":"204","suprimida":0,"denominacion":"Port - Trafalgar (2027)","lineas":"30,4,92,N8","proximas_llegadas":"http:\/\/www.emtvalencia.es\/QR.php?sec=est&p=2027","geo_point_2d":{"lon":-0.34419196205892433,"lat":39.46330636258073}}},{"type":"Feature","geometry":{"coordinates":[-0.3854716070173363,39.484813825417525],"type":"Point"},"properties":{"id_parada":1812.0,"codvia":38370.0,"numportal":"3","suprimida":0,"denominacion":"Joaqu\u00edm Ballester (imparell) - Pare Ferris (1812)","lineas":"98","proximas_llegadas":"http:\/\/www.emtvalencia.es\/QR.php?sec=est&p=1812","geo_point_2d":{"lon":-0.3854716070173363,"lat":39.484813825417525}}},{"type":"Feature","geometry":{"coordinates":[-0.40308755647828237,39.4535227230909],"type":"Point"},"properties":{"id_parada":1937.0,"codvia":81172.0,"numportal":"28","suprimida":0,"denominacion":"Arquitecte Segura de Lago - Dr. Rafael Bartual (1937)","lineas":"72,73,N5","proximas_llegadas":"http:\/\/www.emtvalencia.es\/QR.php?sec=est&p=1937","geo_point_2d":{"lon":-0.40308755647828237,"lat":39.4535227230909}}},{"type":"Feature","geometry":{"coordinates":[-0.34599939834394794,39.47981689713002],"type":"Point"},"properties":{"id_parada":1949.0,"codvia":42340.0,"numportal":"4 DUP","suprimida":0,"denominacion":"Tarongers - Facultat de Magisteri (1949)","lineas":"18","proximas_llegadas":"http:\/\/www.emtvalencia.es\/QR.php?sec=est&p=1949","geo_point_2d":{"lon":-0.34599939834394794,"lat":39.47981689713002}}},{"type":"Feature","geometry":{"coordinates":[-0.347192148340816,39.462558899092706],"type":"Point"},"properties":{"id_parada":1951.0,"codvia":81456.0,"numportal":"17 ACC (DAVANT)","suprimida":0,"denominacion":"Pere II El Cerimonios - Vicente Beltr\u00e1n Grimalt (1951)","lineas":"35","proximas_llegadas":"http:\/\/www.emtvalencia.es\/QR.php?sec=est&p=1951","geo_point_2d":{"lon":-0.347192148340816,"lat":39.462558899092706}}},{"type":"Feature","geometry":{"coordinates":[-0.3700428613032802,39.48520324342893],"type":"Point"},"properties":{"id_parada":1806.0,"codvia":14470.0,"numportal":"1","suprimida":0,"denominacion":"Molinell (imparell) - Alboraia (1806)","lineas":"98,N10","proximas_llegadas":"http:\/\/www.emtvalencia.es\/QR.php?sec=est&p=1806","geo_point_2d":{"lon":-0.3700428613032802,"lat":39.48520324342893}}},{"type":"Feature","geometry":{"coordinates":[-0.39488896506346793,39.473994685702266],"type":"Point"},"properties":{"id_parada":1865.0,"codvia":57300.0,"numportal":"131 (DAVANT)","suprimida":0,"denominacion":"P\u00e9rez Gald\u00f3s - Sant Josep de la Muntanya (1865)","lineas":"67,N4","proximas_llegadas":"http:\/\/www.emtvalencia.es\/QR.php?sec=est&p=1865","geo_point_2d":{"lon":-0.39488896506346793,"lat":39.473994685702266}}},{"type":"Feature","geometry":{"coordinates":[-0.33328721280162654,39.44458966947652],"type":"Point"},"properties":{"id_parada":2122.0,"codvia":40890.0,"numportal":"89 (DAVANT)","suprimida":0,"denominacion":"Parc de Natzaret (2122)","lineas":"30,4","proximas_llegadas":"http:\/\/www.emtvalencia.es\/QR.php?sec=est&p=2122","geo_point_2d":{"lon":-0.33328721280162654,"lat":39.44458966947652}}},{"type":"Feature","geometry":{"coordinates":[-0.3705717018844134,39.48185718248969],"type":"Point"},"properties":{"id_parada":2231.0,"codvia":1440.0,"numportal":"24-26","suprimida":0,"denominacion":"Centre d'especialitats Ricard Tr\u00e9nor  (2231)","lineas":"11,N10","proximas_llegadas":"http:\/\/www.emtvalencia.es\/QR.php?sec=est&p=2231","geo_point_2d":{"lon":-0.3705717018844134,"lat":39.48185718248969}}},{"type":"Feature","geometry":{"coordinates":[-0.3726952078369107,39.48286109940063],"type":"Point"},"properties":{"id_parada":2234.0,"codvia":2790.0,"numportal":"16ACC (DAV)","suprimida":0,"denominacion":"Almassora - Pintor Vilar (2234)","lineas":"11","proximas_llegadas":"http:\/\/www.emtvalencia.es\/QR.php?sec=est&p=2234","geo_point_2d":{"lon":-0.3726952078369107,"lat":39.48286109940063}}},{"type":"Feature","geometry":{"coordinates":[-0.37259575211011514,39.46913251637978],"type":"Point"},"properties":{"id_parada":2315.0,"codvia":65250.0,"numportal":"30","suprimida":0,"denominacion":"Roger de Ll\u00f2ria - Col\u00f3n (2315)","lineas":"40","proximas_llegadas":"http:\/\/www.emtvalencia.es\/QR.php?sec=est&p=2315","geo_point_2d":{"lon":-0.37259575211011514,"lat":39.46913251637978}}},{"type":"Feature","geometry":{"coordinates":[-0.35920142965635643,39.45064884159421],"type":"Point"},"properties":{"id_parada":2295.0,"codvia":33480.0,"numportal":"SN","suprimida":0,"denominacion":"Amado Granell Mesado (parell) - Antonio Ferrandis (2295)","lineas":"14","proximas_llegadas":"http:\/\/www.emtvalencia.es\/QR.php?sec=est&p=2295","geo_point_2d":{"lon":-0.35920142965635643,"lat":39.45064884159421}}},{"type":"Feature","geometry":{"coordinates":[-0.3778266392067869,39.468393565184314],"type":"Point"},"properties":{"id_parada":2312.0,"codvia":68820.0,"numportal":"REIXA INSTITUT","suprimida":0,"denominacion":"Estaci\u00f3 del Nord - Sant Pau (2312)","lineas":"62,67,73,9,N3,N7","proximas_llegadas":"http:\/\/www.emtvalencia.es\/QR.php?sec=est&p=2312","geo_point_2d":{"lon":-0.3778266392067869,"lat":39.468393565184314}}},{"type":"Feature","geometry":{"coordinates":[-0.37947477999329565,39.49198776163449],"type":"Point"},"properties":{"id_parada":2301.0,"codvia":33240.0,"numportal":"1","suprimida":0,"denominacion":"F\u00e9lix del R\u00edo - Cam\u00ed de Montcada (2301)","lineas":"60","proximas_llegadas":"http:\/\/www.emtvalencia.es\/QR.php?sec=est&p=2301","geo_point_2d":{"lon":-0.37947477999329565,"lat":39.49198776163449}}},{"type":"Feature","geometry":{"coordinates":[-0.3814167408394351,39.42642679040525],"type":"Point"},"properties":{"id_parada":2338.0,"codvia":null,"numportal":"49","suprimida":0,"denominacion":"Pa\u00eds Valenci\u00e0 - Val\u00e8ncia (2338)","lineas":"9","proximas_llegadas":"http:\/\/www.emtvalencia.es\/QR.php?sec=est&p=2338","geo_point_2d":{"lon":-0.3814167408394351,"lat":39.42642679040525}}},{"type":"Feature","geometry":{"coordinates":[-0.38477011143400464,39.427966203019466],"type":"Point"},"properties":{"id_parada":2340.0,"codvia":null,"numportal":"83 (DAVANT)","suprimida":0,"denominacion":"Pa\u00eds Valenci\u00e0 - Pintor Sorolla (2340)","lineas":"9","proximas_llegadas":"http:\/\/www.emtvalencia.es\/QR.php?sec=est&p=2340","geo_point_2d":{"lon":-0.38477011143400464,"lat":39.427966203019466}}},{"type":"Feature","geometry":{"coordinates":[-0.32457598427002543,39.46830732255087],"type":"Point"},"properties":{"id_parada":2341.0,"codvia":56250.0,"numportal":"9 (DAVANT)","suprimida":0,"denominacion":"Passeig Mar\u00edtim - Mediterr\u00e0nia (2341)","lineas":"32","proximas_llegadas":"http:\/\/www.emtvalencia.es\/QR.php?sec=est&p=2341","geo_point_2d":{"lon":-0.32457598427002543,"lat":39.46830732255087}}},{"type":"Feature","geometry":{"coordinates":[-0.3864642654513256,39.5122945733796],"type":"Point"},"properties":{"id_parada":1140.0,"codvia":49500.0,"numportal":"341","suprimida":0,"denominacion":"Cam\u00ed de Montcada - Gasolinera (1140)","lineas":"26","proximas_llegadas":"http:\/\/www.emtvalencia.es\/QR.php?sec=est&p=1140","geo_point_2d":{"lon":-0.3864642654513256,"lat":39.5122945733796}}},{"type":"Feature","geometry":{"coordinates":[-0.38633082134124713,39.5122017270186],"type":"Point"},"properties":{"id_parada":1152.0,"codvia":49500.0,"numportal":"341 (DAVANT)","suprimida":0,"denominacion":"Cam\u00ed de Montcada - Cam\u00ed Alqueria de Marquet (1152)","lineas":"26","proximas_llegadas":"http:\/\/www.emtvalencia.es\/QR.php?sec=est&p=1152","geo_point_2d":{"lon":-0.38633082134124713,"lat":39.5122017270186}}},{"type":"Feature","geometry":{"coordinates":[-0.3252024019888047,39.48355244046615],"type":"Point"},"properties":{"id_parada":1162.0,"codvia":990215.0,"numportal":"FINAL PASSEIG","suprimida":0,"denominacion":"Passeig Mar\u00edtim - Mendiz\u00e1bal (1162)","lineas":"32","proximas_llegadas":"http:\/\/www.emtvalencia.es\/QR.php?sec=est&p=1162","geo_point_2d":{"lon":-0.3252024019888047,"lat":39.48355244046615}}},{"type":"Feature","geometry":{"coordinates":[-0.40546988921610605,39.462802876516236],"type":"Point"},"properties":{"id_parada":1177.0,"codvia":73920.0,"numportal":"CANT\u00d3 T.FORQUES (CARRIL BUS)","suprimida":0,"denominacion":"Tres Creus - Tres Forques (1177)","lineas":"99","proximas_llegadas":"http:\/\/www.emtvalencia.es\/QR.php?sec=est&p=1177","geo_point_2d":{"lon":-0.40546988921610605,"lat":39.462802876516236}}},{"type":"Feature","geometry":{"coordinates":[-0.40181811153762703,39.494183850192464],"type":"Point"},"properties":{"id_parada":1319.0,"codvia":81575.0,"numportal":"P.CONGRESSOS (PAR)","suprimida":0,"denominacion":"Corts Valencianes - Palau de Congressos (1319)","lineas":"62,63,99,N3","proximas_llegadas":"http:\/\/www.emtvalencia.es\/QR.php?sec=est&p=1319","geo_point_2d":{"lon":-0.40181811153762703,"lat":39.494183850192464}}},{"type":"Feature","geometry":{"coordinates":[-0.42522663676222255,39.500991787797524],"type":"Point"},"properties":{"id_parada":387.0,"codvia":null,"numportal":"DAVANT HOTEL","suprimida":0,"denominacion":"Polvor\u00ed - Sinarques (387)","lineas":"62","proximas_llegadas":"http:\/\/www.emtvalencia.es\/QR.php?sec=est&p=387","geo_point_2d":{"lon":-0.42522663676222255,"lat":39.500991787797524}}},{"type":"Feature","geometry":{"coordinates":[-0.3324961026053938,39.46035702072443],"type":"Point"},"properties":{"id_parada":7.0,"codvia":24300.0,"numportal":"PORTA PPAL.","suprimida":0,"denominacion":"Edifici del Rellotge (7)","lineas":"19,92,95,N9","proximas_llegadas":"http:\/\/www.emtvalencia.es\/QR.php?sec=est&p=7","geo_point_2d":{"lon":-0.3324961026053938,"lat":39.46035702072443}}},{"type":"Feature","geometry":{"coordinates":[-0.3294739656056153,39.46378658245906],"type":"Point"},"properties":{"id_parada":1587.0,"codvia":2910.0,"numportal":"3","suprimida":0,"denominacion":"Marina de Val\u00e8ncia (1587)","lineas":"19,92","proximas_llegadas":"http:\/\/www.emtvalencia.es\/QR.php?sec=est&p=1587","geo_point_2d":{"lon":-0.3294739656056153,"lat":39.46378658245906}}},{"type":"Feature","geometry":{"coordinates":[-0.36780207454484715,39.50420124851776],"type":"Point"},"properties":{"id_parada":250.0,"codvia":62610.0,"numportal":"360","suprimida":0,"denominacion":"Constituci\u00f3 (parell) - Tavernes Blanques (250)","lineas":"16,N2","proximas_llegadas":"http:\/\/www.emtvalencia.es\/QR.php?sec=est&p=250","geo_point_2d":{"lon":-0.36780207454484715,"lat":39.50420124851776}}},{"type":"Feature","geometry":{"coordinates":[-0.34799795800167294,39.46975163452432],"type":"Point"},"properties":{"id_parada":136.0,"codvia":70620.0,"numportal":"59","suprimida":0,"denominacion":"Sants Just i Pastor - Lleons (136)","lineas":"32","proximas_llegadas":"http:\/\/www.emtvalencia.es\/QR.php?sec=est&p=136","geo_point_2d":{"lon":-0.34799795800167294,"lat":39.46975163452432}}},{"type":"Feature","geometry":{"coordinates":[-0.3539115521832035,39.475908821952615],"type":"Point"},"properties":{"id_parada":154.0,"codvia":900.0,"numportal":"37 (BARDISSA LATERAL)","suprimida":0,"denominacion":"Blasco Ib\u00e1\u00f1ez - Rub\u00e9n Dar\u00edo (154)","lineas":"30,31,71,81,89,N1","proximas_llegadas":"http:\/\/www.emtvalencia.es\/QR.php?sec=est&p=154","geo_point_2d":{"lon":-0.3539115521832035,"lat":39.475908821952615}}},{"type":"Feature","geometry":{"coordinates":[-0.36126425691697295,39.48670487857733],"type":"Point"},"properties":{"id_parada":178.0,"codvia":26820.0,"numportal":"40","suprimida":0,"denominacion":"Emili Bar\u00f3 - Manuel Castellanos (178)","lineas":"12,70","proximas_llegadas":"http:\/\/www.emtvalencia.es\/QR.php?sec=est&p=178","geo_point_2d":{"lon":-0.36126425691697295,"lat":39.48670487857733}}},{"type":"Feature","geometry":{"coordinates":[-0.3633803278420699,39.48407398723863],"type":"Point"},"properties":{"id_parada":186.0,"codvia":61410.0,"numportal":"70","suprimida":0,"denominacion":"Primat Reig - Jaume Roig (186)","lineas":"90,98","proximas_llegadas":"http:\/\/www.emtvalencia.es\/QR.php?sec=est&p=186","geo_point_2d":{"lon":-0.3633803278420699,"lat":39.48407398723863}}},{"type":"Feature","geometry":{"coordinates":[-0.35315890133992645,39.47432558037473],"type":"Point"},"properties":{"id_parada":225.0,"codvia":14730.0,"numportal":"99","suprimida":0,"denominacion":"Cardenal Benlloch - Ciutat de Mula (225)","lineas":"18,90","proximas_llegadas":"http:\/\/www.emtvalencia.es\/QR.php?sec=est&p=225","geo_point_2d":{"lon":-0.35315890133992645,"lat":39.47432558037473}}},{"type":"Feature","geometry":{"coordinates":[-0.35772845387797686,39.46429795476555],"type":"Point"},"properties":{"id_parada":231.0,"codvia":26190.0,"numportal":"31","suprimida":0,"denominacion":"Eduard Bosc\u00e0 - Balears (231)","lineas":"18,89","proximas_llegadas":"http:\/\/www.emtvalencia.es\/QR.php?sec=est&p=231","geo_point_2d":{"lon":-0.35772845387797686,"lat":39.46429795476555}}},{"type":"Feature","geometry":{"coordinates":[-0.39743263129890005,39.495574489483765],"type":"Point"},"properties":{"id_parada":1330.0,"codvia":21870.0,"numportal":"4","suprimida":0,"denominacion":"Florista (1330)","lineas":"28","proximas_llegadas":"http:\/\/www.emtvalencia.es\/QR.php?sec=est&p=1330","geo_point_2d":{"lon":-0.39743263129890005,"lat":39.495574489483765}}},{"type":"Feature","geometry":{"coordinates":[-0.36117927817648254,39.462427716848396],"type":"Point"},"properties":{"id_parada":1363.0,"codvia":38670.0,"numportal":"100 (DAVANT)","suprimida":0,"denominacion":"Regne de Val\u00e8ncia (imparell) - Alcalde Reig (1363)","lineas":"40","proximas_llegadas":"http:\/\/www.emtvalencia.es\/QR.php?sec=est&p=1363","geo_point_2d":{"lon":-0.36117927817648254,"lat":39.462427716848396}}},{"type":"Feature","geometry":{"coordinates":[-0.3829222819940433,39.48998211816957],"type":"Point"},"properties":{"id_parada":242.0,"codvia":53640.0,"numportal":"105","suprimida":0,"denominacion":"Dr. Peset Aleixandre - Guardacostes (242)","lineas":"60,64,90","proximas_llegadas":"http:\/\/www.emtvalencia.es\/QR.php?sec=est&p=242","geo_point_2d":{"lon":-0.3829222819940433,"lat":39.48998211816957}}},{"type":"Feature","geometry":{"coordinates":[-0.38015074417768174,39.4946989253522],"type":"Point"},"properties":{"id_parada":280.0,"codvia":49500.0,"numportal":"92","suprimida":0,"denominacion":"Cam\u00ed de Montcada (parell) - Cambrils (280)","lineas":"26","proximas_llegadas":"http:\/\/www.emtvalencia.es\/QR.php?sec=est&p=280","geo_point_2d":{"lon":-0.38015074417768174,"lat":39.4946989253522}}},{"type":"Feature","geometry":{"coordinates":[-0.38396921301397063,39.506847919125384],"type":"Point"},"properties":{"id_parada":284.0,"codvia":49500.0,"numportal":"260","suprimida":0,"denominacion":"Cam\u00ed de Montcada - Casa d'\u00c0ngel (284)","lineas":"26","proximas_llegadas":"http:\/\/www.emtvalencia.es\/QR.php?sec=est&p=284","geo_point_2d":{"lon":-0.38396921301397063,"lat":39.506847919125384}}},{"type":"Feature","geometry":{"coordinates":[-0.38264649176434967,39.50273142014839],"type":"Point"},"properties":{"id_parada":303.0,"codvia":49500.0,"numportal":"181","suprimida":0,"denominacion":"Cam\u00ed de Montcada - Ctra. Carpesa (303)","lineas":"26","proximas_llegadas":"http:\/\/www.emtvalencia.es\/QR.php?sec=est&p=303","geo_point_2d":{"lon":-0.38264649176434967,"lat":39.50273142014839}}},{"type":"Feature","geometry":{"coordinates":[-0.393545512567508,39.48091290492269],"type":"Point"},"properties":{"id_parada":64.0,"codvia":74730.0,"numportal":"1","suprimida":0,"denominacion":"Vall de la Ballestera - Campanar (64)","lineas":"98,99","proximas_llegadas":"http:\/\/www.emtvalencia.es\/QR.php?sec=est&p=64","geo_point_2d":{"lon":-0.393545512567508,"lat":39.48091290492269}}},{"type":"Feature","geometry":{"coordinates":[-0.33242877535322085,39.45055909542334],"type":"Point"},"properties":{"id_parada":70.0,"codvia":55710.0,"numportal":"58 (DAVANT)","suprimida":0,"denominacion":"Poliesportiu Natzaret - Moraira (70)","lineas":"30,4,95,N8","proximas_llegadas":"http:\/\/www.emtvalencia.es\/QR.php?sec=est&p=70","geo_point_2d":{"lon":-0.33242877535322085,"lat":39.45055909542334}}},{"type":"Feature","geometry":{"coordinates":[-0.36071520920458994,39.45457962167039],"type":"Point"},"properties":{"id_parada":1417.0,"codvia":81384.0,"numportal":"3","suprimida":0,"denominacion":"Inst. Obrer de Val. (imparell) - Amado Granell Mesado (1417)","lineas":"13,35,N9","proximas_llegadas":"http:\/\/www.emtvalencia.es\/QR.php?sec=est&p=1417","geo_point_2d":{"lon":-0.36071520920458994,"lat":39.45457962167039}}},{"type":"Feature","geometry":{"coordinates":[-0.39675385859092016,39.474647788340086],"type":"Point"},"properties":{"id_parada":1422.0,"codvia":56340.0,"numportal":"47","suprimida":0,"denominacion":"Petxina - P\u00e9rez Galdos (1422)","lineas":"95","proximas_llegadas":"http:\/\/www.emtvalencia.es\/QR.php?sec=est&p=1422","geo_point_2d":{"lon":-0.39675385859092016,"lat":39.474647788340086}}},{"type":"Feature","geometry":{"coordinates":[-0.3604474562139681,39.46788511246925],"type":"Point"},"properties":{"id_parada":1430.0,"codvia":58710.0,"numportal":"31","suprimida":0,"denominacion":"Albereda - Illes Can\u00e0ries (1430)","lineas":"4,92,94,N8","proximas_llegadas":"http:\/\/www.emtvalencia.es\/QR.php?sec=est&p=1430","geo_point_2d":{"lon":-0.3604474562139681,"lat":39.46788511246925}}},{"type":"Feature","geometry":{"coordinates":[-0.3773143752871361,39.515098993531204],"type":"Point"},"properties":{"id_parada":290.0,"codvia":null,"numportal":"103","suprimida":0,"denominacion":"Carpesa (290)","lineas":"26","proximas_llegadas":"http:\/\/www.emtvalencia.es\/QR.php?sec=est&p=290","geo_point_2d":{"lon":-0.3773143752871361,"lat":39.515098993531204}}},{"type":"Feature","geometry":{"coordinates":[-0.3900978443496681,39.47699300557139],"type":"Point"},"properties":{"id_parada":696.0,"codvia":30000.0,"numportal":"85","suprimida":0,"denominacion":"T\u00faria (696)","lineas":"60,62,64,79,92,N3","proximas_llegadas":"http:\/\/www.emtvalencia.es\/QR.php?sec=est&p=696","geo_point_2d":{"lon":-0.3900978443496681,"lat":39.47699300557139}}},{"type":"Feature","geometry":{"coordinates":[-0.39128027130327875,39.47461197811272],"type":"Point"},"properties":{"id_parada":749.0,"codvia":62010.0,"numportal":"134","suprimida":0,"denominacion":"Quart - Terol (749)","lineas":"73","proximas_llegadas":"http:\/\/www.emtvalencia.es\/QR.php?sec=est&p=749","geo_point_2d":{"lon":-0.39128027130327875,"lat":39.47461197811272}}},{"type":"Feature","geometry":{"coordinates":[-0.37162165655642027,39.45396312664135],"type":"Point"},"properties":{"id_parada":627.0,"codvia":31920.0,"numportal":"70","suprimida":0,"denominacion":"Fonteta Sant Llu\u00eds - B\u00e8rnia (627)","lineas":"7","proximas_llegadas":"http:\/\/www.emtvalencia.es\/QR.php?sec=est&p=627","geo_point_2d":{"lon":-0.37162165655642027,"lat":39.45396312664135}}},{"type":"Feature","geometry":{"coordinates":[-0.404771350758735,39.454266735538795],"type":"Point"},"properties":{"id_parada":525.0,"codvia":81020.0,"numportal":"5","suprimida":0,"denominacion":"Jos\u00e9 Andreu Alabarta - Professor \u00c0ngel Lacalle (525)","lineas":"72,73","proximas_llegadas":"http:\/\/www.emtvalencia.es\/QR.php?sec=est&p=525","geo_point_2d":{"lon":-0.404771350758735,"lat":39.454266735538795}}},{"type":"Feature","geometry":{"coordinates":[-0.3998469363943848,39.46368117339872],"type":"Point"},"properties":{"id_parada":530.0,"codvia":73950.0,"numportal":"99 (ACC\u00c9S)","suprimida":0,"denominacion":"Tres Forques - Mare de D\u00e9u de la Cabe\u00e7a (530)","lineas":"71,N5","proximas_llegadas":"http:\/\/www.emtvalencia.es\/QR.php?sec=est&p=530","geo_point_2d":{"lon":-0.3998469363943848,"lat":39.46368117339872}}},{"type":"Feature","geometry":{"coordinates":[-0.3919199326488302,39.46400204524694],"type":"Point"},"properties":{"id_parada":532.0,"codvia":73950.0,"numportal":"33","suprimida":0,"denominacion":"Tres Forques - Churat i Saur\u00ed (532)","lineas":"71","proximas_llegadas":"http:\/\/www.emtvalencia.es\/QR.php?sec=est&p=532","geo_point_2d":{"lon":-0.3919199326488302,"lat":39.46400204524694}}},{"type":"Feature","geometry":{"coordinates":[-0.32848401723716,39.46562731388932],"type":"Point"},"properties":{"id_parada":9.0,"codvia":24360.0,"numportal":"38","suprimida":0,"denominacion":"Dr. Lluch - Vicent Gallart (9)","lineas":"19,92,N9","proximas_llegadas":"http:\/\/www.emtvalencia.es\/QR.php?sec=est&p=9","geo_point_2d":{"lon":-0.32848401723716,"lat":39.46562731388932}}},{"type":"Feature","geometry":{"coordinates":[-0.3266646838466293,39.479115616941954],"type":"Point"},"properties":{"id_parada":16.0,"codvia":17820.0,"numportal":"94","suprimida":0,"denominacion":"Cavite - Vicent la Roda (16)","lineas":"19,31,N1","proximas_llegadas":"http:\/\/www.emtvalencia.es\/QR.php?sec=est&p=16","geo_point_2d":{"lon":-0.3266646838466293,"lat":39.479115616941954}}},{"type":"Feature","geometry":{"coordinates":[-0.32814842442332903,39.47911786974092],"type":"Point"},"properties":{"id_parada":24.0,"codvia":44550.0,"numportal":"57","suprimida":0,"denominacion":"la Malva-rosa - Sant Rafael (24)","lineas":"19,31,92,N1","proximas_llegadas":"http:\/\/www.emtvalencia.es\/QR.php?sec=est&p=24","geo_point_2d":{"lon":-0.32814842442332903,"lat":39.47911786974092}}},{"type":"Feature","geometry":{"coordinates":[-0.32957534251672244,39.471948384053576],"type":"Point"},"properties":{"id_parada":45.0,"codvia":58530.0,"numportal":"30","suprimida":0,"denominacion":"Pintor Ferrandis - Josep Benlliure (45)","lineas":"31,N1","proximas_llegadas":"http:\/\/www.emtvalencia.es\/QR.php?sec=est&p=45","geo_point_2d":{"lon":-0.32957534251672244,"lat":39.471948384053576}}},{"type":"Feature","geometry":{"coordinates":[-0.3886678195476463,39.51418151401951],"type":"Point"},"properties":{"id_parada":1410.0,"codvia":null,"numportal":"S\/N (IMPAR)","suprimida":0,"denominacion":"Borbot\u00f3 (1410)","lineas":"26","proximas_llegadas":"http:\/\/www.emtvalencia.es\/QR.php?sec=est&p=1410","geo_point_2d":{"lon":-0.3886678195476463,"lat":39.51418151401951}}},{"type":"Feature","geometry":{"coordinates":[-0.3872770335861917,39.44692260835913],"type":"Point"},"properties":{"id_parada":1442.0,"codvia":25080.0,"numportal":"43 (CARRIL BUS)","suprimida":0,"denominacion":"Dr. Tom\u00e0s Sala (imparell) - Sant Vicent M\u00e0rtir (1442)","lineas":"18,9,99,N6","proximas_llegadas":"http:\/\/www.emtvalencia.es\/QR.php?sec=est&p=1442","geo_point_2d":{"lon":-0.3872770335861917,"lat":39.44692260835913}}},{"type":"Feature","geometry":{"coordinates":[-0.35879300916703183,39.46318627266343],"type":"Point"},"properties":{"id_parada":1537.0,"codvia":58710.0,"numportal":"s\/n","suprimida":0,"denominacion":"Parc Gulliver  (1537)","lineas":"19,94","proximas_llegadas":"http:\/\/www.emtvalencia.es\/QR.php?sec=est&p=1537","geo_point_2d":{"lon":-0.35879300916703183,"lat":39.46318627266343}}},{"type":"Feature","geometry":{"coordinates":[-0.3340077005111219,39.47225120271202],"type":"Point"},"properties":{"id_parada":1552.0,"codvia":45810.0,"numportal":"30","suprimida":0,"denominacion":"Mar\u00ed Blas de Lezo - Felip Gauna (1552)","lineas":"31,98,99,N1","proximas_llegadas":"http:\/\/www.emtvalencia.es\/QR.php?sec=est&p=1552","geo_point_2d":{"lon":-0.3340077005111219,"lat":39.47225120271202}}},{"type":"Feature","geometry":{"coordinates":[-0.38562989681110177,39.48548516355135],"type":"Point"},"properties":{"id_parada":331.0,"codvia":12540.0,"numportal":"56","suprimida":0,"denominacion":"Bombas Gens (331)","lineas":"28,94,N10","proximas_llegadas":"http:\/\/www.emtvalencia.es\/QR.php?sec=est&p=331","geo_point_2d":{"lon":-0.38562989681110177,"lat":39.48548516355135}}},{"type":"Feature","geometry":{"coordinates":[-0.3890689091090323,39.48833469992052],"type":"Point"},"properties":{"id_parada":333.0,"codvia":12540.0,"numportal":"114","suprimida":0,"denominacion":"Burjassot - Dr. Peset Aleixandre (333)","lineas":"28,94,N10","proximas_llegadas":"http:\/\/www.emtvalencia.es\/QR.php?sec=est&p=333","geo_point_2d":{"lon":-0.3890689091090323,"lat":39.48833469992052}}},{"type":"Feature","geometry":{"coordinates":[-0.3657443125431373,39.45584425932465],"type":"Point"},"properties":{"id_parada":339.0,"codvia":59610.0,"numportal":"59","suprimida":0,"denominacion":"la Plata - Sapadors (339)","lineas":"18,6","proximas_llegadas":"http:\/\/www.emtvalencia.es\/QR.php?sec=est&p=339","geo_point_2d":{"lon":-0.3657443125431373,"lat":39.45584425932465}}},{"type":"Feature","geometry":{"coordinates":[-0.37401109059047366,39.4809077774229],"type":"Point"},"properties":{"id_parada":341.0,"codvia":21660.0,"numportal":"1 FGV","suprimida":0,"denominacion":"Pont de Fusta (341)","lineas":"16,26,6,79,94,95","proximas_llegadas":"http:\/\/www.emtvalencia.es\/QR.php?sec=est&p=341","geo_point_2d":{"lon":-0.37401109059047366,"lat":39.4809077774229}}},{"type":"Feature","geometry":{"coordinates":[-0.3937953224402587,39.48003460861822],"type":"Point"},"properties":{"id_parada":367.0,"codvia":2400.0,"numportal":"102","suprimida":0,"denominacion":"Campanar - Joan Pau II (367)","lineas":"89","proximas_llegadas":"http:\/\/www.emtvalencia.es\/QR.php?sec=est&p=367","geo_point_2d":{"lon":-0.3937953224402587,"lat":39.48003460861822}}},{"type":"Feature","geometry":{"coordinates":[-0.39328386658874426,39.482233591707285],"type":"Point"},"properties":{"id_parada":372.0,"codvia":59490.0,"numportal":"28","suprimida":0,"denominacion":"Pius XII - Campanar (372)","lineas":"62,63,64,92,99,N3","proximas_llegadas":"http:\/\/www.emtvalencia.es\/QR.php?sec=est&p=372","geo_point_2d":{"lon":-0.39328386658874426,"lat":39.482233591707285}}},{"type":"Feature","geometry":{"coordinates":[-0.39780872499083714,39.47632291104864],"type":"Point"},"properties":{"id_parada":419.0,"codvia":44850.0,"numportal":"1","suprimida":0,"denominacion":"Manuel de Falla - Mestre Rodrigo (419)","lineas":"67,95","proximas_llegadas":"http:\/\/www.emtvalencia.es\/QR.php?sec=est&p=419","geo_point_2d":{"lon":-0.39780872499083714,"lat":39.47632291104864}}},{"type":"Feature","geometry":{"coordinates":[-0.39779420967041934,39.47743618411912],"type":"Point"},"properties":{"id_parada":422.0,"codvia":80950.0,"numportal":"13","suprimida":0,"denominacion":"Mestre Rodrigo - Manuel de Falla (422)","lineas":"67","proximas_llegadas":"http:\/\/www.emtvalencia.es\/QR.php?sec=est&p=422","geo_point_2d":{"lon":-0.39779420967041934,"lat":39.47743618411912}}},{"type":"Feature","geometry":{"coordinates":[-0.4006458202088345,39.47246202669662],"type":"Point"},"properties":{"id_parada":473.0,"codvia":12180.0,"numportal":"71","suprimida":0,"denominacion":"Brasil - Vel\u00e0zquez (473)","lineas":"73","proximas_llegadas":"http:\/\/www.emtvalencia.es\/QR.php?sec=est&p=473","geo_point_2d":{"lon":-0.4006458202088345,"lat":39.47246202669662}}},{"type":"Feature","geometry":{"coordinates":[-0.3607197582904198,39.44867925943339],"type":"Point"},"properties":{"id_parada":657.0,"codvia":31740.0,"numportal":"54","suprimida":0,"denominacion":"Font d'en Corts - Levantina Alegre (657)","lineas":"14","proximas_llegadas":"http:\/\/www.emtvalencia.es\/QR.php?sec=est&p=657","geo_point_2d":{"lon":-0.3607197582904198,"lat":39.44867925943339}}},{"type":"Feature","geometry":{"coordinates":[-0.35601795022189014,39.44271560423901],"type":"Point"},"properties":{"id_parada":659.0,"codvia":31740.0,"numportal":"161 (DAVANT)","suprimida":0,"denominacion":"Font d'en Corts (parell) - Matador d'en Corts (659)","lineas":"14","proximas_llegadas":"http:\/\/www.emtvalencia.es\/QR.php?sec=est&p=659","geo_point_2d":{"lon":-0.35601795022189014,"lat":39.44271560423901}}},{"type":"Feature","geometry":{"coordinates":[-0.3639365492256364,39.42470350239161],"type":"Point"},"properties":{"id_parada":664.0,"codvia":null,"numportal":"65","suprimida":0,"denominacion":"Crist del Refugi - del Remol\u00ed (664)","lineas":"14","proximas_llegadas":"http:\/\/www.emtvalencia.es\/QR.php?sec=est&p=664","geo_point_2d":{"lon":-0.3639365492256364,"lat":39.42470350239161}}},{"type":"Feature","geometry":{"coordinates":[-0.42169964653488445,39.509630083457694],"type":"Point"},"properties":{"id_parada":1145.0,"codvia":null,"numportal":"S\/N","suprimida":0,"denominacion":"Campus de Burjassot (1145)","lineas":"63","proximas_llegadas":"http:\/\/www.emtvalencia.es\/QR.php?sec=est&p=1145","geo_point_2d":{"lon":-0.42169964653488445,"lat":39.509630083457694}}},{"type":"Feature","geometry":{"coordinates":[-0.41714866161426606,39.46845737329358],"type":"Point"},"properties":{"id_parada":1366.0,"codvia":null,"numportal":"CORTES D'AREN\u00d3S","suprimida":0,"denominacion":"La Llum (1366)","lineas":"71","proximas_llegadas":"http:\/\/www.emtvalencia.es\/QR.php?sec=est&p=1366","geo_point_2d":{"lon":-0.41714866161426606,"lat":39.46845737329358}}},{"type":"Feature","geometry":{"coordinates":[-0.41605320943872726,39.49713534639552],"type":"Point"},"properties":{"id_parada":381.0,"codvia":null,"numportal":"49","suprimida":0,"denominacion":"Moss\u00e9n Miguel Tarin (imparell) - Carretera de Paterna (381)","lineas":"62","proximas_llegadas":"http:\/\/www.emtvalencia.es\/QR.php?sec=est&p=381","geo_point_2d":{"lon":-0.41605320943872726,"lat":39.49713534639552}}},{"type":"Feature","geometry":{"coordinates":[-0.4226941165430092,39.50148699751043],"type":"Point"},"properties":{"id_parada":395.0,"codvia":null,"numportal":"53","suprimida":0,"denominacion":"Campament (imparell) - Joaqu\u00edn Mar\u00edn (395)","lineas":"62,N3","proximas_llegadas":"http:\/\/www.emtvalencia.es\/QR.php?sec=est&p=395","geo_point_2d":{"lon":-0.4226941165430092,"lat":39.50148699751043}}},{"type":"Feature","geometry":{"coordinates":[-0.40400419354279304,39.49432534052181],"type":"Point"},"properties":{"id_parada":1320.0,"codvia":81576.0,"numportal":"6","suprimida":0,"denominacion":"Camp de T\u00faria (parell) - Corts Valencianes (1320)","lineas":"62,N3","proximas_llegadas":"http:\/\/www.emtvalencia.es\/QR.php?sec=est&p=1320","geo_point_2d":{"lon":-0.40400419354279304,"lat":39.49432534052181}}},{"type":"Feature","geometry":{"coordinates":[-0.40337081510038314,39.49391476445109],"type":"Point"},"properties":{"id_parada":1321.0,"codvia":81576.0,"numportal":"6 (DAVANT)","suprimida":0,"denominacion":"Camp de T\u00faria (imparell) - Corts Valencianes (1321)","lineas":"62,N3","proximas_llegadas":"http:\/\/www.emtvalencia.es\/QR.php?sec=est&p=1321","geo_point_2d":{"lon":-0.40337081510038314,"lat":39.49391476445109}}},{"type":"Feature","geometry":{"coordinates":[-0.38604529372573154,39.52525355985053],"type":"Point"},"properties":{"id_parada":292.0,"codvia":49500.0,"numportal":"S\/N (SILVESTRE)","suprimida":0,"denominacion":"Benifaraig a Montcada - Casa Silvestre (292)","lineas":"26","proximas_llegadas":"http:\/\/www.emtvalencia.es\/QR.php?sec=est&p=292","geo_point_2d":{"lon":-0.38604529372573154,"lat":39.52525355985053}}},{"type":"Feature","geometry":{"coordinates":[-0.38393378842095716,39.45799732092898],"type":"Point"},"properties":{"id_parada":434.0,"codvia":33900.0,"numportal":"JARD\u00cd","suprimida":0,"denominacion":"Giorgeta - Ctra. D'Escriv\u00e0 (434)","lineas":"27","proximas_llegadas":"http:\/\/www.emtvalencia.es\/QR.php?sec=est&p=434","geo_point_2d":{"lon":-0.38393378842095716,"lat":39.45799732092898}}},{"type":"Feature","geometry":{"coordinates":[-0.40557850645080745,39.47013317475743],"type":"Point"},"properties":{"id_parada":485.0,"codvia":18390.0,"numportal":"S\/N (JARD\u00cd 9 D'OCTUBRE)","suprimida":0,"denominacion":"Nou d'Octubre (485)","lineas":"93,N4","proximas_llegadas":"http:\/\/www.emtvalencia.es\/QR.php?sec=est&p=485","geo_point_2d":{"lon":-0.40557850645080745,"lat":39.47013317475743}}},{"type":"Feature","geometry":{"coordinates":[-0.35751203884286215,39.444492271525384],"type":"Point"},"properties":{"id_parada":849.0,"codvia":31740.0,"numportal":"112","suprimida":0,"denominacion":"Font d'en Corts (parell) - Moss\u00e9n Palanca (849)","lineas":"14","proximas_llegadas":"http:\/\/www.emtvalencia.es\/QR.php?sec=est&p=849","geo_point_2d":{"lon":-0.35751203884286215,"lat":39.444492271525384}}},{"type":"Feature","geometry":{"coordinates":[-0.34090115402451227,39.42356462373024],"type":"Point"},"properties":{"id_parada":929.0,"codvia":46770.0,"numportal":"267","suprimida":0,"denominacion":"Carrera del Riu (imparell) - Canal (929)","lineas":"14,15,24,25","proximas_llegadas":"http:\/\/www.emtvalencia.es\/QR.php?sec=est&p=929","geo_point_2d":{"lon":-0.34090115402451227,"lat":39.42356462373024}}},{"type":"Feature","geometry":{"coordinates":[-0.35035269714630507,39.42229023928656],"type":"Point"},"properties":{"id_parada":931.0,"codvia":null,"numportal":"151","suprimida":0,"denominacion":"el Tremolar - Guadiana (931)","lineas":"14","proximas_llegadas":"http:\/\/www.emtvalencia.es\/QR.php?sec=est&p=931","geo_point_2d":{"lon":-0.35035269714630507,"lat":39.42229023928656}}},{"type":"Feature","geometry":{"coordinates":[-0.36099426786497923,39.42349814485445],"type":"Point"},"properties":{"id_parada":934.0,"codvia":null,"numportal":"23 (DAVANT)","suprimida":0,"denominacion":"el Tremolar - Cam\u00ed del Cavall\u00f3 (934)","lineas":"14","proximas_llegadas":"http:\/\/www.emtvalencia.es\/QR.php?sec=est&p=934","geo_point_2d":{"lon":-0.36099426786497923,"lat":39.42349814485445}}},{"type":"Feature","geometry":{"coordinates":[-0.35620080490369793,39.422615295518746],"type":"Point"},"properties":{"id_parada":936.0,"codvia":null,"numportal":"100","suprimida":0,"denominacion":"el Tremolar - S\u00e9quia de l'Or (936)","lineas":"14","proximas_llegadas":"http:\/\/www.emtvalencia.es\/QR.php?sec=est&p=936","geo_point_2d":{"lon":-0.35620080490369793,"lat":39.422615295518746}}},{"type":"Feature","geometry":{"coordinates":[-0.34504441349228704,39.42131843170627],"type":"Point"},"properties":{"id_parada":938.0,"codvia":null,"numportal":"163 (DAVANT)","suprimida":0,"denominacion":"el Tremolar - Cam\u00ed del Bracet (938)","lineas":"14","proximas_llegadas":"http:\/\/www.emtvalencia.es\/QR.php?sec=est&p=938","geo_point_2d":{"lon":-0.34504441349228704,"lat":39.42131843170627}}},{"type":"Feature","geometry":{"coordinates":[-0.3429951473059988,39.43211317444846],"type":"Point"},"properties":{"id_parada":939.0,"codvia":46770.0,"numportal":"219","suprimida":0,"denominacion":"Carrera del Riu - Entrada casa Rosquilla (939)","lineas":"15","proximas_llegadas":"http:\/\/www.emtvalencia.es\/QR.php?sec=est&p=939","geo_point_2d":{"lon":-0.3429951473059988,"lat":39.43211317444846}}},{"type":"Feature","geometry":{"coordinates":[-0.3613584036763181,39.51637262851342],"type":"Point"},"properties":{"id_parada":949.0,"codvia":null,"numportal":"1 (DAVANT)","suprimida":0,"denominacion":"Alm\u00e0ssera (949)","lineas":"16","proximas_llegadas":"http:\/\/www.emtvalencia.es\/QR.php?sec=est&p=949","geo_point_2d":{"lon":-0.3613584036763181,"lat":39.51637262851342}}},{"type":"Feature","geometry":{"coordinates":[-0.34543455299927084,39.45101489021512],"type":"Point"},"properties":{"id_parada":1007.0,"codvia":38290.0,"numportal":"26","suprimida":0,"denominacion":"Jes\u00fas Morante Borr\u00e0s (I) - (1007)","lineas":"15","proximas_llegadas":"http:\/\/www.emtvalencia.es\/QR.php?sec=est&p=1007","geo_point_2d":{"lon":-0.34543455299927084,"lat":39.45101489021512}}},{"type":"Feature","geometry":{"coordinates":[-0.3439874281076998,39.44414756137639],"type":"Point"},"properties":{"id_parada":1010.0,"codvia":38290.0,"numportal":"158","suprimida":0,"denominacion":"Jes\u00fas Morante Borr\u00e1s (IV) (1010)","lineas":"15","proximas_llegadas":"http:\/\/www.emtvalencia.es\/QR.php?sec=est&p=1010","geo_point_2d":{"lon":-0.3439874281076998,"lat":39.44414756137639}}},{"type":"Feature","geometry":{"coordinates":[-0.34386496765355334,39.44789369518285],"type":"Point"},"properties":{"id_parada":1014.0,"codvia":38290.0,"numportal":"75","suprimida":0,"denominacion":"Jes\u00fas Morante Borr\u00e0s (VIII) -  (1014)","lineas":"15","proximas_llegadas":"http:\/\/www.emtvalencia.es\/QR.php?sec=est&p=1014","geo_point_2d":{"lon":-0.34386496765355334,"lat":39.44789369518285}}},{"type":"Feature","geometry":{"coordinates":[-0.36419505902750116,39.4266084086136],"type":"Point"},"properties":{"id_parada":1029.0,"codvia":null,"numportal":"72","suprimida":0,"denominacion":"Vicent Puchol - Font de Bonet (1029)","lineas":"14","proximas_llegadas":"http:\/\/www.emtvalencia.es\/QR.php?sec=est&p=1029","geo_point_2d":{"lon":-0.36419505902750116,"lat":39.4266084086136}}},{"type":"Feature","geometry":{"coordinates":[-0.3768122756845486,39.4958258230829],"type":"Point"},"properties":{"id_parada":1126.0,"codvia":20280.0,"numportal":"74","suprimida":0,"denominacion":"Comte de Torrefiel - Josep Esteve (1126)","lineas":"6,60","proximas_llegadas":"http:\/\/www.emtvalencia.es\/QR.php?sec=est&p=1126","geo_point_2d":{"lon":-0.3768122756845486,"lat":39.4958258230829}}},{"type":"Feature","geometry":{"coordinates":[-0.3502674310412221,39.46837632561385],"type":"Point"},"properties":{"id_parada":1118.0,"codvia":24420.0,"numportal":"29","suprimida":0,"denominacion":"Dr. Manuel Candela (imparell) - Rodr\u00edguez de Cepeda (1118)","lineas":"30,40","proximas_llegadas":"http:\/\/www.emtvalencia.es\/QR.php?sec=est&p=1118","geo_point_2d":{"lon":-0.3502674310412221,"lat":39.46837632561385}}},{"type":"Feature","geometry":{"coordinates":[-0.3406249446178361,39.42169734723553],"type":"Point"},"properties":{"id_parada":924.0,"codvia":46770.0,"numportal":"314","suprimida":0,"denominacion":"Carrera del Riu - Trav. Pinedo a la Mar (924)","lineas":"14,15,24,25","proximas_llegadas":"http:\/\/www.emtvalencia.es\/QR.php?sec=est&p=924","geo_point_2d":{"lon":-0.3406249446178361,"lat":39.42169734723553}}},{"type":"Feature","geometry":{"coordinates":[-0.3575740857631919,39.48407868643406],"type":"Point"},"properties":{"id_parada":966.0,"codvia":35520.0,"numportal":"5","suprimida":0,"denominacion":"Vicent Zaragoz\u00e0 (966)","lineas":"10","proximas_llegadas":"http:\/\/www.emtvalencia.es\/QR.php?sec=est&p=966","geo_point_2d":{"lon":-0.3575740857631919,"lat":39.48407868643406}}},{"type":"Feature","geometry":{"coordinates":[-0.3285296166249586,39.46986107034692],"type":"Point"},"properties":{"id_parada":1672.0,"codvia":2910.0,"numportal":"143","suprimida":0,"denominacion":"Reina - Pescadors (1672)","lineas":"19,92,N1","proximas_llegadas":"http:\/\/www.emtvalencia.es\/QR.php?sec=est&p=1672","geo_point_2d":{"lon":-0.3285296166249586,"lat":39.46986107034692}}},{"type":"Feature","geometry":{"coordinates":[-0.3733874578847641,39.49185652196218],"type":"Point"},"properties":{"id_parada":1682.0,"codvia":61410.0,"numportal":"5 (ACC.)","suprimida":0,"denominacion":"Primat Reig - Constituci\u00f3 (1682)","lineas":"89,N2","proximas_llegadas":"http:\/\/www.emtvalencia.es\/QR.php?sec=est&p=1682","geo_point_2d":{"lon":-0.3733874578847641,"lat":39.49185652196218}}},{"type":"Feature","geometry":{"coordinates":[-0.3504602989321458,39.46504304755925],"type":"Point"},"properties":{"id_parada":1597.0,"codvia":37470.0,"numportal":"78 (DAVANT)","suprimida":0,"denominacion":"Illes Can\u00e0ries - Lebon (1597)","lineas":"30,4,92,N8","proximas_llegadas":"http:\/\/www.emtvalencia.es\/QR.php?sec=est&p=1597","geo_point_2d":{"lon":-0.3504602989321458,"lat":39.46504304755925}}},{"type":"Feature","geometry":{"coordinates":[-0.33815712861873515,39.46152898895248],"type":"Point"},"properties":{"id_parada":1631.0,"codvia":25680.0,"numportal":"274","suprimida":0,"denominacion":"Port - Illes Can\u00e0ries (1631)","lineas":"19,N9","proximas_llegadas":"http:\/\/www.emtvalencia.es\/QR.php?sec=est&p=1631","geo_point_2d":{"lon":-0.33815712861873515,"lat":39.46152898895248}}},{"type":"Feature","geometry":{"coordinates":[-0.35850351503029254,39.48332168711801],"type":"Point"},"properties":{"id_parada":985.0,"codvia":81040.0,"numportal":"6","suprimida":0,"denominacion":"Centre de Salut Benimaclet (985)","lineas":"10","proximas_llegadas":"http:\/\/www.emtvalencia.es\/QR.php?sec=est&p=985","geo_point_2d":{"lon":-0.35850351503029254,"lat":39.48332168711801}}},{"type":"Feature","geometry":{"coordinates":[-0.3712278016518398,39.47697902585149],"type":"Point"},"properties":{"id_parada":773.0,"codvia":60360.0,"numportal":"JARD\u00cd","suprimida":0,"denominacion":"Pla\u00e7a del Temple (773)","lineas":"11,16,26,28,6,80,94,95,C1,N10","proximas_llegadas":"http:\/\/www.emtvalencia.es\/QR.php?sec=est&p=773","geo_point_2d":{"lon":-0.3712278016518398,"lat":39.47697902585149}}},{"type":"Feature","geometry":{"coordinates":[-0.38380702553581864,39.47391368850487],"type":"Point"},"properties":{"id_parada":792.0,"codvia":27510.0,"numportal":"2","suprimida":0,"denominacion":"Encarnaci\u00f3 - Guillem de Castro (792)","lineas":"28,C1","proximas_llegadas":"http:\/\/www.emtvalencia.es\/QR.php?sec=est&p=792","geo_point_2d":{"lon":-0.38380702553581864,"lat":39.47391368850487}}},{"type":"Feature","geometry":{"coordinates":[-0.3664446867397901,39.451940743698394],"type":"Point"},"properties":{"id_parada":653.0,"codvia":35462.0,"numportal":"16","suprimida":0,"denominacion":"Poliesportiu Fta. Sant Llu\u00eds (653)","lineas":"13","proximas_llegadas":"http:\/\/www.emtvalencia.es\/QR.php?sec=est&p=653","geo_point_2d":{"lon":-0.3664446867397901,"lat":39.451940743698394}}},{"type":"Feature","geometry":{"coordinates":[-0.3658185852528091,39.46848898117759],"type":"Point"},"properties":{"id_parada":686.0,"codvia":46320.0,"numportal":"BARDISSA C\u00c1NOVAS (IMPAR)","suprimida":0,"denominacion":"Pla\u00e7a de C\u00e1novas (686)","lineas":"80,92,93","proximas_llegadas":"http:\/\/www.emtvalencia.es\/QR.php?sec=est&p=686","geo_point_2d":{"lon":-0.3658185852528091,"lat":39.46848898117759}}},{"type":"Feature","geometry":{"coordinates":[-0.38103727516887237,39.46526988246608],"type":"Point"},"properties":{"id_parada":691.0,"codvia":27870.0,"numportal":"1 (RAMON I CAJAL)","suprimida":0,"denominacion":"Pla\u00e7a d'Espanya (691)","lineas":"80,92","proximas_llegadas":"http:\/\/www.emtvalencia.es\/QR.php?sec=est&p=691","geo_point_2d":{"lon":-0.38103727516887237,"lat":39.46526988246608}}},{"type":"Feature","geometry":{"coordinates":[-0.37465943814902253,39.46435627681756],"type":"Point"},"properties":{"id_parada":708.0,"codvia":33630.0,"numportal":"13","suprimida":0,"denominacion":"Germanies - Sevilla (708)","lineas":"15,19,79,92,93","proximas_llegadas":"http:\/\/www.emtvalencia.es\/QR.php?sec=est&p=708","geo_point_2d":{"lon":-0.37465943814902253,"lat":39.46435627681756}}},{"type":"Feature","geometry":{"coordinates":[-0.36391734679371346,39.46272739927771],"type":"Point"},"properties":{"id_parada":724.0,"codvia":38670.0,"numportal":"80","suprimida":0,"denominacion":"Regne de Val\u00e8ncia - Peris i Valero (724)","lineas":"19,40","proximas_llegadas":"http:\/\/www.emtvalencia.es\/QR.php?sec=est&p=724","geo_point_2d":{"lon":-0.36391734679371346,"lat":39.46272739927771}}},{"type":"Feature","geometry":{"coordinates":[-0.37093699330549845,39.46375709314925],"type":"Point"},"properties":{"id_parada":728.0,"codvia":59190.0,"numportal":"14","suprimida":0,"denominacion":"Pintor Salvador Abril - Mestre J. Serrano (728)","lineas":"14,15,35,6,N9","proximas_llegadas":"http:\/\/www.emtvalencia.es\/QR.php?sec=est&p=728","geo_point_2d":{"lon":-0.37093699330549845,"lat":39.46375709314925}}},{"type":"Feature","geometry":{"coordinates":[-0.3885707407060946,39.46377446986934],"type":"Point"},"properties":{"id_parada":555.0,"codvia":22020.0,"numportal":"71","suprimida":0,"denominacion":"Conca - P\u00e9rez Gald\u00f3s (555)","lineas":"11","proximas_llegadas":"http:\/\/www.emtvalencia.es\/QR.php?sec=est&p=555","geo_point_2d":{"lon":-0.3885707407060946,"lat":39.46377446986934}}},{"type":"Feature","geometry":{"coordinates":[-0.38711139556309804,39.444233429989865],"type":"Point"},"properties":{"id_parada":591.0,"codvia":69330.0,"numportal":"371","suprimida":0,"denominacion":"Sant Vicent M\u00e0rtir (imparell) - Arquebisbe Olaechea (591)","lineas":"27,9,N6","proximas_llegadas":"http:\/\/www.emtvalencia.es\/QR.php?sec=est&p=591","geo_point_2d":{"lon":-0.38711139556309804,"lat":39.444233429989865}}},{"type":"Feature","geometry":{"coordinates":[-0.3684030328771879,39.448583023433734],"type":"Point"},"properties":{"id_parada":636.0,"codvia":31920.0,"numportal":"136 (DAVANT)","suprimida":0,"denominacion":"Fonteta Sant Llu\u00eds (imparell) - \u00c0ngel Villena (636)","lineas":"13,7,N7","proximas_llegadas":"http:\/\/www.emtvalencia.es\/QR.php?sec=est&p=636","geo_point_2d":{"lon":-0.3684030328771879,"lat":39.448583023433734}}},{"type":"Feature","geometry":{"coordinates":[-0.3712258287196661,39.45495005321587],"type":"Point"},"properties":{"id_parada":640.0,"codvia":61920.0,"numportal":"23","suprimida":0,"denominacion":"Puigcampana - Fonteta Sant Llu\u00eds (640)","lineas":"7","proximas_llegadas":"http:\/\/www.emtvalencia.es\/QR.php?sec=est&p=640","geo_point_2d":{"lon":-0.3712258287196661,"lat":39.45495005321587}}},{"type":"Feature","geometry":{"coordinates":[-0.3974846877256919,39.47147480007337],"type":"Point"},"properties":{"id_parada":474.0,"codvia":12180.0,"numportal":"37","suprimida":0,"denominacion":"Brasil - Francisco Moreno Usedo (474)","lineas":"73","proximas_llegadas":"http:\/\/www.emtvalencia.es\/QR.php?sec=est&p=474","geo_point_2d":{"lon":-0.3974846877256919,"lat":39.47147480007337}}},{"type":"Feature","geometry":{"coordinates":[-0.4061690717084912,39.465459804945326],"type":"Point"},"properties":{"id_parada":498.0,"codvia":73920.0,"numportal":"14 (CARRIL BUS)","suprimida":0,"denominacion":"Mercat de Castilla (498)","lineas":"71,99","proximas_llegadas":"http:\/\/www.emtvalencia.es\/QR.php?sec=est&p=498","geo_point_2d":{"lon":-0.4061690717084912,"lat":39.465459804945326}}},{"type":"Feature","geometry":{"coordinates":[-0.39992331525642283,39.46855484215892],"type":"Point"},"properties":{"id_parada":507.0,"codvia":18390.0,"numportal":"41","suprimida":0,"denominacion":"Central de Policia Local de Val\u00e8ncia (507)","lineas":"70,93,N4","proximas_llegadas":"http:\/\/www.emtvalencia.es\/QR.php?sec=est&p=507","geo_point_2d":{"lon":-0.39992331525642283,"lat":39.46855484215892}}},{"type":"Feature","geometry":{"coordinates":[-0.3947695586673236,39.47777580159739],"type":"Point"},"properties":{"id_parada":368.0,"codvia":2400.0,"numportal":"128","suprimida":0,"denominacion":"Mercat de Campanar (368)","lineas":"89","proximas_llegadas":"http:\/\/www.emtvalencia.es\/QR.php?sec=est&p=368","geo_point_2d":{"lon":-0.3947695586673236,"lat":39.47777580159739}}},{"type":"Feature","geometry":{"coordinates":[-0.3946933426654246,39.48439589204899],"type":"Point"},"properties":{"id_parada":373.0,"codvia":59490.0,"numportal":"34","suprimida":0,"denominacion":"Campanar (373)","lineas":"62,64,92,99,N3","proximas_llegadas":"http:\/\/www.emtvalencia.es\/QR.php?sec=est&p=373","geo_point_2d":{"lon":-0.3946933426654246,"lat":39.48439589204899}}},{"type":"Feature","geometry":{"coordinates":[-0.3964199275134341,39.486989640906074],"type":"Point"},"properties":{"id_parada":375.0,"codvia":81575.0,"numportal":"6 (ACC\u00c9S)","suprimida":0,"denominacion":"Corts Valencianes - Davant Esc. Prof. Sant Josep (375)","lineas":"62,99,N3","proximas_llegadas":"http:\/\/www.emtvalencia.es\/QR.php?sec=est&p=375","geo_point_2d":{"lon":-0.3964199275134341,"lat":39.486989640906074}}},{"type":"Feature","geometry":{"coordinates":[-0.37857643440657046,39.49146653791018],"type":"Point"},"properties":{"id_parada":279.0,"codvia":49500.0,"numportal":"50","suprimida":0,"denominacion":"Cam\u00ed de Montcada - Dr. Peset Aleixandre (279)","lineas":"26","proximas_llegadas":"http:\/\/www.emtvalencia.es\/QR.php?sec=est&p=279","geo_point_2d":{"lon":-0.37857643440657046,"lat":39.49146653791018}}},{"type":"Feature","geometry":{"coordinates":[-0.38095722592959064,39.49649249254142],"type":"Point"},"properties":{"id_parada":281.0,"codvia":49500.0,"numportal":"121 (DAVANT)","suprimida":0,"denominacion":"Cam\u00ed de Montcada (parell) - Alemany (281)","lineas":"26","proximas_llegadas":"http:\/\/www.emtvalencia.es\/QR.php?sec=est&p=281","geo_point_2d":{"lon":-0.38095722592959064,"lat":39.49649249254142}}},{"type":"Feature","geometry":{"coordinates":[-0.39621068808143994,39.49567884866867],"type":"Point"},"properties":{"id_parada":310.0,"codvia":42750.0,"numportal":"2","suprimida":0,"denominacion":"Parc de Benicalap (310)","lineas":"28,N10","proximas_llegadas":"http:\/\/www.emtvalencia.es\/QR.php?sec=est&p=310","geo_point_2d":{"lon":-0.39621068808143994,"lat":39.49567884866867}}},{"type":"Feature","geometry":{"coordinates":[-0.33503715902562003,39.46667732511951],"type":"Point"},"properties":{"id_parada":1384.0,"codvia":71130.0,"numportal":"POLIESPORTIU","suprimida":0,"denominacion":"Serradora - Poliesportiu (1384)","lineas":"32,99","proximas_llegadas":"http:\/\/www.emtvalencia.es\/QR.php?sec=est&p=1384","geo_point_2d":{"lon":-0.33503715902562003,"lat":39.46667732511951}}},{"type":"Feature","geometry":{"coordinates":[-0.3753595170469953,39.48164319706041],"type":"Point"},"properties":{"id_parada":352.0,"codvia":34860.0,"numportal":"2 (DAVANT)","suprimida":0,"denominacion":"Pont dels Serrans (352)","lineas":"16,26,6,80,94,N10","proximas_llegadas":"http:\/\/www.emtvalencia.es\/QR.php?sec=est&p=352","geo_point_2d":{"lon":-0.3753595170469953,"lat":39.48164319706041}}},{"type":"Feature","geometry":{"coordinates":[-0.38770875302825153,39.480211915773715],"type":"Point"},"properties":{"id_parada":346.0,"codvia":47760.0,"numportal":"14","suprimida":0,"denominacion":"Estaci\u00f3 d'autobusos (346)","lineas":"79,95","proximas_llegadas":"http:\/\/www.emtvalencia.es\/QR.php?sec=est&p=346","geo_point_2d":{"lon":-0.38770875302825153,"lat":39.480211915773715}}},{"type":"Feature","geometry":{"coordinates":[-0.3812053074435144,39.48298254491847],"type":"Point"},"properties":{"id_parada":344.0,"codvia":43380.0,"numportal":"18","suprimida":0,"denominacion":"Escola Oficial d'Idiomes (344)","lineas":"79,94,95","proximas_llegadas":"http:\/\/www.emtvalencia.es\/QR.php?sec=est&p=344","geo_point_2d":{"lon":-0.3812053074435144,"lat":39.48298254491847}}},{"type":"Feature","geometry":{"coordinates":[-0.3744655348329015,39.451848425437674],"type":"Point"},"properties":{"id_parada":1354.0,"codvia":11010.0,"numportal":"14","suprimida":0,"denominacion":"Poliesportiu Malilla (1354)","lineas":"18","proximas_llegadas":"http:\/\/www.emtvalencia.es\/QR.php?sec=est&p=1354","geo_point_2d":{"lon":-0.3744655348329015,"lat":39.451848425437674}}},{"type":"Feature","geometry":{"coordinates":[-0.39730897371933394,39.47752905380036],"type":"Point"},"properties":{"id_parada":1295.0,"codvia":80950.0,"numportal":"10","suprimida":0,"denominacion":"Mestre Rodrigo - Marqu\u00e9s de Sant Joan (1295)","lineas":"90","proximas_llegadas":"http:\/\/www.emtvalencia.es\/QR.php?sec=est&p=1295","geo_point_2d":{"lon":-0.39730897371933394,"lat":39.47752905380036}}},{"type":"Feature","geometry":{"coordinates":[-0.3299745828044704,39.45506261133725],"type":"Point"},"properties":{"id_parada":1306.0,"codvia":44960.0,"numportal":"15 (DAVANT ILLETA)","suprimida":0,"denominacion":"Pont de les Drassanes (1306)","lineas":"30,4,95,N8","proximas_llegadas":"http:\/\/www.emtvalencia.es\/QR.php?sec=est&p=1306","geo_point_2d":{"lon":-0.3299745828044704,"lat":39.45506261133725}}},{"type":"Feature","geometry":{"coordinates":[-0.39226588973001386,39.488875209838426],"type":"Point"},"properties":{"id_parada":1348.0,"codvia":24660.0,"numportal":"27","suprimida":0,"denominacion":"Dr. Nicasi Benlloch - Emili Nadal (1348)","lineas":"28","proximas_llegadas":"http:\/\/www.emtvalencia.es\/QR.php?sec=est&p=1348","geo_point_2d":{"lon":-0.39226588973001386,"lat":39.488875209838426}}},{"type":"Feature","geometry":{"coordinates":[-0.36782796892469366,39.45162386202675],"type":"Point"},"properties":{"id_parada":1141.0,"codvia":35462.0,"numportal":"14 (DAVANT)","suprimida":0,"denominacion":"Germans Maristes (imparell) - Fonteta Sant Llu\u00eds (1141)","lineas":"13","proximas_llegadas":"http:\/\/www.emtvalencia.es\/QR.php?sec=est&p=1141","geo_point_2d":{"lon":-0.36782796892469366,"lat":39.45162386202675}}},{"type":"Feature","geometry":{"coordinates":[-0.3258003515262037,39.48115818380831],"type":"Point"},"properties":{"id_parada":1163.0,"codvia":37350.0,"numportal":"127","suprimida":0,"denominacion":"Isabel de Villena - Font d'en Carr\u00f3s (1163)","lineas":"32","proximas_llegadas":"http:\/\/www.emtvalencia.es\/QR.php?sec=est&p=1163","geo_point_2d":{"lon":-0.3258003515262037,"lat":39.48115818380831}}},{"type":"Feature","geometry":{"coordinates":[-0.35659608831880907,39.47901319651021],"type":"Point"},"properties":{"id_parada":1239.0,"codvia":61410.0,"numportal":"187 (DAVANT)","suprimida":0,"denominacion":"Primat Reig - X\u00e0bia (1239)","lineas":"10,90,98","proximas_llegadas":"http:\/\/www.emtvalencia.es\/QR.php?sec=est&p=1239","geo_point_2d":{"lon":-0.35659608831880907,"lat":39.47901319651021}}},{"type":"Feature","geometry":{"coordinates":[-0.3521466572906376,39.46005182152625],"type":"Point"},"properties":{"id_parada":1538.0,"codvia":30960.0,"numportal":"4","suprimida":0,"denominacion":"Fran\u00e7a-Albereda (1538)","lineas":"19,N9","proximas_llegadas":"http:\/\/www.emtvalencia.es\/QR.php?sec=est&p=1538","geo_point_2d":{"lon":-0.3521466572906376,"lat":39.46005182152625}}},{"type":"Feature","geometry":{"coordinates":[-0.34560235370804343,39.45861530746599],"type":"Point"},"properties":{"id_parada":1540.0,"codvia":30960.0,"numportal":"44","suprimida":0,"denominacion":"Fran\u00e7a-Trafalgar (1540)","lineas":"19,N9","proximas_llegadas":"http:\/\/www.emtvalencia.es\/QR.php?sec=est&p=1540","geo_point_2d":{"lon":-0.34560235370804343,"lat":39.45861530746599}}},{"type":"Feature","geometry":{"coordinates":[-0.37180672861868974,39.4592662745097],"type":"Point"},"properties":{"id_parada":718.0,"codvia":12960.0,"numportal":"92","suprimida":0,"denominacion":"Cadis - dels Centelles (718)","lineas":"7,N7","proximas_llegadas":"http:\/\/www.emtvalencia.es\/QR.php?sec=est&p=718","geo_point_2d":{"lon":-0.37180672861868974,"lat":39.4592662745097}}},{"type":"Feature","geometry":{"coordinates":[-0.39688849660997605,39.4637962038548],"type":"Point"},"properties":{"id_parada":531.0,"codvia":73950.0,"numportal":"77","suprimida":0,"denominacion":"Tres Forques (imparell) - Arxiduc Carles (531)","lineas":"71,N5","proximas_llegadas":"http:\/\/www.emtvalencia.es\/QR.php?sec=est&p=531","geo_point_2d":{"lon":-0.39688849660997605,"lat":39.4637962038548}}},{"type":"Feature","geometry":{"coordinates":[-0.3603308647332809,39.47272286992908],"type":"Point"},"properties":{"id_parada":874.0,"codvia":30300.0,"numportal":"2 ACC","suprimida":0,"denominacion":"Finl\u00e0ndia - General Gil Dolz (874)","lineas":"32","proximas_llegadas":"http:\/\/www.emtvalencia.es\/QR.php?sec=est&p=874","geo_point_2d":{"lon":-0.3603308647332809,"lat":39.47272286992908}}},{"type":"Feature","geometry":{"coordinates":[-0.38230892004937106,39.4912216304024],"type":"Point"},"properties":{"id_parada":268.0,"codvia":40200.0,"numportal":"10","suprimida":0,"denominacion":"Joan XXIII (parell) - F\u00e9lix del R\u00edo (268)","lineas":"60,64","proximas_llegadas":"http:\/\/www.emtvalencia.es\/QR.php?sec=est&p=268","geo_point_2d":{"lon":-0.38230892004937106,"lat":39.4912216304024}}},{"type":"Feature","geometry":{"coordinates":[-0.340052576937374,39.47216399351745],"type":"Point"},"properties":{"id_parada":124.0,"codvia":900.0,"numportal":"149","suprimida":0,"denominacion":"Blasco Ib\u00e1\u00f1ez - Jos\u00e9 Mar\u00eda Orense (124)","lineas":"31,81,N1","proximas_llegadas":"http:\/\/www.emtvalencia.es\/QR.php?sec=est&p=124","geo_point_2d":{"lon":-0.340052576937374,"lat":39.47216399351745}}},{"type":"Feature","geometry":{"coordinates":[-0.39793869170950696,39.47932159552723],"type":"Point"},"properties":{"id_parada":415.0,"codvia":74730.0,"numportal":"34","suprimida":0,"denominacion":"Vall de la Ballestera (parell) - Mestre Rodrigo (415)","lineas":"98,99","proximas_llegadas":"http:\/\/www.emtvalencia.es\/QR.php?sec=est&p=415","geo_point_2d":{"lon":-0.39793869170950696,"lat":39.47932159552723}}},{"type":"Feature","geometry":{"coordinates":[-0.3341561776066225,39.450237298460074],"type":"Point"},"properties":{"id_parada":62.0,"codvia":47430.0,"numportal":"S\/N (DAVANT MERCAT)","suprimida":0,"denominacion":"Mercat de Natzaret (62)","lineas":"30,4,95,N8","proximas_llegadas":"http:\/\/www.emtvalencia.es\/QR.php?sec=est&p=62","geo_point_2d":{"lon":-0.3341561776066225,"lat":39.450237298460074}}},{"type":"Feature","geometry":{"coordinates":[-0.3723487535040463,39.496316211566324],"type":"Point"},"properties":{"id_parada":1133.0,"codvia":20010.0,"numportal":"26 (DAVANT)","suprimida":0,"denominacion":"Tossal del Rei (1133)","lineas":"12,16,N2","proximas_llegadas":"http:\/\/www.emtvalencia.es\/QR.php?sec=est&p=1133","geo_point_2d":{"lon":-0.3723487535040463,"lat":39.496316211566324}}},{"type":"Feature","geometry":{"coordinates":[-0.32585751432503196,39.47896606657254],"type":"Point"},"properties":{"id_parada":1164.0,"codvia":37350.0,"numportal":"89","suprimida":0,"denominacion":"Isabel de Villena - Vicent la Roda (1164)","lineas":"32","proximas_llegadas":"http:\/\/www.emtvalencia.es\/QR.php?sec=est&p=1164","geo_point_2d":{"lon":-0.32585751432503196,"lat":39.47896606657254}}},{"type":"Feature","geometry":{"coordinates":[-0.3753286315220565,39.494984979652976],"type":"Point"},"properties":{"id_parada":1061.0,"codvia":56490.0,"numportal":"58","suprimida":0,"denominacion":"Pere Cabanes - Sant Dom\u00e9nec Savio (1061)","lineas":"12","proximas_llegadas":"http:\/\/www.emtvalencia.es\/QR.php?sec=est&p=1061","geo_point_2d":{"lon":-0.3753286315220565,"lat":39.494984979652976}}},{"type":"Feature","geometry":{"coordinates":[-0.3306578542809831,39.454493936024],"type":"Point"},"properties":{"id_parada":60.0,"codvia":44960.0,"numportal":"18","suprimida":0,"denominacion":"Pont de les Drassanes (60)","lineas":"30,4,95,N8","proximas_llegadas":"http:\/\/www.emtvalencia.es\/QR.php?sec=est&p=60","geo_point_2d":{"lon":-0.3306578542809831,"lat":39.454493936024}}},{"type":"Feature","geometry":{"coordinates":[-0.37419823294838145,39.49696940247059],"type":"Point"},"properties":{"id_parada":1132.0,"codvia":51570.0,"numportal":"1 (DAVANT)","suprimida":0,"denominacion":"M\u00fasic Esp\u00ed - Gravador Fabregat (1132)","lineas":"12","proximas_llegadas":"http:\/\/www.emtvalencia.es\/QR.php?sec=est&p=1132","geo_point_2d":{"lon":-0.37419823294838145,"lat":39.49696940247059}}},{"type":"Feature","geometry":{"coordinates":[-0.36086181805791945,39.46205693155921],"type":"Point"},"properties":{"id_parada":1364.0,"codvia":38670.0,"numportal":"102","suprimida":0,"denominacion":"Regne de Val\u00e8ncia (parell) - Alcalde Reig (1364)","lineas":"40","proximas_llegadas":"http:\/\/www.emtvalencia.es\/QR.php?sec=est&p=1364","geo_point_2d":{"lon":-0.36086181805791945,"lat":39.46205693155921}}},{"type":"Feature","geometry":{"coordinates":[-0.3316997530922244,39.46777853698485],"type":"Point"},"properties":{"id_parada":1050.0,"codvia":47580.0,"numportal":"4","suprimida":0,"denominacion":"Mediterr\u00e0nia - Vicent Brull (1050)","lineas":"32","proximas_llegadas":"http:\/\/www.emtvalencia.es\/QR.php?sec=est&p=1050","geo_point_2d":{"lon":-0.3316997530922244,"lat":39.46777853698485}}},{"type":"Feature","geometry":{"coordinates":[-0.35689335893128427,39.4728157944994],"type":"Point"},"properties":{"id_parada":1055.0,"codvia":81310.0,"numportal":"34","suprimida":0,"denominacion":"Arag\u00f3 - Ernest Ferrer (1055)","lineas":"10,12,79,93,N1","proximas_llegadas":"http:\/\/www.emtvalencia.es\/QR.php?sec=est&p=1055","geo_point_2d":{"lon":-0.35689335893128427,"lat":39.4728157944994}}},{"type":"Feature","geometry":{"coordinates":[-0.3727853060063415,39.49542320736504],"type":"Point"},"properties":{"id_parada":1060.0,"codvia":56490.0,"numportal":"10","suprimida":0,"denominacion":"Pere Cabanes - Mont Carmel (1060)","lineas":"12","proximas_llegadas":"http:\/\/www.emtvalencia.es\/QR.php?sec=est&p=1060","geo_point_2d":{"lon":-0.3727853060063415,"lat":39.49542320736504}}},{"type":"Feature","geometry":{"coordinates":[-0.3578193955924653,39.47279886321418],"type":"Point"},"properties":{"id_parada":1083.0,"codvia":81310.0,"numportal":"25","suprimida":0,"denominacion":"Arag\u00f3 (1083)","lineas":"10,12,80,93,N1","proximas_llegadas":"http:\/\/www.emtvalencia.es\/QR.php?sec=est&p=1083","geo_point_2d":{"lon":-0.3578193955924653,"lat":39.47279886321418}}},{"type":"Feature","geometry":{"coordinates":[-0.37931285280063226,39.4504876932916],"type":"Point"},"properties":{"id_parada":1091.0,"codvia":44460.0,"numportal":"60","suprimida":0,"denominacion":"Malilla (parell) - Bernat Descoll (1091)","lineas":"18,8,N7","proximas_llegadas":"http:\/\/www.emtvalencia.es\/QR.php?sec=est&p=1091","geo_point_2d":{"lon":-0.37931285280063226,"lat":39.4504876932916}}},{"type":"Feature","geometry":{"coordinates":[-0.3491019861573594,39.47036868159782],"type":"Point"},"properties":{"id_parada":1111.0,"codvia":24420.0,"numportal":"52","suprimida":0,"denominacion":"Dr. Manuel Candela (parell) - Sants Just i Pastor (1111)","lineas":"30,40","proximas_llegadas":"http:\/\/www.emtvalencia.es\/QR.php?sec=est&p=1111","geo_point_2d":{"lon":-0.3491019861573594,"lat":39.47036868159782}}},{"type":"Feature","geometry":{"coordinates":[-0.3538671785622053,39.472140924152086],"type":"Point"},"properties":{"id_parada":1678.0,"codvia":14730.0,"numportal":"76","suprimida":0,"denominacion":"Cardenal Benlloch - Sants Just i Pastor (1678)","lineas":"18,89","proximas_llegadas":"http:\/\/www.emtvalencia.es\/QR.php?sec=est&p=1678","geo_point_2d":{"lon":-0.3538671785622053,"lat":39.472140924152086}}},{"type":"Feature","geometry":{"coordinates":[-0.3885702988290171,39.48893284987757],"type":"Point"},"properties":{"id_parada":1684.0,"codvia":53640.0,"numportal":"138","suprimida":0,"denominacion":"Dr. Peset Aleixandre - Av. de Burjassot (1684)","lineas":"60,64,89","proximas_llegadas":"http:\/\/www.emtvalencia.es\/QR.php?sec=est&p=1684","geo_point_2d":{"lon":-0.3885702988290171,"lat":39.48893284987757}}},{"type":"Feature","geometry":{"coordinates":[-0.3625584170618676,39.466837752458325],"type":"Point"},"properties":{"id_parada":1764.0,"codvia":37650.0,"numportal":"14 (DAVANT)","suprimida":0,"denominacion":"Jacinto Benavente - Palau de la M\u00fasica (1764)","lineas":"24,25,95","proximas_llegadas":"http:\/\/www.emtvalencia.es\/QR.php?sec=est&p=1764","geo_point_2d":{"lon":-0.3625584170618676,"lat":39.466837752458325}}},{"type":"Feature","geometry":{"coordinates":[-0.35296214133206477,39.45943549573665],"type":"Point"},"properties":{"id_parada":1744.0,"codvia":58710.0,"numportal":"DAVANT TORRE FRAN\u00c7A","suprimida":0,"denominacion":"Albereda (riu) - L'Hemisf\u00e8ric (1744)","lineas":"94","proximas_llegadas":"http:\/\/www.emtvalencia.es\/QR.php?sec=est&p=1744","geo_point_2d":{"lon":-0.35296214133206477,"lat":39.45943549573665}}},{"type":"Feature","geometry":{"coordinates":[-0.3330040788767707,39.47921095703307],"type":"Point"},"properties":{"id_parada":1752.0,"codvia":81159.0,"numportal":"S\/N (DAVANT 28 ACC.)","suprimida":0,"denominacion":"Fausto Elio (imparell) - Universitat Polit\u00e8cnica (1752)","lineas":"99","proximas_llegadas":"http:\/\/www.emtvalencia.es\/QR.php?sec=est&p=1752","geo_point_2d":{"lon":-0.3330040788767707,"lat":39.47921095703307}}},{"type":"Feature","geometry":{"coordinates":[-0.336123890213226,39.46401999477247],"type":"Point"},"properties":{"id_parada":1748.0,"codvia":71130.0,"numportal":"12","suprimida":0,"denominacion":"Mar\u00edtim - Serradora (1748)","lineas":"99","proximas_llegadas":"http:\/\/www.emtvalencia.es\/QR.php?sec=est&p=1748","geo_point_2d":{"lon":-0.336123890213226,"lat":39.46401999477247}}},{"type":"Feature","geometry":{"coordinates":[-0.32922646132067884,39.483874084813834],"type":"Point"},"properties":{"id_parada":1751.0,"codvia":47680.0,"numportal":"17ACC (DAVANT)","suprimida":0,"denominacion":"La Malva-rosa - Mendiz\u00e0bal (1751)","lineas":"99","proximas_llegadas":"http:\/\/www.emtvalencia.es\/QR.php?sec=est&p=1751","geo_point_2d":{"lon":-0.32922646132067884,"lat":39.483874084813834}}},{"type":"Feature","geometry":{"coordinates":[-0.3780329532518725,39.42507766761667],"type":"Point"},"properties":{"id_parada":1769.0,"codvia":null,"numportal":"IMPAR","suprimida":0,"denominacion":"la Murta (imparell) - Cementeri (1769)","lineas":"14,9","proximas_llegadas":"http:\/\/www.emtvalencia.es\/QR.php?sec=est&p=1769","geo_point_2d":{"lon":-0.3780329532518725,"lat":39.42507766761667}}},{"type":"Feature","geometry":{"coordinates":[-0.3683987623827159,39.492895232988744],"type":"Point"},"properties":{"id_parada":1839.0,"codvia":25980.0,"numportal":"24","suprimida":0,"denominacion":"Orriols (1839)","lineas":"11,12","proximas_llegadas":"http:\/\/www.emtvalencia.es\/QR.php?sec=est&p=1839","geo_point_2d":{"lon":-0.3683987623827159,"lat":39.492895232988744}}},{"type":"Feature","geometry":{"coordinates":[-0.36596017475283515,39.49124313886046],"type":"Point"},"properties":{"id_parada":1843.0,"codvia":25980.0,"numportal":"43 AC","suprimida":0,"denominacion":"Duc de Mandas - Alfahuir (1843)","lineas":"12","proximas_llegadas":"http:\/\/www.emtvalencia.es\/QR.php?sec=est&p=1843","geo_point_2d":{"lon":-0.36596017475283515,"lat":39.49124313886046}}},{"type":"Feature","geometry":{"coordinates":[-0.3400360091248547,39.47811546383158],"type":"Point"},"properties":{"id_parada":1897.0,"codvia":42340.0,"numportal":"10 ACC","suprimida":0,"denominacion":"Tarongers - Facultat d'Economia (1897)","lineas":"93,98","proximas_llegadas":"http:\/\/www.emtvalencia.es\/QR.php?sec=est&p=1897","geo_point_2d":{"lon":-0.3400360091248547,"lat":39.47811546383158}}},{"type":"Feature","geometry":{"coordinates":[-0.34984508290223554,39.47030864145061],"type":"Point"},"properties":{"id_parada":137.0,"codvia":70620.0,"numportal":"27","suprimida":0,"denominacion":"Amistat (137)","lineas":"32","proximas_llegadas":"http:\/\/www.emtvalencia.es\/QR.php?sec=est&p=137","geo_point_2d":{"lon":-0.34984508290223554,"lat":39.47030864145061}}},{"type":"Feature","geometry":{"coordinates":[-0.32840977125759957,39.46290421170919],"type":"Point"},"properties":{"id_parada":1613.0,"codvia":39870.0,"numportal":"S\/N (VERJA PORT)","suprimida":0,"denominacion":"Comissaria Policia - Mar\u00edtim (1613)","lineas":"95,N9","proximas_llegadas":"http:\/\/www.emtvalencia.es\/QR.php?sec=est&p=1613","geo_point_2d":{"lon":-0.32840977125759957,"lat":39.46290421170919}}},{"type":"Feature","geometry":{"coordinates":[-0.3749131002455176,39.46134631860045],"type":"Point"},"properties":{"id_parada":1675.0,"codvia":72030.0,"numportal":"37","suprimida":0,"denominacion":"Sueca - Puerto Rico (1675)","lineas":"7,N7","proximas_llegadas":"http:\/\/www.emtvalencia.es\/QR.php?sec=est&p=1675","geo_point_2d":{"lon":-0.3749131002455176,"lat":39.46134631860045}}},{"type":"Feature","geometry":{"coordinates":[-0.4144577719427557,39.46747790499429],"type":"Point"},"properties":{"id_parada":2005.0,"codvia":45180.0,"numportal":"17 ACC.","suprimida":0,"denominacion":"Marconi - Barri de la Llum (2005)","lineas":"71","proximas_llegadas":"http:\/\/www.emtvalencia.es\/QR.php?sec=est&p=2005","geo_point_2d":{"lon":-0.4144577719427557,"lat":39.46747790499429}}},{"type":"Feature","geometry":{"coordinates":[-0.4125941963771926,39.46699042836268],"type":"Point"},"properties":{"id_parada":2006.0,"codvia":54810.0,"numportal":"22 (DAVANT)","suprimida":0,"denominacion":"Pare Esteban Pernet  - Centre Comercial (2006)","lineas":"71","proximas_llegadas":"http:\/\/www.emtvalencia.es\/QR.php?sec=est&p=2006","geo_point_2d":{"lon":-0.4125941963771926,"lat":39.46699042836268}}},{"type":"Feature","geometry":{"coordinates":[-0.35731065632540976,39.522340052226276],"type":"Point"},"properties":{"id_parada":951.0,"codvia":null,"numportal":"90","suprimida":0,"denominacion":"Cases de B\u00e0rcena III - (951)","lineas":"16","proximas_llegadas":"http:\/\/www.emtvalencia.es\/QR.php?sec=est&p=951","geo_point_2d":{"lon":-0.35731065632540976,"lat":39.522340052226276}}},{"type":"Feature","geometry":{"coordinates":[-0.38280897029717603,39.48572281620208],"type":"Point"},"properties":{"id_parada":1813.0,"codvia":63780.0,"numportal":"20 ACC","suprimida":0,"denominacion":"Reus (1813)","lineas":"98","proximas_llegadas":"http:\/\/www.emtvalencia.es\/QR.php?sec=est&p=1813","geo_point_2d":{"lon":-0.38280897029717603,"lat":39.48572281620208}}},{"type":"Feature","geometry":{"coordinates":[-0.3824033616671084,39.49053076657013],"type":"Point"},"properties":{"id_parada":1826.0,"codvia":40200.0,"numportal":"3","suprimida":0,"denominacion":"Joan XXIII (imparell) - F\u00e9lix del R\u00edo (1826)","lineas":"64","proximas_llegadas":"http:\/\/www.emtvalencia.es\/QR.php?sec=est&p=1826","geo_point_2d":{"lon":-0.3824033616671084,"lat":39.49053076657013}}},{"type":"Feature","geometry":{"coordinates":[-0.38427544379526307,39.49520803239022],"type":"Point"},"properties":{"id_parada":1836.0,"codvia":81675.0,"numportal":"1","suprimida":0,"denominacion":"Federico Alcacer Aguilar - Joan XXIII (1836)","lineas":"12,N10","proximas_llegadas":"http:\/\/www.emtvalencia.es\/QR.php?sec=est&p=1836","geo_point_2d":{"lon":-0.38427544379526307,"lat":39.49520803239022}}},{"type":"Feature","geometry":{"coordinates":[-0.38174999073067145,39.44551562011186],"type":"Point"},"properties":{"id_parada":1944.0,"codvia":81628.0,"numportal":"S\/N (CARRIL BUS)","suprimida":0,"denominacion":"Bulevard Sud (parell) - Malilla (1944)","lineas":"18,64,99","proximas_llegadas":"http:\/\/www.emtvalencia.es\/QR.php?sec=est&p=1944","geo_point_2d":{"lon":-0.38174999073067145,"lat":39.44551562011186}}},{"type":"Feature","geometry":{"coordinates":[-0.34914716143815233,39.463160710419906],"type":"Point"},"properties":{"id_parada":1950.0,"codvia":81456.0,"numportal":"1-3 (DAVANT)","suprimida":0,"denominacion":"Illes Can\u00e0ries (1950)","lineas":"35","proximas_llegadas":"http:\/\/www.emtvalencia.es\/QR.php?sec=est&p=1950","geo_point_2d":{"lon":-0.34914716143815233,"lat":39.463160710419906}}},{"type":"Feature","geometry":{"coordinates":[-0.38619695555616707,39.460713574137095],"type":"Point"},"properties":{"id_parada":1784.0,"codvia":14640.0,"numportal":"4 DUP","suprimida":0,"denominacion":"Carcaixent - Giorgeta (1784)","lineas":"10","proximas_llegadas":"http:\/\/www.emtvalencia.es\/QR.php?sec=est&p=1784","geo_point_2d":{"lon":-0.38619695555616707,"lat":39.460713574137095}}},{"type":"Feature","geometry":{"coordinates":[-0.3907715436438417,39.494067113924665],"type":"Point"},"properties":{"id_parada":1833.0,"codvia":26460.0,"numportal":"S\/N (JUNT.C\/VERBENA)","suprimida":0,"denominacion":"Centre de Salut Assutzena (1833)","lineas":"12,N10","proximas_llegadas":"http:\/\/www.emtvalencia.es\/QR.php?sec=est&p=1833","geo_point_2d":{"lon":-0.3907715436438417,"lat":39.494067113924665}}},{"type":"Feature","geometry":{"coordinates":[-0.3821985883275548,39.49565698533578],"type":"Point"},"properties":{"id_parada":1837.0,"codvia":64620.0,"numportal":"11","suprimida":0,"denominacion":"Riu Nervi\u00f3n - Riu Segre (1837)","lineas":"12,N10","proximas_llegadas":"http:\/\/www.emtvalencia.es\/QR.php?sec=est&p=1837","geo_point_2d":{"lon":-0.3821985883275548,"lat":39.49565698533578}}},{"type":"Feature","geometry":{"coordinates":[-0.3347437428105366,39.42797378068089],"type":"Point"},"properties":{"id_parada":1963.0,"codvia":13920.0,"numportal":"91","suprimida":0,"denominacion":"Club N\u00e0utic (1963)","lineas":"15","proximas_llegadas":"http:\/\/www.emtvalencia.es\/QR.php?sec=est&p=1963","geo_point_2d":{"lon":-0.3347437428105366,"lat":39.42797378068089}}},{"type":"Feature","geometry":{"coordinates":[-0.37727491877543823,39.44545305953772],"type":"Point"},"properties":{"id_parada":1964.0,"codvia":81628.0,"numportal":"S\/N (CARRIL BUS)","suprimida":0,"denominacion":"Hospital la Fe (1964)","lineas":"64,8,99","proximas_llegadas":"http:\/\/www.emtvalencia.es\/QR.php?sec=est&p=1964","geo_point_2d":{"lon":-0.37727491877543823,"lat":39.44545305953772}}},{"type":"Feature","geometry":{"coordinates":[-0.3253322064273052,39.49314485999567],"type":"Point"},"properties":{"id_parada":2247.0,"codvia":null,"numportal":"56","suprimida":0,"denominacion":"IES La Patacona (2247)","lineas":"31","proximas_llegadas":"http:\/\/www.emtvalencia.es\/QR.php?sec=est&p=2247","geo_point_2d":{"lon":-0.3253322064273052,"lat":39.49314485999567}}},{"type":"Feature","geometry":{"coordinates":[-0.32673020180904344,39.492784956477635],"type":"Point"},"properties":{"id_parada":2248.0,"codvia":null,"numportal":"S\/N","suprimida":0,"denominacion":"La Patacona (2248)","lineas":"31","proximas_llegadas":"http:\/\/www.emtvalencia.es\/QR.php?sec=est&p=2248","geo_point_2d":{"lon":-0.32673020180904344,"lat":39.492784956477635}}},{"type":"Feature","geometry":{"coordinates":[-0.4028881788496154,39.47846821234381],"type":"Point"},"properties":{"id_parada":2066.0,"codvia":74730.0,"numportal":"65","suprimida":0,"denominacion":"Hospital 9 d'Octubre (2066)","lineas":"67,98,99","proximas_llegadas":"http:\/\/www.emtvalencia.es\/QR.php?sec=est&p=2066","geo_point_2d":{"lon":-0.4028881788496154,"lat":39.47846821234381}}},{"type":"Feature","geometry":{"coordinates":[-0.28377364760449775,39.2883832294227],"type":"Point"},"properties":{"id_parada":2189.0,"codvia":32880.0,"numportal":"225","suprimida":0,"denominacion":"Gavines - Front Entrada Ventura (2189)","lineas":"25","proximas_llegadas":"http:\/\/www.emtvalencia.es\/QR.php?sec=est&p=2189","geo_point_2d":{"lon":-0.28377364760449775,"lat":39.2883832294227}}},{"type":"Feature","geometry":{"coordinates":[-0.3222803376987665,39.354545358924284],"type":"Point"},"properties":{"id_parada":2197.0,"codvia":81238.0,"numportal":"S\/N","suprimida":0,"denominacion":"Gola de Puchol (III) (2197)","lineas":"24,25","proximas_llegadas":"http:\/\/www.emtvalencia.es\/QR.php?sec=est&p=2197","geo_point_2d":{"lon":-0.3222803376987665,"lat":39.354545358924284}}},{"type":"Feature","geometry":{"coordinates":[-0.3691971220085118,39.47146724406039],"type":"Point"},"properties":{"id_parada":2258.0,"codvia":19350.0,"numportal":"84 (DAVANT)","suprimida":0,"denominacion":"Col\u00f3n - Porta de la Mar (2258)","lineas":"10,28,32,8,81,N1,N10,N2,N8","proximas_llegadas":"http:\/\/www.emtvalencia.es\/QR.php?sec=est&p=2258","geo_point_2d":{"lon":-0.3691971220085118,"lat":39.47146724406039}}},{"type":"Feature","geometry":{"coordinates":[-0.32540725844763524,39.463170553536294],"type":"Point"},"properties":{"id_parada":2263.0,"codvia":39870.0,"numportal":"S\/N (FGV)","suprimida":0,"denominacion":"Nept\u00fa (2263)","lineas":"95,N9","proximas_llegadas":"http:\/\/www.emtvalencia.es\/QR.php?sec=est&p=2263","geo_point_2d":{"lon":-0.32540725844763524,"lat":39.463170553536294}}},{"type":"Feature","geometry":{"coordinates":[-0.32922222088868525,39.47506479264544],"type":"Point"},"properties":{"id_parada":2270.0,"codvia":42340.0,"numportal":"38 ACC","suprimida":0,"denominacion":"La Cadena - Progr\u00e9s (2270)","lineas":"93,98","proximas_llegadas":"http:\/\/www.emtvalencia.es\/QR.php?sec=est&p=2270","geo_point_2d":{"lon":-0.32922222088868525,"lat":39.47506479264544}}},{"type":"Feature","geometry":{"coordinates":[-0.3939532761410799,39.45038127889592],"type":"Point"},"properties":{"id_parada":2320.0,"codvia":23820.0,"numportal":"76 (DAVANT)","suprimida":0,"denominacion":"Hospital Dr. Peset - Primer de Maig (2320)","lineas":"18","proximas_llegadas":"http:\/\/www.emtvalencia.es\/QR.php?sec=est&p=2320","geo_point_2d":{"lon":-0.3939532761410799,"lat":39.45038127889592}}},{"type":"Feature","geometry":{"coordinates":[-0.360597484882995,39.45262602145227],"type":"Point"},"properties":{"id_parada":2294.0,"codvia":33480.0,"numportal":"SN","suprimida":0,"denominacion":"Amado Granell Mesado (parell) - Antonio Sacramento (2294)","lineas":"14","proximas_llegadas":"http:\/\/www.emtvalencia.es\/QR.php?sec=est&p=2294","geo_point_2d":{"lon":-0.360597484882995,"lat":39.45262602145227}}},{"type":"Feature","geometry":{"coordinates":[-0.3593398778553022,39.451398438149184],"type":"Point"},"properties":{"id_parada":2296.0,"codvia":33480.0,"numportal":"SN","suprimida":0,"denominacion":"Amado Granell Mesado (imparell) - Antonio Ferrandis (2296)","lineas":"14","proximas_llegadas":"http:\/\/www.emtvalencia.es\/QR.php?sec=est&p=2296","geo_point_2d":{"lon":-0.3593398778553022,"lat":39.451398438149184}}},{"type":"Feature","geometry":{"coordinates":[-0.3462388297099983,39.451893108982496],"type":"Point"},"properties":{"id_parada":2050.0,"codvia":81672.0,"numportal":"S\/N","suprimida":0,"denominacion":"Centre d'Investigaci\u00f3 Pr\u00edncep Felip (2050)","lineas":"15,95","proximas_llegadas":"http:\/\/www.emtvalencia.es\/QR.php?sec=est&p=2050","geo_point_2d":{"lon":-0.3462388297099983,"lat":39.451893108982496}}},{"type":"Feature","geometry":{"coordinates":[-0.37700013635997937,39.458250528158615],"type":"Point"},"properties":{"id_parada":2078.0,"codvia":30210.0,"numportal":"23 DAVANT","suprimida":0,"denominacion":"Parc Central (2078)","lineas":"8","proximas_llegadas":"http:\/\/www.emtvalencia.es\/QR.php?sec=est&p=2078","geo_point_2d":{"lon":-0.37700013635997937,"lat":39.458250528158615}}},{"type":"Feature","geometry":{"coordinates":[-0.3949398474370588,39.49751250712938],"type":"Point"},"properties":{"id_parada":2303.0,"codvia":31350.0,"numportal":"2 (DAVANT)","suprimida":0,"denominacion":"Andreu Alfaro - Louis Braille (2303)","lineas":"12,28,N10","proximas_llegadas":"http:\/\/www.emtvalencia.es\/QR.php?sec=est&p=2303","geo_point_2d":{"lon":-0.3949398474370588,"lat":39.49751250712938}}},{"type":"Feature","geometry":{"coordinates":[-0.39858953880204734,39.45929152242264],"type":"Point"},"properties":{"id_parada":2350.0,"codvia":81175.0,"numportal":"S\/N","suprimida":0,"denominacion":"Jos\u00e9 Roca Coll - M\u00fasic Gomis (2350)","lineas":"73","proximas_llegadas":"http:\/\/www.emtvalencia.es\/QR.php?sec=est&p=2350","geo_point_2d":{"lon":-0.39858953880204734,"lat":39.45929152242264}}},{"type":"Feature","geometry":{"coordinates":[-0.42512639663359236,39.50065830287195],"type":"Point"},"properties":{"id_parada":394.0,"codvia":null,"numportal":"HOTEL","suprimida":0,"denominacion":"Polvor\u00ed - Campament (394)","lineas":"62","proximas_llegadas":"http:\/\/www.emtvalencia.es\/QR.php?sec=est&p=394","geo_point_2d":{"lon":-0.42512639663359236,"lat":39.50065830287195}}},{"type":"Feature","geometry":{"coordinates":[-0.3541326622459023,39.495950606273986],"type":"Point"},"properties":{"id_parada":855.0,"codvia":null,"numportal":"41","suprimida":0,"denominacion":"Orxata - Mestre Serrano (855)","lineas":"70","proximas_llegadas":"http:\/\/www.emtvalencia.es\/QR.php?sec=est&p=855","geo_point_2d":{"lon":-0.3541326622459023,"lat":39.495950606273986}}},{"type":"Feature","geometry":{"coordinates":[-0.4187548057227073,39.501456205745974],"type":"Point"},"properties":{"id_parada":384.0,"codvia":null,"numportal":"6 (DAVANT)","suprimida":0,"denominacion":"Benim\u00e0met (384)","lineas":"62","proximas_llegadas":"http:\/\/www.emtvalencia.es\/QR.php?sec=est&p=384","geo_point_2d":{"lon":-0.4187548057227073,"lat":39.501456205745974}}},{"type":"Feature","geometry":{"coordinates":[-0.38367602992224537,39.46613731845409],"type":"Point"},"properties":{"id_parada":739.0,"codvia":38250.0,"numportal":"44","suprimida":0,"denominacion":"Jes\u00fas - Sant Francesc de Borja (739)","lineas":"10,11,27,71,9,N6","proximas_llegadas":"http:\/\/www.emtvalencia.es\/QR.php?sec=est&p=739","geo_point_2d":{"lon":-0.38367602992224537,"lat":39.46613731845409}}},{"type":"Feature","geometry":{"coordinates":[-0.38540773578259496,39.46139809530319],"type":"Point"},"properties":{"id_parada":742.0,"codvia":1140.0,"numportal":"41","suprimida":0,"denominacion":"Albacete - Mestre Sosa (742)","lineas":"10,9","proximas_llegadas":"http:\/\/www.emtvalencia.es\/QR.php?sec=est&p=742","geo_point_2d":{"lon":-0.38540773578259496,"lat":39.46139809530319}}},{"type":"Feature","geometry":{"coordinates":[-0.39332784593834796,39.46467272765563],"type":"Point"},"properties":{"id_parada":758.0,"codvia":7710.0,"numportal":"31","suprimida":0,"denominacion":"Aiora - Mariano Ribera (758)","lineas":"72,N5","proximas_llegadas":"http:\/\/www.emtvalencia.es\/QR.php?sec=est&p=758","geo_point_2d":{"lon":-0.39332784593834796,"lat":39.46467272765563}}},{"type":"Feature","geometry":{"coordinates":[-0.3690741263664227,39.4882750594753],"type":"Point"},"properties":{"id_parada":207.0,"codvia":61410.0,"numportal":"44","suprimida":0,"denominacion":"Primat Reig - Almassora (207)","lineas":"11,90,N2","proximas_llegadas":"http:\/\/www.emtvalencia.es\/QR.php?sec=est&p=207","geo_point_2d":{"lon":-0.3690741263664227,"lat":39.4882750594753}}},{"type":"Feature","geometry":{"coordinates":[-0.38906932470439815,39.464112133854066],"type":"Point"},"properties":{"id_parada":533.0,"codvia":73950.0,"numportal":"3","suprimida":0,"denominacion":"Tres Forques - P\u00e9rez Gald\u00f3s (533)","lineas":"71","proximas_llegadas":"http:\/\/www.emtvalencia.es\/QR.php?sec=est&p=533","geo_point_2d":{"lon":-0.38906932470439815,"lat":39.464112133854066}}},{"type":"Feature","geometry":{"coordinates":[-0.38860251610619584,39.459298257302954],"type":"Point"},"properties":{"id_parada":557.0,"codvia":32790.0,"numportal":"2","suprimida":0,"denominacion":"Gaspar Aguilar - Jes\u00fas (557)","lineas":"9,N6","proximas_llegadas":"http:\/\/www.emtvalencia.es\/QR.php?sec=est&p=557","geo_point_2d":{"lon":-0.38860251610619584,"lat":39.459298257302954}}},{"type":"Feature","geometry":{"coordinates":[-0.3864405359425253,39.517611953395466],"type":"Point"},"properties":{"id_parada":2262.0,"codvia":null,"numportal":"S\/N","suprimida":0,"denominacion":"Palmaret (parell) - Montcada (2262)","lineas":"26","proximas_llegadas":"http:\/\/www.emtvalencia.es\/QR.php?sec=est&p=2262","geo_point_2d":{"lon":-0.3864405359425253,"lat":39.517611953395466}}},{"type":"Feature","geometry":{"coordinates":[-0.3695400495579194,39.44559227697989],"type":"Point"},"properties":{"id_parada":1994.0,"codvia":81628.0,"numportal":"S\/N (GASOLINERA)","suprimida":0,"denominacion":"Bulevard Sud - Ausi\u00e0s March (1994)","lineas":"99,N7","proximas_llegadas":"http:\/\/www.emtvalencia.es\/QR.php?sec=est&p=1994","geo_point_2d":{"lon":-0.3695400495579194,"lat":39.44559227697989}}},{"type":"Feature","geometry":{"coordinates":[-0.41286514104078,39.46706816175477],"type":"Point"},"properties":{"id_parada":2008.0,"codvia":54810.0,"numportal":"22","suprimida":0,"denominacion":"Pare Esteban Pernet  - Centre Comercial (2008)","lineas":"71","proximas_llegadas":"http:\/\/www.emtvalencia.es\/QR.php?sec=est&p=2008","geo_point_2d":{"lon":-0.41286514104078,"lat":39.46706816175477}}},{"type":"Feature","geometry":{"coordinates":[-0.40354927202647156,39.481090336937136],"type":"Point"},"properties":{"id_parada":2064.0,"codvia":81637.0,"numportal":"2-B","suprimida":0,"denominacion":"Terrateig - Jorge Com\u00edn (2064)","lineas":"67","proximas_llegadas":"http:\/\/www.emtvalencia.es\/QR.php?sec=est&p=2064","geo_point_2d":{"lon":-0.40354927202647156,"lat":39.481090336937136}}},{"type":"Feature","geometry":{"coordinates":[-0.39907585954838853,39.47859792508317],"type":"Point"},"properties":{"id_parada":2067.0,"codvia":74730.0,"numportal":"43","suprimida":0,"denominacion":"Vall de la Ballestera - Eduardo Soler i P\u00e9rez (2067)","lineas":"67","proximas_llegadas":"http:\/\/www.emtvalencia.es\/QR.php?sec=est&p=2067","geo_point_2d":{"lon":-0.39907585954838853,"lat":39.47859792508317}}},{"type":"Feature","geometry":{"coordinates":[-0.3877709702266676,39.54278297921955],"type":"Point"},"properties":{"id_parada":2105.0,"codvia":null,"numportal":"S\/N","suprimida":0,"denominacion":"Moncada - Alfara (2105)","lineas":"26","proximas_llegadas":"http:\/\/www.emtvalencia.es\/QR.php?sec=est&p=2105","geo_point_2d":{"lon":-0.3877709702266676,"lat":39.54278297921955}}},{"type":"Feature","geometry":{"coordinates":[-0.3707485893765573,39.458888583158206],"type":"Point"},"properties":{"id_parada":598.0,"codvia":57630.0,"numportal":"84","suprimida":0,"denominacion":"Peris i Valero - Sapadors (598)","lineas":"89","proximas_llegadas":"http:\/\/www.emtvalencia.es\/QR.php?sec=est&p=598","geo_point_2d":{"lon":-0.3707485893765573,"lat":39.458888583158206}}},{"type":"Feature","geometry":{"coordinates":[-0.3475409869723189,39.48082277939169],"type":"Point"},"properties":{"id_parada":1490.0,"codvia":42340.0,"numportal":"S\/N","suprimida":0,"denominacion":"Tarongers - Junt Entrada Universitats (1490)","lineas":"93,98","proximas_llegadas":"http:\/\/www.emtvalencia.es\/QR.php?sec=est&p=1490","geo_point_2d":{"lon":-0.3475409869723189,"lat":39.48082277939169}}},{"type":"Feature","geometry":{"coordinates":[-0.3578379222926703,39.455811592703874],"type":"Point"},"properties":{"id_parada":1416.0,"codvia":81384.0,"numportal":"21","suprimida":0,"denominacion":"Inst. Obrer de Val. (imparell) - Autopista Saler (1416)","lineas":"13,35,N9","proximas_llegadas":"http:\/\/www.emtvalencia.es\/QR.php?sec=est&p=1416","geo_point_2d":{"lon":-0.3578379222926703,"lat":39.455811592703874}}},{"type":"Feature","geometry":{"coordinates":[-0.3935864524423519,39.4759735263533],"type":"Point"},"properties":{"id_parada":1423.0,"codvia":56340.0,"numportal":"41","suprimida":0,"denominacion":"Petxina - Terol (1423)","lineas":"95","proximas_llegadas":"http:\/\/www.emtvalencia.es\/QR.php?sec=est&p=1423","geo_point_2d":{"lon":-0.3935864524423519,"lat":39.4759735263533}}},{"type":"Feature","geometry":{"coordinates":[-0.39119199867085647,39.447297352157136],"type":"Point"},"properties":{"id_parada":1440.0,"codvia":25080.0,"numportal":"10 (CARRIL BUS)","suprimida":0,"denominacion":"Sant Marcel\u00b7l\u00ed (1440)","lineas":"10,9,99,N6","proximas_llegadas":"http:\/\/www.emtvalencia.es\/QR.php?sec=est&p=1440","geo_point_2d":{"lon":-0.39119199867085647,"lat":39.447297352157136}}},{"type":"Feature","geometry":{"coordinates":[-0.3893010472610265,39.45007623793038],"type":"Point"},"properties":{"id_parada":975.0,"codvia":15390.0,"numportal":"62","suprimida":0,"denominacion":"Carters - Calvo Acacio (975)","lineas":"10","proximas_llegadas":"http:\/\/www.emtvalencia.es\/QR.php?sec=est&p=975","geo_point_2d":{"lon":-0.3893010472610265,"lat":39.45007623793038}}},{"type":"Feature","geometry":{"coordinates":[-0.3587170268205189,39.45986161104104],"type":"Point"},"properties":{"id_parada":1665.0,"codvia":1710.0,"numportal":"9 (ACCES)(DAVANT)","suprimida":0,"denominacion":"Alcalde Reig (imparell) - Pere Aleixandre (1665)","lineas":"15,24,25,95","proximas_llegadas":"http:\/\/www.emtvalencia.es\/QR.php?sec=est&p=1665","geo_point_2d":{"lon":-0.3587170268205189,"lat":39.45986161104104}}},{"type":"Feature","geometry":{"coordinates":[-0.4243047445734628,39.505677761999614],"type":"Point"},"properties":{"id_parada":1715.0,"codvia":null,"numportal":"S\/N","suprimida":0,"denominacion":"Fires(parell) - Cementeri (1715)","lineas":"62","proximas_llegadas":"http:\/\/www.emtvalencia.es\/QR.php?sec=est&p=1715","geo_point_2d":{"lon":-0.4243047445734628,"lat":39.505677761999614}}},{"type":"Feature","geometry":{"coordinates":[-0.3601325706808689,39.46180729364421],"type":"Point"},"properties":{"id_parada":1663.0,"codvia":1710.0,"numportal":"6 (DAVANT)","suprimida":0,"denominacion":"Alcalde Reig - Pont del Regne (1663)","lineas":"15,24,25,95","proximas_llegadas":"http:\/\/www.emtvalencia.es\/QR.php?sec=est&p=1663","geo_point_2d":{"lon":-0.3601325706808689,"lat":39.46180729364421}}},{"type":"Feature","geometry":{"coordinates":[-0.3305380255434382,39.482771422307145],"type":"Point"},"properties":{"id_parada":1773.0,"codvia":81176.0,"numportal":"79 ACC","suprimida":0,"denominacion":"Doctor \u00c1lvaro L\u00f3pez - Illa de Hierro (1773)","lineas":"99","proximas_llegadas":"http:\/\/www.emtvalencia.es\/QR.php?sec=est&p=1773","geo_point_2d":{"lon":-0.3305380255434382,"lat":39.482771422307145}}},{"type":"Feature","geometry":{"coordinates":[-0.38595421453363876,39.459732341925736],"type":"Point"},"properties":{"id_parada":1783.0,"codvia":74400.0,"numportal":"5","suprimida":0,"denominacion":"Uruguai (imparell) - Jeroni Muny\u00f3s (1783)","lineas":"10,9","proximas_llegadas":"http:\/\/www.emtvalencia.es\/QR.php?sec=est&p=1783","geo_point_2d":{"lon":-0.38595421453363876,"lat":39.459732341925736}}},{"type":"Feature","geometry":{"coordinates":[-0.35315526574421224,39.45298644429831],"type":"Point"},"properties":{"id_parada":2235.0,"codvia":81612.0,"numportal":"S\/N (C.C.SALER)","suprimida":0,"denominacion":"Actor Antonio Ferrandis - Centre Comercial (2235)","lineas":"99","proximas_llegadas":"http:\/\/www.emtvalencia.es\/QR.php?sec=est&p=2235","geo_point_2d":{"lon":-0.35315526574421224,"lat":39.45298644429831}}},{"type":"Feature","geometry":{"coordinates":[-0.3695808725070024,39.44755351039576],"type":"Point"},"properties":{"id_parada":2157.0,"codvia":7590.0,"numportal":"104 ACC","suprimida":0,"denominacion":"Ausi\u00e0s March - Pianista Mart\u00ednez Carrasco (2157)","lineas":"6","proximas_llegadas":"http:\/\/www.emtvalencia.es\/QR.php?sec=est&p=2157","geo_point_2d":{"lon":-0.3695808725070024,"lat":39.44755351039576}}},{"type":"Feature","geometry":{"coordinates":[-0.41778512006137675,39.49909246592208],"type":"Point"},"properties":{"id_parada":2161.0,"codvia":null,"numportal":"4","suprimida":0,"denominacion":"Mercat de Benim\u00e0met (2161)","lineas":"62,N3","proximas_llegadas":"http:\/\/www.emtvalencia.es\/QR.php?sec=est&p=2161","geo_point_2d":{"lon":-0.41778512006137675,"lat":39.49909246592208}}},{"type":"Feature","geometry":{"coordinates":[-0.28581504609478225,39.29168933789484],"type":"Point"},"properties":{"id_parada":2182.0,"codvia":32880.0,"numportal":"FTE. 197","suprimida":0,"denominacion":"Gavines - Entrada Paridera (2182)","lineas":"25","proximas_llegadas":"http:\/\/www.emtvalencia.es\/QR.php?sec=est&p=2182","geo_point_2d":{"lon":-0.28581504609478225,"lat":39.29168933789484}}},{"type":"Feature","geometry":{"coordinates":[-0.3178360672833879,39.32145112079876],"type":"Point"},"properties":{"id_parada":2174.0,"codvia":75570.0,"numportal":"S\/N FTE CEMENTERIO","suprimida":0,"denominacion":"Cementeri El Palmar (2174)","lineas":"24","proximas_llegadas":"http:\/\/www.emtvalencia.es\/QR.php?sec=est&p=2174","geo_point_2d":{"lon":-0.3178360672833879,"lat":39.32145112079876}}},{"type":"Feature","geometry":{"coordinates":[-0.31791824822806447,39.32144067346984],"type":"Point"},"properties":{"id_parada":2170.0,"codvia":75570.0,"numportal":"S\/N CEMENTERIO","suprimida":0,"denominacion":"Cementeri El Palmar (2170)","lineas":"24","proximas_llegadas":"http:\/\/www.emtvalencia.es\/QR.php?sec=est&p=2170","geo_point_2d":{"lon":-0.31791824822806447,"lat":39.32144067346984}}},{"type":"Feature","geometry":{"coordinates":[-0.35266328758588944,39.46577323434218],"type":"Point"},"properties":{"id_parada":1617.0,"codvia":25680.0,"numportal":"104","suprimida":0,"denominacion":"Port - Riu Escalona (1617)","lineas":"4,92,N8","proximas_llegadas":"http:\/\/www.emtvalencia.es\/QR.php?sec=est&p=1617","geo_point_2d":{"lon":-0.35266328758588944,"lat":39.46577323434218}}},{"type":"Feature","geometry":{"coordinates":[-0.3648410986066368,39.47400415698762],"type":"Point"},"properties":{"id_parada":1020.0,"codvia":58710.0,"numportal":"14 (DAVANT JARD\u00cd VIA CENTRAL)","suprimida":0,"denominacion":"Albereda (1020)","lineas":"11,16,26,6,70,94,95,N10","proximas_llegadas":"http:\/\/www.emtvalencia.es\/QR.php?sec=est&p=1020","geo_point_2d":{"lon":-0.3648410986066368,"lat":39.47400415698762}}},{"type":"Feature","geometry":{"coordinates":[-0.37822075323830884,39.46056435368899],"type":"Point"},"properties":{"id_parada":2128.0,"codvia":30210.0,"numportal":"11","suprimida":0,"denominacion":"Filipines - Puerto Rico (2128)","lineas":"8","proximas_llegadas":"http:\/\/www.emtvalencia.es\/QR.php?sec=est&p=2128","geo_point_2d":{"lon":-0.37822075323830884,"lat":39.46056435368899}}},{"type":"Feature","geometry":{"coordinates":[-0.3846089907321853,39.45907853140179],"type":"Point"},"properties":{"id_parada":1696.0,"codvia":33900.0,"numportal":"28","suprimida":0,"denominacion":"Jes\u00fas (1696)","lineas":"64","proximas_llegadas":"http:\/\/www.emtvalencia.es\/QR.php?sec=est&p=1696","geo_point_2d":{"lon":-0.3846089907321853,"lat":39.45907853140179}}},{"type":"Feature","geometry":{"coordinates":[-0.38802876056081637,39.47411266191422],"type":"Point"},"properties":{"id_parada":1716.0,"codvia":30000.0,"numportal":"53","suprimida":0,"denominacion":"Ferran el Cat\u00f2lic - S. Ignacio de Loyola (1716)","lineas":"60,62,73","proximas_llegadas":"http:\/\/www.emtvalencia.es\/QR.php?sec=est&p=1716","geo_point_2d":{"lon":-0.38802876056081637,"lat":39.47411266191422}}},{"type":"Feature","geometry":{"coordinates":[-0.3502611281751168,39.45757031587636],"type":"Point"},"properties":{"id_parada":1745.0,"codvia":58710.0,"numportal":"S\/N (DAVANT 47)","suprimida":0,"denominacion":"Albereda (riu) - Museu de les Ci\u00e8ncies (1745)","lineas":"94","proximas_llegadas":"http:\/\/www.emtvalencia.es\/QR.php?sec=est&p=1745","geo_point_2d":{"lon":-0.3502611281751168,"lat":39.45757031587636}}},{"type":"Feature","geometry":{"coordinates":[-0.3840975314338629,39.49502166239837],"type":"Point"},"properties":{"id_parada":1825.0,"codvia":40200.0,"numportal":"45 ACC","suprimida":0,"denominacion":"Joan XXIII - Federico Alcacer Aguilar (1825)","lineas":"64","proximas_llegadas":"http:\/\/www.emtvalencia.es\/QR.php?sec=est&p=1825","geo_point_2d":{"lon":-0.3840975314338629,"lat":39.49502166239837}}},{"type":"Feature","geometry":{"coordinates":[-0.3625443736449209,39.49101713643237],"type":"Point"},