name,line,geometry,longitude,latitude,type
Mas del Rosari,"[""4""]",POINT (-0.435824990305418 39.52495960421599),-0.435824990305418,39.52495960421599,metrovalencia
La Cova,"[""9""]",POINT (-0.4844444397042972 39.49888996240954),-0.4844444397042972,39.49888996240954,metrovalencia
Aeroport,"[""3"", ""5""]",POINT (-0.4749194388141947 39.49236683054559),-0.4749194388141947,39.49236683054559,metrovalencia
Almàssera,"[""3""]",POINT (-0.3542666730314796 39.512256661843445),-0.3542666730314796,39.512256661843445,metrovalencia
Colón,"[""3"", ""5"", ""7"", ""9""]",POINT (-0.3709277814305924 39.47014621855607),-0.3709277814305924,39.47014621855607,metrovalencia
Ayora,"[""5"", ""7""]",POINT (-0.3429694478792123 39.466426888957855),-0.3429694478792123,39.466426888957855,metrovalencia
Bétera,"[""1""]",POINT (-0.4575305577359146 39.5906067291247),-0.4575305577359145,39.5906067291247,metrovalencia
Torrent Avinguda,"[""2"", ""7""]",POINT (-0.4728333352276692 39.431812326102154),-0.4728333352276692,39.43181232610216,metrovalencia
Alberic,"[""1""]",POINT (-0.5235260124730562 39.11705020984888),-0.5235260124730562,39.11705020984888,metrovalencia
Carlet,"[""1""]",POINT (-0.5249416827217579 39.22679905059184),-0.5249416827217579,39.22679905059184,metrovalencia
Col·legi El Vedat,"[""1""]",POINT (-0.460652768267218 39.423133889334935),-0.460652768267218,39.423133889334935,metrovalencia
Moreres,"[""10""]",POINT (-0.3384079998144471 39.450150039275506),-0.3384079998144471,39.45015003927551,metrovalencia
Sant Isidre,"[""1"", ""2"", ""7""]",POINT (-0.4028027651123522 39.45103458536643),-0.4028027651123522,39.45103458536643,metrovalencia
Sant Miquel dels Reis,"[""1"", ""6""]",POINT (-0.3684949876810832 39.49721912509855),-0.3684949876810832,39.49721912509855,metrovalencia
La Presa,"[""9""]",POINT (-0.5158333181519046 39.517223397451374),-0.5158333181519046,39.517223397451374,metrovalencia
Masia de Traver,"[""9""]",POINT (-0.546666681316191 39.53805545992607),-0.546666681316191,39.53805545992607,metrovalencia
Jesús,"[""1"", ""2"", ""7""]",POINT (-0.3845416610541635 39.45920185236387),-0.3845416610541635,39.45920185236387,metrovalencia
Patraix,"[""1"", ""2"", ""7""]",POINT (-0.3905083240820051 39.45645145583467),-0.3905083240820051,39.45645145583467,metrovalencia
Omet,"[""1""]",POINT (-0.4736869934735695 39.35324482140709),-0.4736869934735695,39.35324482140709,metrovalencia
Paiporta,"[""1"", ""2"", ""7""]",POINT (-0.4180611073753368 39.43226246036189),-0.4180611073753367,39.43226246036189,metrovalencia
Burjassot - Godella,"[""1""]",POINT (-0.4119972293308535 39.513530771164035),-0.4119972293308535,39.51353077116404,metrovalencia
Godella,"[""1""]",POINT (-0.4144555629587507 39.51950458696169),-0.4144555629587507,39.51950458696169,metrovalencia
Horta Vella,"[""1""]",POINT (-0.4431444406472527 39.58193210726515),-0.4431444406472527,39.58193210726515,metrovalencia
Alfauir,"[""1"", ""6""]",POINT (-0.366032988194516 39.489299813868165),-0.366032988194516,39.489299813868165,metrovalencia
Parc Científic,"[""4""]",POINT (-0.4226219955791658 39.51514057309938),-0.4226219955791658,39.51514057309938,metrovalencia
Tomás y Valiente,"[""4""]",POINT (-0.4256361123531358 39.5197716152865),-0.4256361123531358,39.5197716152865,metrovalencia
Francesc Cubells,"[""6"", ""8""]",POINT (-0.3339729906818728 39.46324543123338),-0.3339729906818727,39.46324543123338,metrovalencia
Grau - La Marina,"[""6"", ""8""]",POINT (-0.3294720054933794 39.463100473242235),-0.3294720054933793,39.46310047324224,metrovalencia
Tossal del Rei,"[""1"", ""6""]",POINT (-0.3725369875330207 39.49595264605946),-0.3725369875330206,39.49595264605946,metrovalencia
Av. del Cid,"[""3"", ""5"", ""9""]",POINT (-0.3975749912937578 39.468219796211656),-0.3975749912937578,39.468219796211656,metrovalencia
Llíria,"[""2""]",POINT (-0.5902777912103784 39.62284092097164),-0.5902777912103784,39.62284092097164,metrovalencia
Àngel Guimerà,"[""1"", ""2"", ""3"", ""5"", ""9""]",POINT (-0.3850361106717916 39.4703026212431),-0.3850361106717916,39.4703026212431,metrovalencia
Campament,"[""2""]",POINT (-0.4353230003048908 39.495845834205404),-0.4353230003048908,39.49584583420541,metrovalencia
Picanya,"[""1"", ""2"", ""7""]",POINT (-0.4371583466428395 39.43312076720112),-0.4371583466428395,39.43312076720112,metrovalencia
Albalat dels Sorells,"[""3""]",POINT (-0.3482888941423446 39.54526523737024),-0.3482888941423446,39.54526523737024,metrovalencia
Reus,"[""4""]",POINT (-0.3817070127981355 39.4859657684198),-0.3817070127981355,39.4859657684198,metrovalencia
Trànsits,"[""4""]",POINT (-0.3872583214747722 39.4895630282213),-0.3872583214747722,39.4895630282213,metrovalencia
Benicalap,"[""4""]",POINT (-0.3909277913244516 39.49002842050058),-0.3909277913244515,39.49002842050058,metrovalencia
La Carrasca,"[""1"", ""4"", ""6""]",POINT (-0.3448249995342744 39.479660074044666),-0.3448249995342744,39.479660074044666,metrovalencia
Dr. Lluch,"[""4"", ""6""]",POINT (-0.3281527763083297 39.46930698572537),-0.3281527763083297,39.46930698572537,metrovalencia
Universitat Politècnica,"[""1"", ""4"", ""6""]",POINT (-0.3504999876195505 39.48131565217615),-0.3504999876195505,39.48131565217615,metrovalencia
Alboraia Peris Aragó,"[""3"", ""9""]",POINT (-0.3523277634823597 39.50076297918577),-0.3523277634823597,39.50076297918577,metrovalencia
Fondo de Benaguasil,"[""2""]",POINT (-0.5780805350632693 39.59272388566321),-0.5780805350632693,39.59272388566321,metrovalencia
Gallipont - Torre del Virrei,"[""2""]",POINT (-0.5419166688737088 39.56866459072798),-0.5419166688737088,39.56866459072798,metrovalencia
Fuente del Jarro,"[""2""]",POINT (-0.4645166693571574 39.5111732875743),-0.4645166693571573,39.5111732875743,metrovalencia
L'Alcúdia,"[""1""]",POINT (-0.5102638606951693 39.193813363569774),-0.5102638606951693,39.193813363569774,metrovalencia
Sant Ramon,"[""1""]",POINT (-0.4672611054062144 39.384864846247936),-0.4672611054062144,39.384864846247936,metrovalencia
Garbí,"[""4""]",POINT (-0.3945111033066965 39.4922905363387),-0.3945111033066965,39.4922905363387,metrovalencia
Florista,"[""4""]",POINT (-0.396816670526207 39.49443439623788),-0.3968166705262069,39.49443439623788,metrovalencia
Neptú,"[""8""]",POINT (-0.3258508438284417 39.463253060287585),-0.3258508438284417,39.46325306028759,metrovalencia
Machado,"[""3"", ""5"", ""7"", ""9""]",POINT (-0.3587944504398191 39.49243168035884),-0.358794450439819,39.49243168035884,metrovalencia
Roses,"[""3"", ""5"", ""9""]",POINT (-0.4672361011828295 39.49264911773043),-0.4672361011828295,39.49264911773043,metrovalencia
Amistat,"[""5"", ""7""]",POINT (-0.3503944579110447 39.47033313859402),-0.3503944579110447,39.47033313859402,metrovalencia
Aragó,"[""5"", ""7""]",POINT (-0.3581166561927953 39.47262577229274),-0.3581166561927953,39.47262577229274,metrovalencia
Castelló,"[""1""]",POINT (-0.5160138604081964 39.08400730254416),-0.5160138604081964,39.08400730254416,metrovalencia
Alginet,"[""1""]",POINT (-0.4748859996779908 39.26293949225646),-0.4748859996779908,39.26293949225646,metrovalencia
Quatre Carreres,"[""10""]",POINT (-0.3601250002310422 39.452447039546065),-0.3601250002310422,39.45244703954607,metrovalencia
Oceanogràfic,"[""10""]",POINT (-0.3473420005329418 39.4520380392216),-0.3473420005329418,39.4520380392216,metrovalencia
Palau de Congressos,"[""4""]",POINT (-0.400141656549996 39.497180977837964),-0.4001416565499959,39.49718097783797,metrovalencia
Campus,"[""4""]",POINT (-0.4174583255801421 39.5072212611679),-0.417458325580142,39.5072212611679,metrovalencia
Entrepins,"[""2""]",POINT (-0.5139539842919837 39.54333500081282),-0.5139539842919837,39.54333500081282,metrovalencia
Burjassot,"[""1""]",POINT (-0.4067361054400869 39.508415261654285),-0.4067361054400869,39.508415261654285,metrovalencia
Mislata,"[""3"", ""5"", ""9""]",POINT (-0.4183055461360697 39.473823587168184),-0.4183055461360697,39.47382358716818,metrovalencia
Túria,"[""1"", ""2""]",POINT (-0.391205548747755 39.47886661649007),-0.391205548747755,39.47886661649007,metrovalencia
La Vallesa,"[""2""]",POINT (-0.4979777639374245 39.53784183692217),-0.4979777639374245,39.53784183692217,metrovalencia
Montortal,"[""1""]",POINT (-0.5158861281369649 39.17379764708401),-0.5158861281369649,39.17379764708401,metrovalencia
Rocafort,"[""1""]",POINT (-0.4075777828732151 39.52870945118481),-0.4075777828732151,39.52870945118481,metrovalencia
Moncada - Alfara,"[""1""]",POINT (-0.3884611127603637 39.54352955038101),-0.3884611127603637,39.54352955038101,metrovalencia
Masies,"[""1""]",POINT (-0.4053777748647457 39.566581765432026),-0.4053777748647457,39.566581765432026,metrovalencia
Russafa,"[""10""]",POINT (-0.3695310001644055 39.46391303921369),-0.3695310001644055,39.46391303921369,metrovalencia
Orriols,"[""1"", ""6""]",POINT (-0.367663622109971 39.49314884351592),-0.367663622109971,39.49314884351592,metrovalencia
Pont de Fusta,"[""4""]",POINT (-0.3731805686023085 39.481781045417804),-0.3731805686023084,39.48178104541781,metrovalencia
Vicent Andrés Estellés,"[""4""]",POINT (-0.4198839965021366 39.50856022050974),-0.4198839965021366,39.50856022050974,metrovalencia
À Punt,"[""4""]",POINT (-0.4247489864954702 39.51220325625923),-0.4247489864954702,39.51220325625923,metrovalencia
La Coma,"[""4""]",POINT (-0.4317069942770743 39.521572152247394),-0.4317069942770742,39.521572152247394,metrovalencia
Estadi Ciutat de València,"[""1"", ""6""]",POINT (-0.3655419949094195 39.494918863018285),-0.3655419949094194,39.494918863018285,metrovalencia
Xàtiva,"[""3"", ""5"", ""9""]",POINT (-0.377375006091083 39.46718601400712),-0.377375006091083,39.46718601400712,metrovalencia
Quart de Poblet,"[""3"", ""5"", ""9""]",POINT (-0.4418805541345874 39.48108677099763),-0.4418805541345874,39.48108677099763,metrovalencia
Meliana,"[""3""]",POINT (-0.3518194551700547 39.52803043467392),-0.3518194551700547,39.52803043467392,metrovalencia
Foios,"[""3""]",POINT (-0.3538694381672806 39.537223855758896),-0.3538694381672805,39.537223855758896,metrovalencia
Les Carolines - Fira,"[""2""]",POINT (-0.4254194497239249 39.49873737508498),-0.4254194497239248,39.49873737508498,metrovalencia
Canyamelar,"[""6"", ""8""]",POINT (-0.3279320004180729 39.46652225619434),-0.3279320004180728,39.46652225619434,metrovalencia
Font Almaguer,"[""1""]",POINT (-0.4640861159260068 39.289405862125854),-0.4640861159260068,39.289405862125854,metrovalencia
Sagunt,"[""4""]",POINT (-0.3749722238203376 39.486499825901895),-0.3749722238203376,39.486499825901895,metrovalencia
Campanar,"[""1"", ""2""]",POINT (-0.3950361010065258 39.48463062443623),-0.3950361010065258,39.48463062443623,metrovalencia
Massamagrell,"[""3""]",POINT (-0.333033323500629 39.57056049493916),-0.333033323500629,39.57056049493916,metrovalencia
Massarrojos,"[""1""]",POINT (-0.402877778128583 39.53660968895581),-0.402877778128583,39.53660968895581,metrovalencia
La Pobla de Farnals,"[""3""]",POINT (-0.3304361109078244 39.57941822166075),-0.3304361109078244,39.57941822166075,metrovalencia
Facultats - Manuel Broseta,"[""3"", ""5"", ""7"", ""9""]",POINT (-0.3619055444301701 39.47800449481189),-0.3619055444301701,39.47800449481189,metrovalencia
El Clot,"[""2""]",POINT (-0.5279861091158305 39.54986576262979),-0.5279861091158305,39.54986576262979,metrovalencia
Safranar,"[""1"", ""2"", ""7""]",POINT (-0.3983833189002929 39.45457080974115),-0.3983833189002929,39.45457080974115,metrovalencia
Ll. Llarga - Terramelar,"[""4""]",POINT (-0.4304472209592373 39.50989917913695),-0.4304472209592372,39.50989917913695,metrovalencia
Salt de l'Aigua,"[""3"", ""5"", ""9""]",POINT (-0.4505681992431328 39.4848328033487),-0.4505681992431328,39.4848328033487,metrovalencia
Bailén,"[""7""]",POINT (-0.3794222170303012 39.463977853566156),-0.3794222170303011,39.46397785356616,metrovalencia
Rafelbunyol,"[""3""]",POINT (-0.3310583234452487 39.588523904516435),-0.3310583234452486,39.58852390451644,metrovalencia
Alacant,"[""10""]",POINT (-0.3774770005122519 39.46472103939357),-0.3774770005122518,39.46472103939357,metrovalencia
Faitanar,"[""3"", ""5"", ""9""]",POINT (-0.4331833418083208 39.47761921077863),-0.4331833418083208,39.47761921077863,metrovalencia
L'Eliana,"[""2""]",POINT (-0.5359194284163187 39.561832467826335),-0.5359194284163187,39.561832467826335,metrovalencia
Riba-roja de Túria,"[""9""]",POINT (-0.5594444275774598 39.54333500017424),-0.5594444275774598,39.54333500017424,metrovalencia
Montesol,"[""2""]",POINT (-0.5316972140071671 39.55557254933344),-0.5316972140071671,39.55557254933344,metrovalencia
Picassent,"[""1""]",POINT (-0.464858323278585 39.36303714856912),-0.4648583232785849,39.36303714856912,metrovalencia
Torrent,"[""1"", ""2"", ""7""]",POINT (-0.4609861070856414 39.434646646064856),-0.4609861070856413,39.434646646064856,metrovalencia
Ciutat Arts i Ciències - Justícia,"[""10""]",POINT (-0.3532159997794547 39.45259203991893),-0.3532159997794546,39.45259203991893,metrovalencia
Natzaret,"[""10""]",POINT (-0.3346740002450643 39.44988903943966),-0.3346740002450643,39.44988903943966,metrovalencia
La Granja,"[""4""]",POINT (-0.4124779998061252 39.50403217479327),-0.4124779998061252,39.50403217479327,metrovalencia
Sant Joan,"[""4""]",POINT (-0.416323989122466 39.50529102481966),-0.416323989122466,39.50529102481966,metrovalencia
Museros,"[""3""]",POINT (-0.3408555689097638 39.56157688255019),-0.3408555689097637,39.56157688255019,metrovalencia
Alboraia Palmaret,"[""3"", ""9""]",POINT (-0.3552222251891727 39.49566272842113),-0.3552222251891727,39.49566272842113,metrovalencia
València la Vella,"[""9""]",POINT (-0.5342069862551926 39.530483285379376),-0.5342069862551926,39.530483285379376,metrovalencia
València Sud,"[""1"", ""2"", ""7""]",POINT (-0.4106472133564586 39.440811196343056),-0.4106472133564586,39.440811196343056,metrovalencia
Beniferri,"[""1"", ""2""]",POINT (-0.3993369340966121 39.491031686146925),-0.3993369340966121,39.491031686146925,metrovalencia
Pl. Espanya,"[""1"", ""2""]",POINT (-0.3816333410088131 39.466201822102235),-0.3816333410088131,39.46620182210224,metrovalencia
Benimodo,"[""1""]",POINT (-0.5196194643809373 39.216293374118074),-0.5196194643809373,39.21629337411808,metrovalencia
Ausiàs March,"[""1""]",POINT (-0.491977215041994 39.24955753451306),-0.491977215041994,39.24955753451306,metrovalencia
Espioca,"[""1""]",POINT (-0.4667472240898878 39.321884194543124),-0.4667472240898878,39.32188419454312,metrovalencia
Seminari - CEU,"[""1""]",POINT (-0.3897444302876586 39.5499878326498),-0.3897444302876586,39.5499878326498,metrovalencia
Amado Granell - Montolivet,"[""10""]",POINT (-0.365110000429508 39.45937303938424),-0.365110000429508,39.45937303938424,metrovalencia
Tarongers - Ernest Lluch,"[""1"", ""4"", ""6""]",POINT (-0.3396222295867718 39.47813800932393),-0.3396222295867718,39.47813800932393,metrovalencia
Mislata Almassil,"[""3"", ""5"", ""9""]",POINT (-0.4243694542402148 39.47600940862436),-0.4243694542402147,39.47600940862436,metrovalencia
Cabanyal,"[""4"", ""6""]",POINT (-0.3275833432474662 39.47285465383452),-0.3275833432474662,39.47285465383452,metrovalencia
Nou d'Octubre,"[""3"", ""5"", ""9""]",POINT (-0.4076305632336302 39.47065738808727),-0.4076305632336302,39.47065738808727,metrovalencia
Alameda,"[""3"", ""5"", ""7"", ""9""]",POINT (-0.3653166591372722 39.47315601519005),-0.3653166591372722,39.47315601519005,metrovalencia
Manises,"[""3"", ""5"", ""9""]",POINT (-0.4590654377018195 39.48958973107335),-0.4590654377018194,39.48958973107335,metrovalencia
Paterna,"[""2""]",POINT (-0.4419719871267472 39.49880985401933),-0.4419719871267472,39.49880985401933,metrovalencia
Marítim,"[""5"", ""6"", ""7"", ""8""]",POINT (-0.3382369870182364 39.46493915696556),-0.3382369870182364,39.46493915696556,metrovalencia
Benimàmet,"[""2""]",POINT (-0.4194111232567788 39.501876870507694),-0.4194111232567787,39.501876870507694,metrovalencia
Cantereria,"[""2""]",POINT (-0.4120722112951377 39.50238041102936),-0.4120722112951376,39.50238041102936,metrovalencia
Benaguasil,"[""2""]",POINT (-0.5839277509085257 39.598880807680814),-0.5839277509085257,39.598880807680814,metrovalencia
Realón,"[""1""]",POINT (-0.4640137851031758 39.39390567874968),-0.4640137851031758,39.39390567874968,metrovalencia
Beteró,"[""1"", ""4"", ""6""]",POINT (-0.3342027661976934 39.47659305743498),-0.3342027661976934,39.47659305743498,metrovalencia
Marxalenes,"[""4""]",POINT (-0.3838368950525468 39.48797229915813),-0.3838368950525468,39.48797229915813,metrovalencia
Vicente Zaragozá,"[""1"", ""4"", ""6""]",POINT (-0.3579472307358761 39.4833717743908),-0.3579472307358761,39.4833717743908,metrovalencia
Trinitat,"[""1"", ""4"", ""6""]",POINT (-0.367763877448546 39.48627094440176),-0.367763877448546,39.48627094440176,metrovalencia
La Pobla de Vallbona,"[""2""]",POINT (-0.5622777944476075 39.58276371115498),-0.5622777944476075,39.58276371115498,metrovalencia
Benimaclet,"[""1"", ""3"", ""4"", ""5"", ""6"", ""7"", ""9""]",POINT (-0.3623333272775772 39.48485187642764),-0.3623333272775772,39.48485187642764,metrovalencia
La Canyada,"[""2""]",POINT (-0.4871222073769305 39.52680591747526),-0.4871222073769305,39.52680591747526,metrovalencia
Santa Rita,"[""2""]",POINT (-0.4551055434970949 39.505657235448645),-0.4551055434970948,39.505657235448645,metrovalencia
Massalavés,"[""1""]",POINT (-0.5187610983053753 39.143806497062336),-0.5187610983053753,39.143806497062336,metrovalencia
Empalme,"[""1"", ""2"", ""4""]",POINT (-0.4021083419820373 39.499576608331175),-0.4021083419820372,39.499576608331175,metrovalencia
La Cadena,"[""4"", ""6"", ""8""]",POINT (-0.3293749993077695 39.47520450774123),-0.3293749993077695,39.47520450774123,metrovalencia
Platja Malva-rosa,"[""4"", ""6"", ""8""]",POINT (-0.3257277910745404 39.47369007271332),-0.3257277910745403,39.47369007271332,metrovalencia
Platja les Arenes,"[""4"", ""6"", ""8""]",POINT (-0.325727790999878 39.46892933010812),-0.325727790999878,39.46892933010812,metrovalencia
Equador - Pintor Matarana,"[""12""]",POINT (-0.3927782320996148 39.49607896649905),-0.3927782320996147,39.49607896649905,emt
Les Corts,"[""11"", ""16"", ""26"", ""6"", ""80"", ""94"", ""N10""]",POINT (-0.3742677624589383 39.47872157854415),-0.3742677624589383,39.47872157854415,emt
General Avilés - Dr. Nicasi Benlloch,"[""64"", ""94""]",POINT (-0.3914609581496043 39.488037243059374),-0.3914609581496043,39.488037243059374,emt
Corts Valencianes - Palau de Congressos,"[""62"", ""63"", ""99"", ""N3""]",POINT (-0.401818111537627 39.494183850192464),-0.401818111537627,39.494183850192464,emt
Florista - Carrasqueta,"[""28""]",POINT (-0.3962088210973265 39.49404940420439),-0.3962088210973264,39.49404940420439,emt
Dr. Peset Aleixandre - Av. de Burjassot,"[""60"", ""64"", ""89""]",POINT (-0.3885702988290171 39.48893284987757),-0.3885702988290171,39.48893284987757,emt
Palau de Justícia,"[""11"", ""31"", ""32"", ""6"", ""70"", ""71"", ""81"", ""N10"", ""N2""]",POINT (-0.369568178294565 39.47207596206278),-0.3695681782945649,39.47207596206278,emt
Passeig Marítim - Pavia,"[""93"", ""98""]",POINT (-0.324609458011564 39.4742645348839),-0.324609458011564,39.4742645348839,emt
Joan XXIII - Federico Alcacer Aguilar,"[""64""]",POINT (-0.3840975314338629 39.49502166239837),-0.3840975314338629,39.49502166239837,emt
Colón - Pascual i Genís,"[""10"", ""11"", ""28"", ""32"", ""40"", ""70"", ""71"", ""8"", ""81"", ""N1"", ""N10"", ""N2"", ""N8""]",POINT (-0.3735744715296922 39.46819493294377),-0.3735744715296922,39.46819493294377,emt
Estació del Nord,"[""19"", ""35"", ""40"", ""6"", ""8"", ""N1"", ""N7"", ""N8"", ""N9""]",POINT (-0.3764952645701374 39.467514635721294),-0.3764952645701374,39.467514635721294,emt
Campus Tarongers,"[""40"", ""71""]",POINT (-0.3453280743399829 39.47927736170695),-0.3453280743399828,39.47927736170695,emt
Federico Alcacer Aguilar - Poeta Serrano Clavero,"[""12"", ""N10""]",POINT (-0.3862542617208672 39.494982866941655),-0.3862542617208672,39.494982866941655,emt
Castellonet - Joan XXIII,"[""12""]",POINT (-0.383564526993556 39.49321971627099),-0.383564526993556,39.49321971627099,emt
Centre de Salut Fonteta,"[""13"", ""7"", ""N7""]",POINT (-0.3681617463809649 39.442507726023),-0.3681617463809649,39.442507726023,emt
Camí de Montcada  - Alemany,"[""26""]",POINT (-0.3809572259295906 39.49649249254142),-0.3809572259295906,39.49649249254142,emt
Camí de Montcada  - Alemany,"[""26""]",POINT (-0.3810964690976113 39.49659003403457),-0.3810964690976113,39.49659003403457,emt
Burjassot - Pintor Matarana,"[""28"", ""N10""]",POINT (-0.3933097334910693 39.492393440457676),-0.3933097334910693,39.49239344045768,emt
Pere Cabanes - Bisbe Laguarda,"[""12""]",POINT (-0.3787829198086891 39.49424189829983),-0.3787829198086891,39.49424189829983,emt
Pintor Jacomart - Comte de Torrefiel,"[""12""]",POINT (-0.3772548411393017 39.49646764365853),-0.3772548411393017,39.49646764365853,emt
Pérez Galdós - Sant Josep de la Muntanya,"[""67"", ""N4""]",POINT (-0.3948889650634679 39.473994685702266),-0.3948889650634679,39.473994685702266,emt
Parc de Natzaret,"[""30"", ""4""]",POINT (-0.3332872128016265 39.44458966947652),-0.3332872128016265,39.44458966947652,emt
Dr. Peset Aleixandre - Montcada,"[""60"", ""89""]",POINT (-0.3796334261844185 39.490916646574654),-0.3796334261844185,39.490916646574654,emt
Centre d'especialitats Ricard Trénor,"[""11"", ""N10""]",POINT (-0.3705717018844134 39.48185718248969),-0.3705717018844134,39.48185718248969,emt
Dr. Peset Aleixandre - Guardacostes,"[""60"", ""64"", ""90""]",POINT (-0.3829222819940433 39.48998211816957),-0.3829222819940433,39.48998211816957,emt
Roger de Llòria - Colón,"[""40""]",POINT (-0.3725957521101151 39.46913251637978),-0.3725957521101151,39.46913251637978,emt
Constitució - Dr. Peset Aleixandre,"[""16"", ""26"", ""6"", ""N10""]",POINT (-0.3744527015329163 39.49152974184241),-0.3744527015329162,39.49152974184241,emt
Primat Reig - Bilbao,"[""90"", ""N2""]",POINT (-0.3715588686786924 39.490142892523416),-0.3715588686786924,39.490142892523416,emt
Estació del Nord - Sant Pau,"[""62"", ""67"", ""73"", ""9"", ""N3"", ""N7""]",POINT (-0.3778266392067869 39.468393565184314),-0.3778266392067869,39.46839356518432,emt
Félix del Río - Camí de Montcada,"[""60""]",POINT (-0.3794747799932956 39.49198776163449),-0.3794747799932956,39.49198776163449,emt
País Valencià - València,"[""9""]",POINT (-0.3814167408394351 39.42642679040525),-0.3814167408394351,39.42642679040525,emt
Dolores Marqués - Assagador d'Alboraia,"[""12"", ""70""]",POINT (-0.3620430866045035 39.48828209528488),-0.3620430866045034,39.48828209528488,emt
País Valencià - Pintor Sorolla,"[""9""]",POINT (-0.3847701114340046 39.427966203019466),-0.3847701114340046,39.427966203019466,emt
Passeig Marítim - Mediterrània,"[""32""]",POINT (-0.3245759842700254 39.46830732255087),-0.3245759842700254,39.46830732255087,emt
Catalunya - Guardia Civil,"[""93"", ""98""]",POINT (-0.3542697867591446 39.47969835044653),-0.3542697867591446,39.47969835044653,emt
Primat Reig - Calderón de la Barca,"[""90"", ""N2""]",POINT (-0.366171206986556 39.486132856561134),-0.366171206986556,39.486132856561134,emt
Passeig Marítim - Mendizábal,"[""32""]",POINT (-0.3252024019888047 39.48355244046615),-0.3252024019888047,39.48355244046615,emt
Germans Villalonga - Enric Navarro,"[""10""]",POINT (-0.3571893087552929 39.48549520152587),-0.3571893087552928,39.48549520152587,emt
Polvorí - Sinarques,"[""62""]",POINT (-0.4252266367622226 39.500991787797524),-0.4252266367622225,39.50099178779752,emt
Mistral - Murta,"[""10""]",POINT (-0.3578205939800466 39.485866448519644),-0.3578205939800465,39.48586644851965,emt
Edifici del Rellotge,"[""19"", ""92"", ""95"", ""N9""]",POINT (-0.3324961026053938 39.46035702072443),-0.3324961026053938,39.46035702072443,emt
Burjassot - Marxalenes,"[""28"", ""94"", ""N10""]",POINT (-0.386812993791799 39.48635768353169),-0.386812993791799,39.48635768353169,emt
Burjassot - Marxalenes,"[""28"", ""94"", ""N10""]",POINT (-0.3868134851295496 39.486370018608675),-0.3868134851295495,39.48637001860868,emt
Marina de València,"[""19"", ""92""]",POINT (-0.3294739656056153 39.46378658245906),-0.3294739656056153,39.46378658245906,emt
Burjassot - Dr. Peset Aleixandre,"[""28"", ""94"", ""N10""]",POINT (-0.3890689091090323 39.48833469992052),-0.3890689091090323,39.48833469992052,emt
Blasco Ibáñez - Rubén Darío,"[""30"", ""31"", ""71"", ""81"", ""89"", ""N1""]",POINT (-0.3539115521832035 39.475908821952615),-0.3539115521832035,39.475908821952615,emt
General Avilés - Conchita Piquer,"[""94""]",POINT (-0.3905968368320168 39.48801949874912),-0.3905968368320168,39.48801949874912,emt
Argenter Suárez - Ministre Luis Mayans,"[""98"", ""N10""]",POINT (-0.3729700513308436 39.48547389435351),-0.3729700513308436,39.48547389435351,emt
Eduard Boscà - Balears,"[""18"", ""89""]",POINT (-0.3577284538779769 39.46429795476555),-0.3577284538779768,39.46429795476555,emt
Guadalaviar - Sagunt,"[""79"", ""94"", ""95""]",POINT (-0.3754961789160185 39.482006220611204),-0.3754961789160185,39.4820062206112,emt
Molinell  - Alboraia,"[""98"", ""N10""]",POINT (-0.3700428613032802 39.48520324342893),-0.3700428613032802,39.48520324342893,emt
Molinell  - Alboraia,"[""98""]",POINT (-0.3697122176746564 39.484941180603634),-0.3697122176746564,39.484941180603634,emt
Alboraia - Jaca,"[""11"", ""N10""]",POINT (-0.3693788614546257 39.484134105928334),-0.3693788614546257,39.484134105928334,emt
Camí de Montcada - Casa d'Àngel,"[""26""]",POINT (-0.3839692130139706 39.506847919125384),-0.3839692130139706,39.50684791912538,emt
Joaquím Ballester  - Pare Ferris,"[""98""]",POINT (-0.3854716070173363 39.484813825417525),-0.3854716070173363,39.484813825417525,emt
Poliesportiu Natzaret - Moraira,"[""30"", ""4"", ""95"", ""N8""]",POINT (-0.3324287753532208 39.45055909542334),-0.3324287753532208,39.45055909542334,emt
Petxina - Pérez Galdos,"[""95""]",POINT (-0.3967538585909202 39.474647788340086),-0.3967538585909201,39.474647788340086,emt
Carpesa,"[""26""]",POINT (-0.3773143752871361 39.515098993531204),-0.3773143752871361,39.5150989935312,emt
Vall de la Ballestera  - Mestre Rodrigo,"[""98"", ""99""]",POINT (-0.397938691709507 39.47932159552723),-0.3979386917095069,39.47932159552723,emt
General Avilés  - Pius XII,"[""94""]",POINT (-0.3958820309358738 39.48559001534807),-0.3958820309358738,39.48559001534807,emt
Fonteta Sant Lluís - Bèrnia,"[""7""]",POINT (-0.3716216565564203 39.45396312664135),-0.3716216565564202,39.45396312664135,emt
Tres Forques - Mare de Déu de la Cabeça,"[""71"", ""N5""]",POINT (-0.3998469363943848 39.46368117339872),-0.3998469363943848,39.46368117339872,emt
Joaquím Ballester - Campanar,"[""98""]",POINT (-0.3919255341133743 39.48200192837728),-0.3919255341133743,39.48200192837728,emt
Pius XII - Campanar,"[""62"", ""63"", ""64"", ""92"", ""99"", ""N3""]",POINT (-0.3932838665887443 39.482233591707285),-0.3932838665887442,39.482233591707285,emt
Vall de la Ballestera - Campanar,"[""98"", ""99""]",POINT (-0.393545512567508 39.48091290492269),-0.393545512567508,39.48091290492269,emt
Primat Reig - Dr. Gómez Ferrer,"[""90"", ""98""]",POINT (-0.3603170919812813 39.48181223106321),-0.3603170919812813,39.48181223106321,emt
Primat Reig - Jaume Roig,"[""90"", ""98""]",POINT (-0.3633803278420699 39.48407398723863),-0.3633803278420699,39.48407398723863,emt
Borbotó,"[""26""]",POINT (-0.3886678195476463 39.51418151401951),-0.3886678195476463,39.51418151401951,emt
Blanqueria - Pare d' Òrfens,"[""28"", ""95"", ""C1""]",POINT (-0.3777590314775099 39.48037510519851),-0.3777590314775099,39.48037510519851,emt
Dr. Tomàs Sala  - Sant Vicent Màrtir,"[""18"", ""9"", ""99"", ""N6""]",POINT (-0.3872770335861917 39.44692260835913),-0.3872770335861917,39.44692260835913,emt
Parc Gulliver,"[""19"", ""94""]",POINT (-0.3587930091670318 39.46318627266343),-0.3587930091670318,39.46318627266343,emt
Bombas Gens,"[""28"", ""94"", ""N10""]",POINT (-0.3856298968111018 39.48548516355135),-0.3856298968111017,39.48548516355135,emt
Pont de Fusta,"[""16"", ""26"", ""6"", ""79"", ""94"", ""95""]",POINT (-0.3740110905904737 39.4809077774229),-0.3740110905904736,39.4809077774229,emt
Ferran el Catòlic - Juan de Mena,"[""60"", ""62"", ""64"", ""80"", ""92"", ""N3""]",POINT (-0.3861318703269894 39.47232192391291),-0.3861318703269893,39.47232192391291,emt
Quart - Guillem de Castro,"[""73""]",POINT (-0.3846713154528348 39.47572058859991),-0.3846713154528348,39.47572058859991,emt
Misser Mascó - Dr. Moliner,"[""32""]",POINT (-0.362503832423428 39.47554958631664),-0.362503832423428,39.47554958631664,emt
Brasil - Velàzquez,"[""73""]",POINT (-0.4006458202088345 39.47246202669662),-0.4006458202088345,39.47246202669662,emt
Ramon Llull - García Donato,"[""40"", ""71""]",POINT (-0.3468700786979239 39.476814345542415),-0.3468700786979239,39.476814345542415,emt
Campus de Burjassot,"[""63""]",POINT (-0.4216996465348844 39.509630083457694),-0.4216996465348844,39.509630083457694,emt
La Llum,"[""71""]",POINT (-0.4171486616142661 39.46845737329358),-0.417148661614266,39.46845737329358,emt
Quart - Terol,"[""73""]",POINT (-0.3912802713032788 39.47461197811272),-0.3912802713032787,39.47461197811272,emt
Campament  - Joaquín Marín,"[""62"", ""N3""]",POINT (-0.4226941165430092 39.50148699751043),-0.4226941165430092,39.50148699751043,emt
Nou d'Octubre,"[""93"", ""N4""]",POINT (-0.4055785064508074 39.47013317475743),-0.4055785064508074,39.47013317475743,emt
Serradora - Poliesportiu,"[""32"", ""99""]",POINT (-0.33503715902562 39.46667732511951),-0.33503715902562,39.46667732511951,emt
Martí Grajales - Serradora,"[""32""]",POINT (-0.3345553043626351 39.46825484873621),-0.3345553043626351,39.46825484873621,emt
Reina - Pescadors,"[""19"", ""92"", ""N1""]",POINT (-0.3285296166249586 39.46986107034692),-0.3285296166249586,39.46986107034692,emt
el Tremolar - Camí del Cavalló,"[""14""]",POINT (-0.3609942678649792 39.42349814485445),-0.3609942678649792,39.42349814485445,emt
Pintor Ferrandis - Josep Benlliure,"[""31"", ""N1""]",POINT (-0.3295753425167224 39.471948384053576),-0.3295753425167224,39.471948384053576,emt
Almàssera,"[""16""]",POINT (-0.3613584036763181 39.51637262851342),-0.3613584036763181,39.51637262851342,emt
Jesús Morante Borràs  -,"[""15""]",POINT (-0.3454345529992708 39.45101489021512),-0.3454345529992708,39.45101489021512,emt
Jesús Morante Borrás,"[""15""]",POINT (-0.3439874281076998 39.44414756137639),-0.3439874281076998,39.44414756137639,emt
Jesús Morante Borràs  -,"[""15""]",POINT (-0.3438649676535533 39.44789369518285),-0.3438649676535533,39.44789369518285,emt
Port - Saragossa,"[""4"", ""92"", ""N8""]",POINT (-0.3600001765439261 39.46794697759549),-0.3600001765439261,39.46794697759549,emt
Cardenal Benlloch - Ernest Ferrer,"[""18"", ""90""]",POINT (-0.3542597170047676 39.47204907178329),-0.3542597170047676,39.47204907178329,emt
Vicent Zaragozà,"[""10""]",POINT (-0.3575740857631919 39.48407868643406),-0.3575740857631919,39.48407868643406,emt
Amadeu de Savoia - Suècia,"[""32""]",POINT (-0.3594915098152329 39.47303074723169),-0.3594915098152329,39.47303074723169,emt
Finlàndia - General Gil Dolz,"[""32""]",POINT (-0.3603308647332809 39.47272286992908),-0.3603308647332809,39.47272286992908,emt
Illes Canàries - Lebon,"[""30"", ""4"", ""92"", ""N8""]",POINT (-0.3504602989321458 39.46504304755925),-0.3504602989321458,39.46504304755925,emt
Port - Illes Canàries,"[""19"", ""N9""]",POINT (-0.3381571286187352 39.46152898895248),-0.3381571286187351,39.46152898895248,emt
Carda - Moro Zeit,"[""73""]",POINT (-0.3808729918214302 39.47511272140295),-0.3808729918214302,39.47511272140295,emt
Centre de Salut Benimaclet,"[""10""]",POINT (-0.3585035150302925 39.48332168711801),-0.3585035150302925,39.48332168711801,emt
Editor Manuel Aguilar - Guillem Sorolla,"[""11"", ""60"", ""62"", ""73""]",POINT (-0.380412359239771 39.47271228635729),-0.380412359239771,39.47271228635729,emt
Plaça del Temple,"[""11"", ""16"", ""26"", ""28"", ""6"", ""80"", ""94"", ""95"", ""C1"", ""N10""]",POINT (-0.3712278016518398 39.47697902585149),-0.3712278016518398,39.47697902585149,emt
Poliesportiu Fta. Sant Lluís,"[""13""]",POINT (-0.3664446867397901 39.451940743698394),-0.3664446867397901,39.4519407436984,emt
Plaça de Cánovas,"[""80"", ""92"", ""93""]",POINT (-0.3658185852528091 39.46848898117759),-0.3658185852528091,39.46848898117759,emt
Plaça d'Espanya,"[""80"", ""92""]",POINT (-0.3810372751688724 39.46526988246608),-0.3810372751688723,39.46526988246608,emt
Av. de l'Oest  - Sant Agustí,"[""27"", ""7"", ""73""]",POINT (-0.3795578084269184 39.46949136427292),-0.3795578084269184,39.46949136427292,emt
Conca - Pérez Galdós,"[""11""]",POINT (-0.3885707407060946 39.46377446986934),-0.3885707407060946,39.46377446986934,emt
Fonteta Sant Lluís  - Àngel Villena,"[""13"", ""7"", ""N7""]",POINT (-0.3684030328771879 39.448583023433734),-0.3684030328771879,39.44858302343373,emt
Pl. Amèrica - Navarro Reverter,"[""10"", ""4"", ""94""]",POINT (-0.3658702891536002 39.4706842963996),-0.3658702891536001,39.4706842963996,emt
Mercat de Castilla,"[""71"", ""99""]",POINT (-0.4061690717084912 39.465459804945326),-0.4061690717084912,39.465459804945326,emt
Central de Policia Local de València,"[""70"", ""93"", ""N4""]",POINT (-0.3999233152564228 39.46855484215892),-0.3999233152564228,39.46855484215892,emt
Mercat de Campanar,"[""89""]",POINT (-0.3947695586673236 39.47777580159739),-0.3947695586673236,39.47777580159739,emt
Campanar,"[""62"", ""64"", ""92"", ""99"", ""N3""]",POINT (-0.3946933426654246 39.48439589204899),-0.3946933426654246,39.48439589204899,emt
Giorgeta - Albacete,"[""90""]",POINT (-0.3860026431579386 39.46154303335536),-0.3860026431579386,39.46154303335536,emt
Parc de Benicalap,"[""28"", ""N10""]",POINT (-0.3962106880814399 39.49567884866867),-0.3962106880814399,39.49567884866867,emt
Pont dels Serrans,"[""16"", ""26"", ""6"", ""80"", ""94"", ""N10""]",POINT (-0.3753595170469953 39.48164319706041),-0.3753595170469953,39.48164319706041,emt
Estació d'autobusos,"[""79"", ""95""]",POINT (-0.3877087530282515 39.480211915773715),-0.3877087530282515,39.48021191577372,emt
Escola Oficial d'Idiomes,"[""79"", ""94"", ""95""]",POINT (-0.3812053074435144 39.48298254491847),-0.3812053074435144,39.48298254491847,emt
Dr. Manuel Candela  - Port,"[""30"", ""40""]",POINT (-0.3509472577149589 39.46597126822129),-0.3509472577149589,39.46597126822129,emt
Dr. Manuel Candela  - Port,"[""30"", ""40""]",POINT (-0.3512720404620183 39.465908186544326),-0.3512720404620183,39.465908186544326,emt
Dr. Manuel Candela  - Rodríguez de Cepeda,"[""30"", ""40""]",POINT (-0.3502674310412221 39.46837632561385),-0.3502674310412221,39.46837632561385,emt
Dr. Manuel Candela  - Rodríguez de Cepeda,"[""30"", ""40""]",POINT (-0.3500404147013441 39.46811774168418),-0.3500404147013441,39.46811774168418,emt
Pont de les Drassanes,"[""30"", ""4"", ""95"", ""N8""]",POINT (-0.3299745828044704 39.45506261133725),-0.3299745828044704,39.45506261133725,emt
Sants Just i Pastor - Escultor Esteve Edo,"[""32""]",POINT (-0.3390583913822913 39.46691242145077),-0.3390583913822912,39.46691242145077,emt
Serradora - Peanya,"[""99"", ""N9""]",POINT (-0.3375800691131813 39.462791752047224),-0.3375800691131813,39.46279175204722,emt
Primat Reig - Xàbia,"[""10"", ""90"", ""98""]",POINT (-0.3565960883188091 39.47901319651021),-0.356596088318809,39.47901319651021,emt
França-Albereda,"[""19"", ""N9""]",POINT (-0.3521466572906376 39.46005182152625),-0.3521466572906376,39.46005182152625,emt
França-Trafalgar,"[""19"", ""N9""]",POINT (-0.3456023537080434 39.45861530746599),-0.3456023537080434,39.45861530746599,emt
Jacinto Benavente - Borriana,"[""13"", ""24"", ""25"", ""95""]",POINT (-0.3628317805160906 39.466328644711474),-0.3628317805160905,39.466328644711474,emt
Jacinto Benavente - Palau de la Música,"[""24"", ""25"", ""95""]",POINT (-0.3625584170618676 39.466837752458325),-0.3625584170618676,39.466837752458325,emt
Regne de València - Mestre Gozalbo,"[""19""]",POINT (-0.3676614927874143 39.46384499789331),-0.3676614927874143,39.46384499789331,emt
Joan XXIII  - Félix del Río,"[""60"", ""64""]",POINT (-0.3823089200493711 39.4912216304024),-0.382308920049371,39.4912216304024,emt
Ciscar - Mestre Racional,"[""13""]",POINT (-0.3638254251834878 39.463507844616686),-0.3638254251834878,39.463507844616686,emt
Blasco Ibáñez - José María Orense,"[""31"", ""81"", ""N1""]",POINT (-0.340052576937374 39.47216399351745),-0.340052576937374,39.47216399351745,emt
Ciscar - Borriana,"[""13"", ""40""]",POINT (-0.3651252342108836 39.46545629263329),-0.3651252342108835,39.46545629263329,emt
Ciscar - Comte d'Altea,"[""13"", ""40""]",POINT (-0.3663166285891424 39.46717694166819),-0.3663166285891424,39.46717694166819,emt
Tres Creus  - Llombai,"[""71"", ""73"", ""99"", ""N5""]",POINT (-0.4054479622256522 39.46410335444224),-0.4054479622256522,39.46410335444224,emt
Tres Creus - Llombai,"[""70""]",POINT (-0.4052608054741534 39.464397675087085),-0.4052608054741534,39.464397675087085,emt
Tossal del Rei,"[""12"", ""16"", ""N2""]",POINT (-0.3723487535040463 39.496316211566324),-0.3723487535040463,39.49631621156632,emt
Mercat de Natzaret,"[""30"", ""4"", ""95"", ""N8""]",POINT (-0.3341561776066225 39.450237298460074),-0.3341561776066225,39.45023729846008,emt
Pont de les Drassanes,"[""30"", ""4"", ""95"", ""N8""]",POINT (-0.3306578542809831 39.454493936024),-0.3306578542809831,39.454493936024,emt
Músic Espí - Gravador Fabregat,"[""12""]",POINT (-0.3741982329483814 39.49696940247059),-0.3741982329483814,39.49696940247059,emt
Port - Riu Escalona,"[""4"", ""92"", ""N8""]",POINT (-0.3526632875858894 39.46577323434218),-0.3526632875858894,39.46577323434218,emt
Aragó - Ernest Ferrer,"[""10"", ""12"", ""79"", ""93"", ""N1""]",POINT (-0.3568933589312843 39.4728157944994),-0.3568933589312842,39.4728157944994,emt
Arxiduc Carles  - Tres Forques,"[""72""]",POINT (-0.3964277824215156 39.46344373708717),-0.3964277824215156,39.46344373708717,emt
Cid - Aiora,"[""67"", ""70"", ""89"", ""93"", ""N4""]",POINT (-0.3923113127113459 39.46723397815293),-0.3923113127113459,39.46723397815293,emt
Aragó,"[""10"", ""12"", ""80"", ""93"", ""N1""]",POINT (-0.3578193955924653 39.47279886321418),-0.3578193955924653,39.47279886321418,emt
Tres Forques  - Arxiduc Carles,"[""71"", ""N5""]",POINT (-0.396888496609976 39.4637962038548),-0.396888496609976,39.4637962038548,emt
Tres Forques  - Arxiduc Carles,"[""71"", ""N5""]",POINT (-0.3968986906759247 39.4640549316569),-0.3968986906759247,39.4640549316569,emt
Tres Forques - Churat i Saurí,"[""71""]",POINT (-0.3919199326488302 39.46400204524694),-0.3919199326488302,39.46400204524694,emt
Cardenal Benlloch - Sants Just i Pastor,"[""18"", ""89""]",POINT (-0.3538671785622053 39.472140924152086),-0.3538671785622053,39.472140924152086,emt
Albereda  - L'Hemisfèric,"[""94""]",POINT (-0.3529621413320648 39.45943549573665),-0.3529621413320647,39.45943549573665,emt
Marítim - Serradora,"[""99""]",POINT (-0.336123890213226 39.46401999477247),-0.336123890213226,39.46401999477247,emt
La Malva-rosa - Mendizàbal,"[""99""]",POINT (-0.3292264613206788 39.483874084813834),-0.3292264613206788,39.48387408481384,emt
Filipines - Gibraltar,"[""8""]",POINT (-0.3788205964376223 39.4607583215138),-0.3788205964376223,39.4607583215138,emt
la Murta  - Cementeri,"[""14"", ""9""]",POINT (-0.3780329532518725 39.42507766761667),-0.3780329532518725,39.42507766761667,emt
Orriols,"[""11"", ""12""]",POINT (-0.3683987623827159 39.492895232988744),-0.3683987623827159,39.49289523298874,emt
Germanies - Sevilla,"[""15"", ""19"", ""79"", ""92"", ""93""]",POINT (-0.3746594381490225 39.46435627681756),-0.3746594381490225,39.46435627681756,emt
Cadis - Puerto Rico,"[""7"", ""N7""]",POINT (-0.3736885919328791 39.46186663193128),-0.3736885919328791,39.46186663193128,emt
Cadis - dels Centelles,"[""7"", ""N7""]",POINT (-0.3718067286186897 39.4592662745097),-0.3718067286186897,39.4592662745097,emt
Amistat,"[""32""]",POINT (-0.3498450829022355 39.47030864145061),-0.3498450829022355,39.47030864145061,emt
Pintor Salvador Abril - Mestre J. Serrano,"[""14"", ""15"", ""35"", ""6"", ""N9""]",POINT (-0.3709369933054984 39.46375709314925),-0.3709369933054984,39.46375709314925,emt
Comissaria Policia - Marítim,"[""95"", ""N9""]",POINT (-0.3284097712575996 39.46290421170919),-0.3284097712575995,39.46290421170919,emt
Peris i Valero - Pintor Salvador Abril,"[""14"", ""35"", ""N9""]",POINT (-0.3678117213164141 39.46042515743724),-0.3678117213164141,39.46042515743724,emt
Pare Esteban Pernet  - Centre Comercial,"[""71""]",POINT (-0.4125941963771926 39.46699042836268),-0.4125941963771926,39.46699042836268,emt
Albereda - Pont del Regne,"[""19"", ""40"", ""94""]",POINT (-0.3567920097923907 39.46097446479127),-0.3567920097923907,39.46097446479127,emt
Cases de Bàrcena III -,"[""16""]",POINT (-0.3573106563254098 39.522340052226276),-0.3573106563254097,39.52234005222628,emt
Reus,"[""98""]",POINT (-0.382808970297176 39.48572281620208),-0.382808970297176,39.48572281620208,emt
Joan XXIII  - Félix del Río,"[""64""]",POINT (-0.3824033616671084 39.49053076657013),-0.3824033616671084,39.49053076657013,emt
Illes Canàries,"[""35""]",POINT (-0.3491471614381523 39.463160710419906),-0.3491471614381523,39.46316071041991,emt
Albereda  - Museu de les Ciències,"[""94""]",POINT (-0.3502611281751168 39.45757031587636),-0.3502611281751168,39.45757031587636,emt
Menorca -  Centre Comercial,"[""94"", ""99"", ""N9""]",POINT (-0.345891153851769 39.45742892594355),-0.345891153851769,39.45742892594355,emt
Centre de Salut Assutzena,"[""12"", ""N10""]",POINT (-0.3907715436438417 39.494067113924665),-0.3907715436438417,39.494067113924665,emt
Riu Nervión - Riu Segre,"[""12"", ""N10""]",POINT (-0.3821985883275548 39.49565698533578),-0.3821985883275548,39.49565698533578,emt
Club Nàutic,"[""15""]",POINT (-0.3347437428105366 39.42797378068089),-0.3347437428105366,39.42797378068089,emt
Eivissa - Prof.Vicente Llorens,"[""30"", ""4"", ""92"", ""N8""]",POINT (-0.3395451078194701 39.461045542657345),-0.3395451078194701,39.46104554265735,emt
Hospital la Fe,"[""64"", ""8"", ""99""]",POINT (-0.3772749187754382 39.44545305953772),-0.3772749187754382,39.44545305953772,emt
Illes Canàries - Trafalgar,"[""30"", ""4"", ""92"", ""N8""]",POINT (-0.3446181307742784 39.46310543099896),-0.3446181307742784,39.46310543099896,emt
IES La Patacona,"[""31""]",POINT (-0.3253322064273052 39.49314485999567),-0.3253322064273052,39.49314485999567,emt
Port - Noguera,"[""30"", ""4"", ""92"", ""N8""]",POINT (-0.3418276582589269 39.46253756205425),-0.3418276582589268,39.46253756205425,emt
La Patacona,"[""31""]",POINT (-0.3267302018090434 39.492784956477635),-0.3267302018090434,39.49278495647764,emt
Regne de València  - Alcalde Reig,"[""40""]",POINT (-0.3611792781764825 39.462427716848396),-0.3611792781764825,39.4624277168484,emt
Regne de València  - Alcalde Reig,"[""40""]",POINT (-0.3608618180579194 39.46205693155921),-0.3608618180579194,39.46205693155921,emt
Alcalde Reig - Pont del Regne,"[""15"", ""24"", ""25"", ""95""]",POINT (-0.3601325706808689 39.46180729364421),-0.3601325706808689,39.46180729364421,emt
Alcalde Reig  - Pere Aleixandre,"[""15"", ""24"", ""25"", ""95""]",POINT (-0.3587170268205189 39.45986161104104),-0.3587170268205189,39.45986161104104,emt
Colón - Porta de la Mar,"[""10"", ""28"", ""32"", ""8"", ""81"", ""N1"", ""N10"", ""N2"", ""N8""]",POINT (-0.3691971220085118 39.47146724406039),-0.3691971220085118,39.47146724406039,emt
Peris i Valero - Escultor Josep Capuz,"[""15"", ""89""]",POINT (-0.3631775418983216 39.4621326934425),-0.3631775418983216,39.4621326934425,emt
la Plata - Sapadors,"[""18"", ""6""]",POINT (-0.3657443125431373 39.45584425932465),-0.3657443125431373,39.45584425932465,emt
Neptú,"[""95"", ""N9""]",POINT (-0.3254072584476352 39.463170553536294),-0.3254072584476352,39.46317055353629,emt
La Cadena - Progrés,"[""93"", ""98""]",POINT (-0.3292222208886852 39.47506479264544),-0.3292222208886852,39.47506479264544,emt
Peris i Valero - Pere Aleixandre,"[""14"", ""15"", ""89""]",POINT (-0.3656000725227582 39.46106784872129),-0.3656000725227582,39.46106784872129,emt
Escultor J. Capuz  - Pere Aleixandre,"[""14"", ""18""]",POINT (-0.3618095235619844 39.46034689684454),-0.3618095235619843,39.46034689684454,emt
Escultor J. Capuz  - Pere Aleixandre,"[""13"", ""14"", ""18""]",POINT (-0.3612957965284901 39.459867371474616),-0.3612957965284901,39.459867371474616,emt
Centre d'Investigació Príncep Felip,"[""15"", ""95""]",POINT (-0.3462388297099983 39.451893108982496),-0.3462388297099983,39.451893108982496,emt
Parc Central,"[""8""]",POINT (-0.3770001363599794 39.458250528158615),-0.3770001363599793,39.458250528158615,emt
Giorgeta - Ctra. D'Escrivà,"[""27""]",POINT (-0.3839337884209572 39.45799732092898),-0.3839337884209571,39.45799732092898,emt
José Roca Coll - Músic Gomis,"[""73""]",POINT (-0.3985895388020473 39.45929152242264),-0.3985895388020473,39.45929152242264,emt
Sant Vicent Màrtir - Dolores Alcaide,"[""27"", ""64""]",POINT (-0.384074137219023 39.45587046060732),-0.3840741372190229,39.45587046060732,emt
Polvorí - Campament,"[""62""]",POINT (-0.4251263966335924 39.50065830287195),-0.4251263966335923,39.50065830287195,emt
Orxata - Mestre Serrano,"[""70""]",POINT (-0.3541326622459023 39.495950606273986),-0.3541326622459023,39.49595060627399,emt
Arxiduc Carles - Músic Gomis,"[""72"", ""73""]",POINT (-0.4013184574177355 39.45880102403968),-0.4013184574177355,39.45880102403968,emt
Arxiduc Carles  - Fra Juníper Serra,"[""72"", ""N5""]",POINT (-0.3994536513013597 39.46102839657768),-0.3994536513013597,39.46102839657768,emt
Arxiduc Carles - Fra Juníper Serra,"[""72""]",POINT (-0.3992116222841135 39.46082093938832),-0.3992116222841135,39.46082093938832,emt
Inst. Obrer de Val.  - Autopista Saler,"[""13"", ""35"", ""N9""]",POINT (-0.3578379222926703 39.455811592703874),-0.3578379222926703,39.455811592703874,emt
Inst. Obrer de Val.  - Autopista Saler,"[""13"", ""35"", ""N9""]",POINT (-0.3567357484052863 39.45607640649157),-0.3567357484052862,39.45607640649157,emt
Actor Antonio Ferrandis  - Amado Granell Mesado,"[""99""]",POINT (-0.3581314902591134 39.45086711501388),-0.3581314902591134,39.45086711501388,emt
Actor Antonio Ferrandis  - Amado Granell Mesado,"[""99""]",POINT (-0.3579383170475219 39.45047567902353),-0.3579383170475219,39.45047567902353,emt
Actor Antonio Ferrandis  - En Corts,"[""99""]",POINT (-0.3624389000375285 39.448551757224315),-0.3624389000375285,39.44855175722432,emt
Actor Antonio Ferrandis  - En Corts,"[""99""]",POINT (-0.3626391341334995 39.4488487357999),-0.3626391341334994,39.4488487357999,emt
Amado Granell Mesado  - Antonio Ferrandis,"[""14""]",POINT (-0.3592014296563564 39.45064884159421),-0.3592014296563564,39.45064884159421,emt
Amado Granell Mesado  - Antonio Ferrandis,"[""14""]",POINT (-0.3593398778553022 39.451398438149184),-0.3593398778553022,39.451398438149184,emt
Gaspar Aguilar - Jesús,"[""9"", ""N6""]",POINT (-0.3886025161061958 39.459298257302954),-0.3886025161061958,39.45929825730296,emt
la Plata - Fonteta Sant Lluís,"[""18"", ""6"", ""N7""]",POINT (-0.3717963938996816 39.45289707459995),-0.3717963938996815,39.45289707459995,emt
Pare Esteban Pernet  - Centre Comercial,"[""71""]",POINT (-0.41286514104078 39.46706816175477),-0.41286514104078,39.46706816175477,emt
Puigcampana - Fonteta Sant Lluís,"[""7""]",POINT (-0.3712258287196661 39.45495005321587),-0.3712258287196661,39.45495005321587,emt
Terrateig - Jorge Comín,"[""67""]",POINT (-0.4035492720264716 39.481090336937136),-0.4035492720264715,39.481090336937136,emt
Amado Granell Mesado  - Arabista Ambrosio Huici,"[""14"", ""35"", ""N9""]",POINT (-0.3626746350495243 39.45552820643952),-0.3626746350495243,39.45552820643952,emt
Amado Granell Mesado  - Arabista Ambrosio Huici,"[""14"", ""35"", ""N9""]",POINT (-0.3623760500232643 39.45559519452403),-0.3623760500232643,39.45559519452403,emt
Fonteta Sant Lluís - Germans Maristes,"[""13"", ""7"", ""N7""]",POINT (-0.3695650149245823 39.45024206627388),-0.3695650149245822,39.45024206627388,emt
Sant Marcel·lí,"[""10"", ""9"", ""99"", ""N6""]",POINT (-0.3911919986708565 39.447297352157136),-0.3911919986708564,39.447297352157136,emt
Germans Maristes - Institut Jordi de Sant Jordi,"[""13""]",POINT (-0.3629140837498804 39.45341304988402),-0.3629140837498804,39.45341304988402,emt
la Plata - Poeta Miguel Hernández,"[""18""]",POINT (-0.3657236089736667 39.455462366463664),-0.3657236089736667,39.455462366463664,emt
Arquitecte Segura de Lago - Dr. Rafael Bartual,"[""72"", ""73"", ""N5""]",POINT (-0.4030875564782824 39.4535227230909),-0.4030875564782823,39.4535227230909,emt
Doctor Álvaro López - Illa de Hierro,"[""99""]",POINT (-0.3305380255434382 39.482771422307145),-0.3305380255434382,39.482771422307145,emt
José Andreu Alabarta - Mariano de Cavia,"[""72"", ""73""]",POINT (-0.4037437337433508 39.452580597064674),-0.4037437337433508,39.452580597064674,emt
José Andreu Alabarta - Professor Àngel Lacalle,"[""72"", ""73""]",POINT (-0.404771350758735 39.454266735538795),-0.404771350758735,39.4542667355388,emt
Uruguai  - Jeroni Munyós,"[""10"", ""9""]",POINT (-0.3859542145336388 39.459732341925736),-0.3859542145336387,39.459732341925736,emt
Malilla  - Bernat Descoll,"[""18"", ""8""]",POINT (-0.3788382745885845 39.4509575041895),-0.3788382745885845,39.4509575041895,emt
Malilla  - Illa Formentera,"[""18"", ""8""]",POINT (-0.3798615242635189 39.44688800067091),-0.3798615242635189,39.44688800067091,emt
Malilla  - Illa Formentera,"[""18"", ""8"", ""N7""]",POINT (-0.3802040087048436 39.446936692888585),-0.3802040087048435,39.446936692888585,emt
Malilla  - Illa Cabrera,"[""18"", ""8"", ""N7""]",POINT (-0.3797021986808435 39.44884847787071),-0.3797021986808435,39.44884847787071,emt
Malilla  - Illa Cabrera,"[""18"", ""8""]",POINT (-0.3792936765346163 39.44936088734793),-0.3792936765346162,39.44936088734793,emt
Cementeri El Palmar,"[""24""]",POINT (-0.3178360672833879 39.32145112079876),-0.3178360672833879,39.32145112079876,emt
Bulevard Sud - Ausiàs March,"[""99"", ""N7""]",POINT (-0.3695400495579194 39.44559227697989),-0.3695400495579194,39.44559227697989,emt
Cementeri El Palmar,"[""24""]",POINT (-0.3179182482280645 39.32144067346984),-0.3179182482280644,39.32144067346984,emt
Albereda,"[""11"", ""16"", ""26"", ""6"", ""70"", ""94"", ""95"", ""N10""]",POINT (-0.3648410986066368 39.47400415698762),-0.3648410986066368,39.47400415698762,emt
Jesús,"[""64""]",POINT (-0.3846089907321853 39.45907853140179),-0.3846089907321853,39.45907853140179,emt
Tres Creus - Gaspar Aguilar,"[""99""]",POINT (-0.395198205244882 39.450327556748576),-0.395198205244882,39.450327556748576,emt
Gaspar Aguilar - Calvo Acacio,"[""9""]",POINT (-0.3917382229399118 39.45411989967468),-0.3917382229399118,39.45411989967468,emt
Estadi Ciutat de València,"[""70""]",POINT (-0.3625443736449209 39.49101713643237),-0.3625443736449209,39.49101713643237,emt
Porta de la Mar,"[""10"", ""13"", ""4"", ""94"", ""95"", ""N8""]",POINT (-0.367746388686345 39.47167472901249),-0.3677463886863449,39.47167472901249,emt
Punta al Mar - Camí Canal,"[""30"", ""4""]",POINT (-0.3352189052532168 39.44483679710412),-0.3352189052532168,39.44483679710412,emt
Porta de la Mar,"[""13"", ""8""]",POINT (-0.3683482439350574 39.472403747576045),-0.3683482439350574,39.472403747576045,emt
Sant Vicent Màrtir - Altamira,"[""27"", ""64""]",POINT (-0.385278929091055 39.449146389388616),-0.385278929091055,39.449146389388616,emt
Carters  - Primer de Maig,"[""10"", ""N6""]",POINT (-0.3893862090608468 39.44834486776072),-0.3893862090608467,39.44834486776072,emt
Carters  - Primer de Maig,"[""10"", ""18""]",POINT (-0.3896869755569483 39.44826712893847),-0.3896869755569482,39.44826712893847,emt
País Valencià - Colón,"[""9""]",POINT (-0.3849761337051897 39.4278676053088),-0.3849761337051897,39.4278676053088,emt
Àgora,"[""15"", ""95""]",POINT (-0.3503647002582772 39.452904489979694),-0.3503647002582771,39.452904489979694,emt
Les Arts,"[""13"", ""15"", ""24"", ""25"", ""95""]",POINT (-0.3567639979063356 39.4567452306967),-0.3567639979063355,39.4567452306967,emt
Les Arts,"[""13"", ""15"", ""24"", ""25"", ""95""]",POINT (-0.3561727476391912 39.45709033185761),-0.3561727476391912,39.45709033185761,emt
Sant Vicent Màrtir  - Arquebisbe Olaechea,"[""27"", ""9"", ""N6""]",POINT (-0.387111395563098 39.444233429989865),-0.387111395563098,39.444233429989865,emt
Sant Vicent Màrtir  - Arquebisbe Olaechea,"[""27"", ""9"", ""N6""]",POINT (-0.3875334083863065 39.44368660183897),-0.3875334083863065,39.44368660183897,emt
Dr. Lluch,"[""19"", ""92""]",POINT (-0.3279746481730595 39.46940080239034),-0.3279746481730595,39.46940080239034,emt
Gravador Jordán - Escultor Pastor,"[""13"", ""7"", ""N7""]",POINT (-0.3675166120953084 39.44431934801419),-0.3675166120953084,39.44431934801419,emt
Blasco Ibáñez - Músic Ginés,"[""31"", ""81"", ""N1""]",POINT (-0.3429609389141424 39.47204948876648),-0.3429609389141424,39.47204948876648,emt
Pius IX - Salvador Perles,"[""10""]",POINT (-0.3937222206932342 39.44323189954128),-0.3937222206932342,39.44323189954128,emt
Blasco Ibáñez - Jaume Roig,"[""31"", ""71"", ""79"", ""81""]",POINT (-0.3655121170351207 39.47965702605211),-0.3655121170351207,39.47965702605211,emt
Mercat de Colón,"[""13"", ""40""]",POINT (-0.3678128308642323 39.46926220389207),-0.3678128308642323,39.46926220389207,emt
Gavines - Bitàcora,"[""25""]",POINT (-0.2799527151621057 39.281796902694346),-0.2799527151621057,39.281796902694346,emt
Cardenal Benlloch - Dr. Vicente Pallarés,"[""18"", ""89""]",POINT (-0.3528496963536356 39.47417337903859),-0.3528496963536356,39.47417337903859,emt
Vicent Marco Miranda - Lluís Alcanyís,"[""6""]",POINT (-0.3737898453544708 39.44797660146613),-0.3737898453544708,39.44797660146613,emt
Font d'en Corts  - Davant Alqueria Reial,"[""14""]",POINT (-0.3596591087942178 39.44744218834654),-0.3596591087942177,39.44744218834654,emt
Punta al Mar  - Canal,"[""15""]",POINT (-0.3382558100051726 39.44533904028948),-0.3382558100051726,39.44533904028948,emt
Punta al Mar  - Canal,"[""15""]",POINT (-0.3382682051821491 39.445290001112255),-0.3382682051821491,39.445290001112255,emt
Joaquím Ballester  - Ricardo Micó,"[""98""]",POINT (-0.3897472524713733 39.48269477590207),-0.3897472524713733,39.48269477590207,emt
Barraques del Figuero  - Llauradors,"[""15"", ""95""]",POINT (-0.3403844676487384 39.45073038656823),-0.3403844676487383,39.45073038656823,emt
Barraques del Figuero  - Llauradors,"[""15"", ""95""]",POINT (-0.3404623686502243 39.450569236562316),-0.3404623686502243,39.45056923656232,emt
Font d'en Corts - Levantina Alegre,"[""14""]",POINT (-0.3607197582904198 39.44867925943339),-0.3607197582904198,39.44867925943339,emt
Font d'en Corts  - Roig de lagarda,"[""14""]",POINT (-0.3582573892184202 39.44559255023338),-0.3582573892184202,39.44559255023338,emt
Font d'en Corts  - Roig de lagarda,"[""14""]",POINT (-0.3582236503312717 39.445669898708644),-0.3582236503312717,39.44566989870864,emt
Font d'en Corts  - Matador d'en Corts,"[""14""]",POINT (-0.3560179502218901 39.44271560423901),-0.3560179502218901,39.44271560423901,emt
Font d'en Corts  - Matador d'en Corts,"[""14""]",POINT (-0.3567508651844257 39.443360295662636),-0.3567508651844256,39.44336029566264,emt
Vall de la Ballestera  - Mestre Rodrigo,"[""98"", ""99""]",POINT (-0.397790087905668 39.47915546959452),-0.397790087905668,39.47915546959452,emt
Cases de Bàrcena II -,"[""16""]",POINT (-0.3586220862236414 39.52056170380673),-0.3586220862236414,39.52056170380673,emt
Font d'en Corts - Casa de Roc,"[""14""]",POINT (-0.3606715248612903 39.44871738846159),-0.3606715248612903,39.44871738846159,emt
Carrera del Riu - Entrada casa Rosquilla,"[""15""]",POINT (-0.3429951473059988 39.43211317444846),-0.3429951473059988,39.43211317444846,emt
Jesús Morante Borràs  -,"[""15""]",POINT (-0.3444680974752609 39.449482671002265),-0.3444680974752608,39.449482671002265,emt
Ramon Llull - Bernat Fenollar,"[""40"", ""71""]",POINT (-0.3462591705605456 39.47699399387104),-0.3462591705605455,39.47699399387104,emt
Estació Joaquín Sorolla,"[""64""]",POINT (-0.3815842726557285 39.46083008668604),-0.3815842726557285,39.46083008668604,emt
Catalunya - Clariano,"[""93"", ""98""]",POINT (-0.3518566251500697 39.48077588982563),-0.3518566251500697,39.48077588982563,emt
Tarongers - Facultat d'Economia,"[""93"", ""98""]",POINT (-0.3400360091248547 39.47811546383158),-0.3400360091248547,39.47811546383158,emt
Tarongers - Aparcament,"[""93"", ""98""]",POINT (-0.3359320196862148 39.47692974279595),-0.3359320196862148,39.47692974279595,emt
Nou d'Octubre,"[""99""]",POINT (-0.406090459447312 39.46987515747994),-0.406090459447312,39.46987515747994,emt
Museu de Belles Arts,"[""11"", ""16"", ""26"", ""6"", ""79"", ""94"", ""95"", ""N10""]",POINT (-0.3712873368678562 39.479056527205856),-0.3712873368678562,39.479056527205856,emt
Port - Joan Josep Sister,"[""30"", ""4"", ""N8""]",POINT (-0.3332327387115568 39.45999105455247),-0.3332327387115568,39.45999105455247,emt
Passeig Marítim - Font d'en Carrós,"[""32""]",POINT (-0.3246745657003995 39.48126567063038),-0.3246745657003995,39.48126567063038,emt
Sants Just i Pastor - Humanista Furió,"[""32""]",POINT (-0.3452290461842566 39.46896825274407),-0.3452290461842566,39.46896825274407,emt
Camí del Canal  - Guitarrista Tàrrega,"[""15""]",POINT (-0.3353619304379461 39.44726299366294),-0.3353619304379461,39.44726299366294,emt
El Pla de la Saïdia - Constitució,"[""79"", ""94"", ""95""]",POINT (-0.3777667858637368 39.48292394659387),-0.3777667858637368,39.48292394659387,emt
Brasil - Artur Piera,"[""73""]",POINT (-0.3951866421883474 39.47071907570776),-0.3951866421883474,39.47071907570776,emt
Fires - Cementeri,"[""62""]",POINT (-0.4243047445734628 39.505677761999614),-0.4243047445734628,39.505677761999614,emt
Llorca - Pérez Galdós,"[""72"", ""N5""]",POINT (-0.3920749248766163 39.46848171976078),-0.3920749248766163,39.46848171976078,emt
Jesús,"[""90""]",POINT (-0.384248701652007 39.45908217049384),-0.384248701652007,39.45908217049384,emt
Mossén Miguel Tarin  - Carretera de Paterna,"[""62""]",POINT (-0.4160532094387273 39.49713534639552),-0.4160532094387272,39.49713534639552,emt
Mossén Miguel Tarin  - Carretera de Paterna,"[""62"", ""N3""]",POINT (-0.4162416047164449 39.497640092862355),-0.4162416047164449,39.49764009286236,emt
Aragó - Xile,"[""10"", ""12"", ""79"", ""93"", ""N1""]",POINT (-0.358289505035946 39.47017288205743),-0.358289505035946,39.47017288205743,emt
Cid - Pere Maria Orts,"[""93"", ""98"", ""N4""]",POINT (-0.4141584991953426 39.46971986479556),-0.4141584991953426,39.46971986479556,emt
Cid  - Alejandro Volta,"[""71""]",POINT (-0.4147600227482523 39.469147645212445),-0.4147600227482523,39.469147645212445,emt
Marconi - Barri de la Llum,"[""71""]",POINT (-0.4144577719427557 39.46747790499429),-0.4144577719427557,39.46747790499429,emt
Jesús - Pare Jofré,"[""10"", ""11"", ""27"", ""63"", ""67"", ""71"", ""9"", ""N3"", ""N6""]",POINT (-0.3818096975575082 39.46817229485698),-0.3818096975575081,39.46817229485698,emt
Germanies - Castelló,"[""80"", ""92"", ""93""]",POINT (-0.3750098389061969 39.464579907712775),-0.3750098389061969,39.464579907712775,emt
Cid - Marconi,"[""93"", ""98""]",POINT (-0.4132110636422129 39.469233328598364),-0.4132110636422129,39.46923332859837,emt
Plaça de Cánovas,"[""79"", ""92"", ""93"", ""N1""]",POINT (-0.365597822724352 39.4681453547292),-0.365597822724352,39.4681453547292,emt
Maties Perelló - Lluís de Santàngel,"[""15"", ""90""]",POINT (-0.3664518348128164 39.462143173048815),-0.3664518348128163,39.462143173048815,emt
Albufera - Pl. de la Sequiota,"[""24""]",POINT (-0.3176888901800368 39.310588171705874),-0.3176888901800367,39.310588171705874,emt
Pare Esteban Pernet - Casa Misericòrdia,"[""71""]",POINT (-0.4095332299865051 39.467138739884255),-0.4095332299865051,39.467138739884255,emt
Ausiàs March - Algímia d'Alfara,"[""7"", ""N7""]",POINT (-0.371655235340067 39.4516065501464),-0.3716552353400669,39.4516065501464,emt
Linares - Pérez Galdós,"[""70"", ""93""]",POINT (-0.3923373023272986 39.46898095751243),-0.3923373023272986,39.46898095751243,emt
Hospital General,"[""70"", ""73"", ""95"", ""99""]",POINT (-0.4054971017439388 39.46866586258445),-0.4054971017439387,39.46866586258445,emt
Arxiduc Carles - Enguera,"[""72"", ""N5""]",POINT (-0.3949176841785839 39.465083512658076),-0.3949176841785839,39.46508351265808,emt
Mediterrani,"[""19"", ""92""]",POINT (-0.3283055767526645 39.46723369413599),-0.3283055767526645,39.46723369413599,emt
Jardí Botànic,"[""60"", ""62"", ""63"", ""64"", ""79"", ""92"", ""N3""]",POINT (-0.3888912529439532 39.47534854008927),-0.3888912529439532,39.47534854008927,emt
Prefectura superior de Policia,"[""64"", ""79"", ""92""]",POINT (-0.3840101965526302 39.468463790176756),-0.3840101965526302,39.46846379017676,emt
Regne de València - Lluís Santàngel,"[""19""]",POINT (-0.3691866955221844 39.46386437267184),-0.3691866955221844,39.46386437267184,emt
Duc de Mandas  - Arquitecto Rodríguez,"[""12""]",POINT (-0.3701315190912524 39.49435538013844),-0.3701315190912524,39.49435538013844,emt
IVAM,"[""C1""]",POINT (-0.3829312546528493 39.48002307784448),-0.3829312546528493,39.48002307784448,emt
Joaquín Benlloch - Oltà,"[""6"", ""N7""]",POINT (-0.3755675178299468 39.45231574613625),-0.3755675178299468,39.45231574613625,emt
Constitució - Sant Joan de la Penya,"[""16"", ""N2""]",POINT (-0.3708155235797656 39.496534997808794),-0.3708155235797655,39.4965349978088,emt
Bèrnia - Ausiàs March,"[""7""]",POINT (-0.3727054835223476 39.45403360415668),-0.3727054835223475,39.45403360415668,emt
Gavines - Entrada Trenca Perols,"[""25""]",POINT (-0.2946258716506496 39.30518324314801),-0.2946258716506496,39.30518324314801,emt
Gavines  - Platja,"[""25""]",POINT (-0.2892315442557703 39.297596296685256),-0.2892315442557703,39.297596296685256,emt
Gavines  - Platja,"[""25""]",POINT (-0.2891523549414194 39.29762328898449),-0.2891523549414194,39.29762328898449,emt
Gavines  - Sirena,"[""25""]",POINT (-0.2869423052493911 39.29380421333727),-0.2869423052493911,39.29380421333727,emt
Gavines  - Sirena,"[""25""]",POINT (-0.2870753936631477 39.2938017762892),-0.2870753936631477,39.2938017762892,emt
Gavines - Entrada Paridera,"[""25""]",POINT (-0.2858150460947822 39.29168933789484),-0.2858150460947822,39.29168933789484,emt
Gavines  - Les Escales,"[""25""]",POINT (-0.2819260887335254 39.285205918852604),-0.2819260887335254,39.28520591885261,emt
Gavines  - Les Escales,"[""25""]",POINT (-0.2820383741942724 39.2850770391611),-0.2820383741942723,39.2850770391611,emt
Sant Doménec Savio - Constitució,"[""6"", ""60""]",POINT (-0.374108750873881 39.49239707202728),-0.374108750873881,39.49239707202728,emt
Jaume Roig - Álvaro de Bazán,"[""12"", ""70""]",POINT (-0.3639104429842347 39.48127042429335),-0.3639104429842347,39.48127042429335,emt
Mestre Racional - Regne de València,"[""15"", ""90""]",POINT (-0.3632913542612162 39.46343654105763),-0.3632913542612161,39.46343654105763,emt
Real de Madrid - Hellín,"[""27"", ""9"", ""N6""]",POINT (-0.3911214354693308 39.43395856502526),-0.3911214354693307,39.43395856502526,emt
Primat Reig - Emili Baró,"[""89"", ""98"", ""N2""]",POINT (-0.3633285598084129 39.48440252426396),-0.3633285598084129,39.48440252426396,emt
Gavines - Les dunes,"[""25""]",POINT (-0.2916943489684611 39.30210177176995),-0.2916943489684611,39.30210177176995,emt
Mercat del Cabanyal,"[""32"", ""N1"", ""N9""]",POINT (-0.3324118384530789 39.46831556303038),-0.3324118384530788,39.46831556303038,emt
Tres Creus - Segona República Espanyola,"[""99"", ""N5""]",POINT (-0.4027765192417444 39.4586289177038),-0.4027765192417443,39.4586289177038,emt
Blasco Ibáñez - Bèlgica,"[""30"", ""31"", ""71"", ""81"", ""90"", ""N1""]",POINT (-0.3548399972623082 39.47583189033342),-0.3548399972623082,39.47583189033342,emt
Fra Juníper Serra  - Torrent,"[""73""]",POINT (-0.4005664555338511 39.46151815674541),-0.400566455533851,39.46151815674541,emt
Fra Juníper Serra - Tres Forques,"[""73""]",POINT (-0.4006735938966 39.463134676018534),-0.4006735938966,39.46313467601853,emt
Benimàmet,"[""62""]",POINT (-0.4187548057227073 39.501456205745974),-0.4187548057227073,39.50145620574597,emt
Cardenal Benlloch -La  Pobla de Farnals,"[""18"", ""89""]",POINT (-0.3549193437555828 39.469942730509096),-0.3549193437555827,39.469942730509096,emt
Arxiduc Carles - Puebla de Valverde,"[""72"", ""73"", ""N5""]",POINT (-0.4011475146752728 39.459509044600196),-0.4011475146752728,39.4595090446002,emt
Andreu Alfaro - Louis Braille,"[""12"", ""28"", ""N10""]",POINT (-0.3949398474370588 39.49751250712938),-0.3949398474370588,39.49751250712938,emt
Joan Verdeguer - Isaac Peral,"[""19"", ""30"", ""4"", ""92"", ""N8""]",POINT (-0.3393311092781367 39.45904837476364),-0.3393311092781367,39.45904837476364,emt
Isabel de Villena - Font d'en Carrós,"[""32""]",POINT (-0.3258003515262037 39.48115818380831),-0.3258003515262037,39.48115818380831,emt
La Carrasca,"[""93"", ""98""]",POINT (-0.3446960942223264 39.47990625445434),-0.3446960942223264,39.47990625445434,emt
Isabel de Villena - Vicent la Roda,"[""32""]",POINT (-0.325857514325032 39.47896606657254),-0.3258575143250319,39.47896606657254,emt
Museu Faller,"[""13"", ""15"", ""24"", ""25"", ""95""]",POINT (-0.358574379730994 39.45917158425204),-0.358574379730994,39.45917158425204,emt
Cavite - Vicent la Roda,"[""19"", ""31"", ""N1""]",POINT (-0.3266646838466293 39.479115616941954),-0.3266646838466293,39.479115616941954,emt
Ruaya  - Visitació,"[""98"", ""N10""]",POINT (-0.377084971955387 39.48555886989051),-0.377084971955387,39.48555886989051,emt
Col·legi Major,"[""93"", ""98""]",POINT (-0.3399071164948644 39.478523473845776),-0.3399071164948644,39.478523473845776,emt
la Malva-rosa - Mendizábal,"[""19"", ""31"", ""92"", ""N1""]",POINT (-0.3278568588926716 39.48392812543484),-0.3278568588926716,39.48392812543484,emt
la Malva-rosa - Sant Rafael,"[""19"", ""31"", ""92"", ""N1""]",POINT (-0.328148424423329 39.47911786974092),-0.328148424423329,39.47911786974092,emt
la Malva-rosa - Riu Tajo,"[""19"", ""31"", ""92"", ""N1""]",POINT (-0.3278526044683693 39.47624892503862),-0.3278526044683693,39.47624892503862,emt
Palmaret - Rosa dels Vents,"[""26""]",POINT (-0.3814219694544736 39.516148297991315),-0.3814219694544736,39.51614829799132,emt
Palmaret - Rosa dels Vents,"[""26""]",POINT (-0.3813964156869942 39.51621517050606),-0.3813964156869942,39.51621517050606,emt
Fires - Cementeri,"[""62""]",POINT (-0.4246377985327163 39.505618290419605),-0.4246377985327163,39.505618290419605,emt
Pinedo,"[""14"", ""15""]",POINT (-0.3359740588533517 39.41949515652359),-0.3359740588533517,39.41949515652359,emt
Camí de Montcada  - Matador,"[""26""]",POINT (-0.386861045633565 39.515641765917515),-0.386861045633565,39.51564176591752,emt
Camí de Montcada  - Matador,"[""26""]",POINT (-0.3870114396298455 39.51533636447669),-0.3870114396298454,39.51533636447669,emt
Camí de Montcada - Camí Alqueria de Marquet,"[""26""]",POINT (-0.3863308213412471 39.5122017270186),-0.3863308213412471,39.5122017270186,emt
Sants Just i Pastor - Lluís de Milà,"[""32""]",POINT (-0.3528486962192548 39.470892545462505),-0.3528486962192548,39.470892545462505,emt
Dr. Gómez Ferrer - Menéndez y Pelayo,"[""89"", ""N2""]",POINT (-0.3608370921382534 39.47996827344468),-0.3608370921382534,39.47996827344468,emt
Port - Eduard Boscà,"[""4"", ""92"", ""N8""]",POINT (-0.3559793427821633 39.466762126378505),-0.3559793427821633,39.466762126378505,emt
Camí de Montcada - Poble Nou,"[""26""]",POINT (-0.3838043839546851 39.50503064441887),-0.3838043839546851,39.50503064441887,emt
Camí de Montcada - Poble Nou,"[""26""]",POINT (-0.3836591454923775 39.505061345957685),-0.3836591454923775,39.505061345957685,emt
Camí de Montcada - Alqueria Paella,"[""26""]",POINT (-0.3858231542082964 39.51007142658831),-0.3858231542082964,39.51007142658831,emt
França-Pintor Maella,"[""19"", ""N9""]",POINT (-0.3488373728153225 39.4593131151159),-0.3488373728153225,39.4593131151159,emt
Camp de Túria  - Corts Valencianes,"[""62"", ""N3""]",POINT (-0.404004193542793 39.49432534052181),-0.404004193542793,39.49432534052181,emt
Camp de Túria  - Corts Valencianes,"[""62"", ""N3""]",POINT (-0.4033708151003831 39.49391476445109),-0.4033708151003831,39.49391476445109,emt
Dr. Tomàs Sala - Carters,"[""10"", ""18"", ""9"", ""99""]",POINT (-0.3905553105925413 39.447666386149145),-0.3905553105925413,39.447666386149145,emt
Mestre Rodrigo - General Avilés,"[""67""]",POINT (-0.4018605378627609 39.48376676838926),-0.4018605378627609,39.48376676838926,emt
Drassanes del Grau,"[""19"", ""92"", ""95""]",POINT (-0.3327142592748413 39.460480402814305),-0.3327142592748413,39.46048040281431,emt
la Safor - Mestre Rodrigo,"[""67""]",POINT (-0.4044280495467205 39.48828162784155),-0.4044280495467205,39.48828162784155,emt
Mestre Rodrigo - la Safor,"[""67""]",POINT (-0.4041990611139158 39.48710339383917),-0.4041990611139158,39.48710339383917,emt
Mestre Rodrigo  - la Safor,"[""67""]",POINT (-0.4045826351956455 39.48696401915349),-0.4045826351956455,39.48696401915349,emt
Bioparc,"[""98"", ""99""]",POINT (-0.4065909577987962 39.47646270548368),-0.4065909577987962,39.47646270548368,emt
Corts Valencianes - l'Alt Maestrat,"[""62"", ""63"", ""99"", ""N3""]",POINT (-0.4022564661726952 39.4939509721372),-0.4022564661726951,39.4939509721372,emt
Real de Madrid  - Eduardo Dato,"[""27"", ""9"", ""N6""]",POINT (-0.392912081101602 39.429929164492044),-0.392912081101602,39.42992916449205,emt
Estació del Nord - Bailén,"[""63""]",POINT (-0.3777120249210014 39.46724547379315),-0.3777120249210013,39.46724547379315,emt
Carrera del Riu - Montanyars,"[""24"", ""25""]",POINT (-0.3352592458466667 39.409791818847836),-0.3352592458466666,39.40979181884784,emt
Plaça de l'Ajuntament - Flors,"[""C1""]",POINT (-0.3759857441721357 39.469891869224575),-0.3759857441721357,39.469891869224575,emt
Plaça de l'Ajuntament,"[""11"", ""6"", ""70"", ""8"", ""N10"", ""N2""]",POINT (-0.3758551066060897 39.47019867786519),-0.3758551066060897,39.47019867786519,emt
Carrera del Riu - Trav. Pinedo a la Mar,"[""14"", ""15"", ""24"", ""25""]",POINT (-0.3406249446178361 39.42169734723553),-0.3406249446178361,39.42169734723553,emt
Carrera del Riu - Mossén Cuenca,"[""14"", ""15"", ""24"", ""25""]",POINT (-0.3403420035465817 39.42167609060545),-0.3403420035465817,39.42167609060545,emt
Sant Vicent Màrtir - Ànimes,"[""10"", ""70"", ""71"", ""N6""]",POINT (-0.3789189037443815 39.46928751886801),-0.3789189037443815,39.46928751886801,emt
Principal - El Caroig,"[""14""]",POINT (-0.3627071377622937 39.432436399100744),-0.3627071377622937,39.43243639910074,emt
Crist del Refugi - Davant Sant Agustí,"[""14""]",POINT (-0.3639443374125587 39.42448613363243),-0.3639443374125587,39.42448613363243,emt
Vicent Puchol - Arbres,"[""14""]",POINT (-0.3639150589218496 39.42785323306296),-0.3639150589218495,39.42785323306296,emt
Càmping Coll Vert,"[""24"", ""25""]",POINT (-0.3324651838386709 39.396828818045094),-0.3324651838386709,39.39682881804509,emt
Porta de la Mar,"[""16"", ""26""]",POINT (-0.3688899268936203 39.4721643528089),-0.3688899268936202,39.4721643528089,emt
Palau de Congressos,"[""99""]",POINT (-0.4009912823700988 39.49549662531196),-0.4009912823700988,39.49549662531196,emt
Tetuan - exterior,"[""28"", ""31"", ""32"", ""6"", ""81"", ""94"", ""95"", ""N10"", ""N2""]",POINT (-0.3696711800869019 39.47387770722585),-0.3696711800869018,39.47387770722585,emt
Antic Hospital La Fe,"[""60"", ""90""]",POINT (-0.3915070929227356 39.48411280277609),-0.3915070929227356,39.48411280277609,emt
el Tremolar - Cases Grill,"[""14""]",POINT (-0.3595110190136339 39.4232967996487),-0.3595110190136338,39.4232967996487,emt
Blasco Ibáñez  - José María Haro,"[""31"", ""81"", ""N1""]",POINT (-0.3382552400468583 39.47065909866098),-0.3382552400468583,39.47065909866098,emt
Real de Madrid - Algar del Palància,"[""27"", ""9"", ""N6""]",POINT (-0.3916115584355535 39.43329553907528),-0.3916115584355535,39.43329553907528,emt
Benifaraig a Montcada - Casa Silvestre,"[""26""]",POINT (-0.3860452937257315 39.52525355985053),-0.3860452937257315,39.52525355985053,emt
Benifaraig a Montcada - Boquera,"[""26""]",POINT (-0.386220935518191 39.52526656567516),-0.386220935518191,39.52526656567516,emt
Rotonda dels Hams,"[""6"", ""64"", ""8"", ""99""]",POINT (-0.3700383911701912 39.44594044791921),-0.3700383911701912,39.44594044791921,emt
Pere Cabanes - Camí Montcada,"[""12""]",POINT (-0.3815638473383871 39.49362014993104),-0.3815638473383871,39.49362014993104,emt
El Palmar,"[""24""]",POINT (-0.3177661685717124 39.311732571286576),-0.3177661685717123,39.311732571286576,emt
Equador - General Llorens,"[""12""]",POINT (-0.3881861664395492 39.493285100209114),-0.3881861664395492,39.49328510020912,emt
Dr. Peset Aleixandre - Joan XXIII,"[""60"", ""89""]",POINT (-0.3829826782490154 39.49017873479733),-0.3829826782490154,39.49017873479733,emt
Camí de Montcada  - Cambrils,"[""26""]",POINT (-0.3801507441776817 39.4946989253522),-0.3801507441776817,39.4946989253522,emt
Camí de Montcada  - Cambrils,"[""26"", ""N10""]",POINT (-0.3803230880780544 39.494887436939784),-0.3803230880780543,39.49488743693978,emt
MuVIM,"[""27""]",POINT (-0.380306651550234 39.47006873010097),-0.3803066515502339,39.47006873010097,emt
Pere Cabanes - Sant Doménec Savio,"[""12""]",POINT (-0.3753286315220565 39.494984979652976),-0.3753286315220565,39.494984979652976,emt
Sant Doménec Savio - Josep Esteve,"[""6"", ""60""]",POINT (-0.3755159116763595 39.49602306488437),-0.3755159116763595,39.49602306488437,emt
Alacant - Castelló,"[""8""]",POINT (-0.3769551489015706 39.466143264593555),-0.3769551489015706,39.46614326459356,emt
Alboraia,"[""70""]",POINT (-0.3545636735902768 39.49591792714691),-0.3545636735902768,39.49591792714691,emt
Centre d'Investigació Príncep Felip,"[""95""]",POINT (-0.3448038787261162 39.45149306573409),-0.3448038787261162,39.45149306573409,emt
Dr. Peset Aleixandre - Felip Rinaldi,"[""26"", ""60"", ""89""]",POINT (-0.3761182742035554 39.491736937540765),-0.3761182742035554,39.491736937540765,emt
Pintor Jacomart - Alcanyís,"[""12""]",POINT (-0.3799473909799226 39.495889065311644),-0.3799473909799226,39.49588906531165,emt
Hospital Malva-rosa,"[""32""]",POINT (-0.3246215364819441 39.47706074065104),-0.3246215364819441,39.47706074065104,emt
Alginet - Alcossebre,"[""62""]",POINT (-0.4292170448396872 39.50721300537943),-0.4292170448396871,39.50721300537943,emt
Mercat Central - Beata,"[""27""]",POINT (-0.379849640651289 39.47252515382274),-0.3798496406512889,39.47252515382274,emt
Blasco Ibáñez - Hondures,"[""31"", ""81"", ""N1""]",POINT (-0.3459296563911196 39.47389112545163),-0.3459296563911195,39.47389112545163,emt
Dr. Peset Aleixandre - Camí de Montcada,"[""90""]",POINT (-0.3786751931990104 39.49088424959598),-0.3786751931990104,39.49088424959598,emt
Centre de Salut República Argentina,"[""32""]",POINT (-0.3528271724435825 39.4711759933702),-0.3528271724435824,39.4711759933702,emt
Dr. Manuel Candela  - Blasco Ibáñez,"[""30"", ""40""]",POINT (-0.348108953410669 39.47281209076088),-0.348108953410669,39.47281209076088,emt
Blasco Ibáñez  - Ciutat Universitària,"[""12"", ""80""]",POINT (-0.3631108805274532 39.47798039791038),-0.3631108805274532,39.47798039791038,emt
Primat Reig - Ministre Luis Mayans,"[""11""]",POINT (-0.3707425796327595 39.48954132311377),-0.3707425796327595,39.48954132311377,emt
Pare Viñas - Daroca,"[""11""]",POINT (-0.3688581727469181 39.49590704864304),-0.3688581727469181,39.49590704864304,emt
Lliri Blau - Mestre Ventura Pascual,"[""10""]",POINT (-0.3571369981542366 39.486985419467096),-0.3571369981542366,39.486985419467096,emt
França - Albereda,"[""19"", ""40"", ""94""]",POINT (-0.356590328986687 39.46155981764328),-0.3565903289866869,39.46155981764328,emt
Oltà - Ausiàs March,"[""18"", ""6""]",POINT (-0.3739537314280438 39.45315708657055),-0.3739537314280438,39.45315708657055,emt
Parc central de Bombers,"[""18"", ""6"", ""N7""]",POINT (-0.3688285868566852 39.45412598612355),-0.3688285868566852,39.45412598612355,emt
Cavanilles - Álvaro de Bazán,"[""12"", ""70"", ""N2""]",POINT (-0.3652619271047435 39.48199421007152),-0.3652619271047435,39.48199421007152,emt
General Avilés - Miguel Servet,"[""64"", ""94""]",POINT (-0.394024093711783 39.486923331414786),-0.394024093711783,39.48692333141479,emt
General Avilés - Miguel Servet,"[""64"", ""94""]",POINT (-0.3926378620536511 39.48718340778759),-0.3926378620536511,39.48718340778759,emt
Primat Reig - Camí Vera,"[""10"", ""98""]",POINT (-0.3575277239471439 39.48009977968893),-0.3575277239471439,39.48009977968893,emt
Campanar - Dr. Nicasi Benlloch,"[""60"", ""64"", ""90""]",POINT (-0.3895859180951039 39.48811804199917),-0.3895859180951039,39.48811804199917,emt
Almassora - Argenter Suàrez,"[""11""]",POINT (-0.3706555548667378 39.48632751204083),-0.3706555548667378,39.48632751204083,emt
Sagunt - Sant Guillem,"[""16"", ""26"", ""6""]",POINT (-0.374740756553748 39.48437604141631),-0.374740756553748,39.48437604141631,emt
Marqués del Túria - Gregori Maians,"[""15"", ""79"", ""92"", ""93""]",POINT (-0.3722582265591997 39.465303543083394),-0.3722582265591997,39.465303543083394,emt
Molinell  - Pintor Genaro Lahuerta,"[""98""]",POINT (-0.3670531272558674 39.48483209535911),-0.3670531272558673,39.48483209535911,emt
Molinell  - Pintor Genaro Lahuerta,"[""98""]",POINT (-0.3669663303779848 39.484947269589476),-0.3669663303779847,39.48494726958948,emt
Fonteta Sant Lluís - Algímia d'Alfara,"[""7""]",POINT (-0.3706643838921966 39.45161548024151),-0.3706643838921966,39.45161548024151,emt
Marqués de Sant Joan - Campanar,"[""90""]",POINT (-0.3951615711031698 39.47866771444293),-0.3951615711031698,39.47866771444293,emt
Tirso de Molina - Pius XII,"[""95""]",POINT (-0.3929153358778041 39.47842212071948),-0.3929153358778041,39.47842212071948,emt
Vall de la Ballestera - Eduardo Soler i Pérez,"[""67""]",POINT (-0.3990758595483885 39.47859792508317),-0.3990758595483885,39.47859792508317,emt
Marqués del Túria - Russafa,"[""80"", ""92"", ""93""]",POINT (-0.3732828101486219 39.46538156911864),-0.3732828101486219,39.46538156911864,emt
Campanar - Joan Pau II,"[""89""]",POINT (-0.3937953224402587 39.48003460861822),-0.3937953224402587,39.48003460861822,emt
Patraix,"[""9"", ""N6""]",POINT (-0.3902442558435313 39.45685224653253),-0.3902442558435313,39.45685224653253,emt
Els Centelles - Sueca,"[""90""]",POINT (-0.3727906548390107 39.45945235506772),-0.3727906548390107,39.45945235506772,emt
Túria,"[""60"", ""62"", ""64"", ""79"", ""92"", ""N3""]",POINT (-0.3900978443496681 39.47699300557139),-0.3900978443496681,39.47699300557139,emt
el Tremolar - Font d'en Corts,"[""14""]",POINT (-0.3504519697849582 39.422173855835965),-0.3504519697849582,39.422173855835965,emt
Malilla - Oltà,"[""8"", ""N7""]",POINT (-0.3788870020029433 39.45254984960351),-0.3788870020029433,39.45254984960351,emt
Mestre Rodrigo - Manuel de Falla,"[""67""]",POINT (-0.3977942096704193 39.47743618411912),-0.3977942096704193,39.47743618411912,emt
Cabanyal,"[""19"", ""92""]",POINT (-0.3276495348609413 39.47166464315274),-0.3276495348609413,39.47166464315274,emt
Vall de la Ballestera - Pius XII,"[""98"", ""99""]",POINT (-0.3936668121307516 39.481155638273535),-0.3936668121307515,39.481155638273535,emt
Jaume Roig - Primat Reig,"[""12"", ""70""]",POINT (-0.3629854002034975 39.48319549974947),-0.3629854002034975,39.48319549974947,emt
Hospital Clínic - Facultat Medicina,"[""30""]",POINT (-0.3639395351910734 39.47871717961821),-0.3639395351910733,39.47871717961821,emt
Borbotó,"[""26""]",POINT (-0.3885883298601788 39.51416891678643),-0.3885883298601787,39.51416891678643,emt
Dr. Tomàs Sala - Jerónima Galés,"[""10"", ""18"", ""9"", ""99""]",POINT (-0.3934640122780971 39.44907190766014),-0.3934640122780971,39.44907190766014,emt
Menorca - França,"[""19"", ""99"", ""N9""]",POINT (-0.3435022417301587 39.45895909556097),-0.3435022417301587,39.45895909556097,emt
Sagunt,"[""16"", ""26"", ""6""]",POINT (-0.3746561002045707 39.48622981059055),-0.3746561002045707,39.48622981059055,emt
Dr. Moliner - Arts Gràfiques,"[""31"", ""71"", ""81"", ""N2""]",POINT (-0.3627244561341577 39.476328347895304),-0.3627244561341576,39.4763283478953,emt
Pérez Galdós - Dr. Zamenhof,"[""90""]",POINT (-0.3953148208093644 39.474622164384904),-0.3953148208093644,39.4746221643849,emt
Parc de l'Oest,"[""70"", ""93""]",POINT (-0.3960389814055954 39.46837971627332),-0.3960389814055953,39.46837971627332,emt
Principal - Camí del Ribàs,"[""14""]",POINT (-0.3624422455634721 39.43266143813121),-0.3624422455634721,39.43266143813121,emt
Petxina - Ferran el Catòlic,"[""95""]",POINT (-0.3906818218532949 39.477184088755735),-0.3906818218532948,39.477184088755735,emt
Mercavalència,"[""14""]",POINT (-0.354785943727285 39.4371521037731),-0.3547859437272849,39.4371521037731,emt
Ferran el Catòlic - S. Ignacio de Loyola,"[""60"", ""62"", ""73""]",POINT (-0.3880287605608164 39.47411266191422),-0.3880287605608163,39.47411266191422,emt
Jardí Botànic,"[""60"", ""62"", ""63"", ""64"", ""80"", ""92"", ""N3""]",POINT (-0.3880114323261204 39.47494319084601),-0.3880114323261204,39.47494319084601,emt
Àngel Guimerà,"[""67"", ""93""]",POINT (-0.3851393892910949 39.47048509610838),-0.3851393892910949,39.47048509610838,emt
Fira València,"[""62""]",POINT (-0.4262836141335537 39.503679547942006),-0.4262836141335537,39.503679547942006,emt
Fira València,"[""62""]",POINT (-0.42639458433069 39.50316079143803),-0.42639458433069,39.50316079143803,emt
Joaquím Ballester  - Ricardo Micó,"[""98""]",POINT (-0.38969617077927 39.48299029724242),-0.38969617077927,39.48299029724242,emt
Reina - Remonta,"[""19"", ""31"", ""92"", ""N1""]",POINT (-0.3278985115726453 39.4742911059233),-0.3278985115726453,39.4742911059233,emt
Reina - Espadan,"[""19"", ""92"", ""N1""]",POINT (-0.3282726384265573 39.471601819931124),-0.3282726384265573,39.47160181993112,emt
Clariano - Palància,"[""18""]",POINT (-0.3515925149182129 39.477845629895896),-0.3515925149182129,39.477845629895896,emt
Cases de Bàrcena IV -,"[""16""]",POINT (-0.3577533426786948 39.522022159862786),-0.3577533426786948,39.52202215986279,emt
Pintor Ferrandis - Progrés,"[""31""]",POINT (-0.3287321840117674 39.47204294765348),-0.3287321840117674,39.47204294765348,emt
Bonrepòs i Mirambell,"[""16""]",POINT (-0.3615169935903978 39.516495217596045),-0.3615169935903978,39.516495217596045,emt
Jesús Morante Borràs  -,"[""15""]",POINT (-0.3440288021060296 39.447905375927064),-0.3440288021060296,39.44790537592706,emt
Jesús Morante Borrás,"[""15""]",POINT (-0.3436689587359959 39.44417913832902),-0.3436689587359959,39.44417913832902,emt
Jesús Morante Borràs  -,"[""15""]",POINT (-0.3452672020725657 39.45101176146566),-0.3452672020725657,39.45101176146566,emt
Pla del Real,"[""11"", ""16"", ""26"", ""6"", ""70"", ""94"", ""95"", ""N10""]",POINT (-0.366829060115047 39.47644519421866),-0.366829060115047,39.47644519421866,emt
Albereda - Palau de la Música,"[""94""]",POINT (-0.3593966234108326 39.4657818337765),-0.3593966234108326,39.4657818337765,emt
Albereda - Palau de la Música,"[""94""]",POINT (-0.3594678358556617 39.46525968140742),-0.3594678358556617,39.46525968140742,emt
Estadi de Mestalla,"[""10"", ""12"", ""79"", ""93"", ""N1""]",POINT (-0.3557791218714069 39.475063402413404),-0.3557791218714068,39.47506340241341,emt
Cardenal Benlloch - Ciutat de Mula,"[""18"", ""90""]",POINT (-0.3531589013399264 39.47432558037473),-0.3531589013399264,39.47432558037473,emt
Ribàs - Dr. Ruiz Comes,"[""14""]",POINT (-0.3597159306393808 39.431065891435544),-0.3597159306393808,39.43106589143554,emt
Ernest Ferrer - Polo y Peyrolón,"[""32""]",POINT (-0.3552113802504313 39.47181906574513),-0.3552113802504313,39.47181906574513,emt
Túria,"[""60"", ""62"", ""64"", ""80"", ""92"", ""N3""]",POINT (-0.3895880384658746 39.47714587528966),-0.3895880384658746,39.47714587528966,emt
Encarnació - Guillem de Castro,"[""28"", ""C1""]",POINT (-0.3838070255358186 39.47391368850487),-0.3838070255358186,39.47391368850487,emt
Illes Canàries - Vicente Beltrán,"[""30"", ""35"", ""4"", ""92"", ""N8""]",POINT (-0.3474619929311527 39.46415768200412),-0.3474619929311527,39.46415768200412,emt
Joaquím Ballester - Pare Ferrís,"[""98""]",POINT (-0.3865692361310071 39.48463051305917),-0.3865692361310071,39.48463051305917,emt
Les Naus,"[""19"", ""30"", ""4"", ""92"", ""N8""]",POINT (-0.3361082784691865 39.45880295716435),-0.3361082784691865,39.45880295716435,emt
Fèlix Pizcueta - Ciril Amorós,"[""14"", ""35"", ""6"", ""N1"", ""N9""]",POINT (-0.3725231433337415 39.46603451582368),-0.3725231433337415,39.46603451582368,emt
Misser Mascó - Dr. Rodríguez Fornós,"[""32""]",POINT (-0.3603321840283575 39.47494068802303),-0.3603321840283575,39.47494068802303,emt
Sant Vicent Màrtir - Giorgeta,"[""27"", ""64"", ""N6""]",POINT (-0.3829107631407145 39.45966862714364),-0.3829107631407145,39.45966862714364,emt
Àngel Guimerà - Bon Ordre,"[""67"", ""70"", ""72"", ""93"", ""N4"", ""N5""]",POINT (-0.38810425231932 39.46986121773391),-0.38810425231932,39.46986121773391,emt
Centre de Salut Joan Llorens,"[""73""]",POINT (-0.3918546531177875 39.47380978931697),-0.3918546531177875,39.47380978931697,emt
Joaquín Costa - Regne de València,"[""40""]",POINT (-0.3654836627217052 39.46359827495195),-0.3654836627217052,39.46359827495195,emt
Marqués del Túria - Hernán Cortés,"[""80"", ""92"", ""93""]",POINT (-0.3707661304044155 39.4664433352163),-0.3707661304044155,39.4664433352163,emt
Comte de Salvatierra - Colón,"[""13"", ""40""]",POINT (-0.3690798556147716 39.47108531939112),-0.3690798556147716,39.47108531939112,emt
Cadis - Dénia,"[""7"", ""N7""]",POINT (-0.3748986214330446 39.46361512929926),-0.3748986214330446,39.46361512929926,emt
Poliesportiu Malilla,"[""18""]",POINT (-0.3744655348329015 39.451848425437674),-0.3744655348329015,39.45184842543768,emt
Conca - Alzira,"[""11""]",POINT (-0.3847722782265663 39.468316135186136),-0.3847722782265663,39.468316135186136,emt
Sant Josep de Calassanç - Alberic,"[""67"", ""70"", ""72"", ""93"", ""N4"", ""N5""]",POINT (-0.387617515888724 39.466422819284325),-0.387617515888724,39.466422819284325,emt
Pérez Galdós - Calixt III,"[""67"", ""90"", ""N4""]",POINT (-0.3917635541635505 39.46962157274306),-0.3917635541635504,39.46962157274306,emt
Sants Just i Pastor - Peris Brell,"[""32""]",POINT (-0.3464172777175056 39.46898731947195),-0.3464172777175056,39.46898731947195,emt
Estació d'autobusos,"[""80""]",POINT (-0.3875662738247945 39.48001260014058),-0.3875662738247945,39.48001260014058,emt
Sants Just i Pastor - Serradora,"[""32""]",POINT (-0.3370144553552193 39.46632025807536),-0.3370144553552193,39.46632025807536,emt
Pérez Galdós - Olimpia Arozena Torres,"[""67"", ""89""]",POINT (-0.3924516543019034 39.470061032341185),-0.3924516543019034,39.47006103234119,emt
Primat Reig,"[""11""]",POINT (-0.3678906692872391 39.486993814193085),-0.367890669287239,39.486993814193085,emt
Sant Vicent Màrtir - Espanya,"[""67"", ""70"", ""71"", ""72"", ""N3"", ""N4"", ""N5""]",POINT (-0.3808900773750779 39.466626904347),-0.3808900773750779,39.466626904347,emt
Vivers,"[""70"", ""80""]",POINT (-0.3668734883003739 39.477912433202995),-0.3668734883003739,39.477912433203,emt
Poliesportiu Fta. Sant Lluís,"[""13""]",POINT (-0.3657970193654089 39.452500521724005),-0.3657970193654089,39.452500521724005,emt
Tres Creus - Music Ayllón,"[""70""]",POINT (-0.4056011744765163 39.46696562319045),-0.4056011744765163,39.46696562319045,emt
Hospital General,"[""70"", ""73"", ""95"", ""99"", ""N5""]",POINT (-0.4065624413220466 39.46864328212283),-0.4065624413220466,39.46864328212283,emt
Illes Canàries - Riu Escalona,"[""4"", ""92"", ""N8""]",POINT (-0.3534127384968046 39.4659066166748),-0.3534127384968046,39.4659066166748,emt
Blasco Ibáñez  - José María Haro,"[""31"", ""81"", ""N1""]",POINT (-0.33648578725819 39.47109825338238),-0.3364857872581899,39.47109825338238,emt
Quart - Ferran el Catòlic,"[""73""]",POINT (-0.3893208099488203 39.47493757884592),-0.3893208099488203,39.47493757884592,emt
Aiora - Xiva,"[""72"", ""N5""]",POINT (-0.39197801334356 39.46644768614189),-0.39197801334356,39.46644768614189,emt
Blasco Ibáñez - República Argentina,"[""30"", ""31"", ""71"", ""81"", ""N1""]",POINT (-0.3508922782297367 39.474750989916124),-0.3508922782297367,39.47475098991613,emt
Peris i Valero - Duc de Calàbria,"[""14""]",POINT (-0.3656750591023151 39.461292993584856),-0.365675059102315,39.461292993584856,emt
Malva-rosa - Cavite,"[""19"", ""31"", ""N1""]",POINT (-0.3265657472835957 39.48309931836655),-0.3265657472835956,39.48309931836655,emt
Palau de l'Exposició,"[""32""]",POINT (-0.3620979636551263 39.47361146049102),-0.3620979636551263,39.47361146049102,emt
Mercat de Russafa,"[""14"", ""15"", ""35"", ""6"", ""N9""]",POINT (-0.3704471511233049 39.46173146332032),-0.3704471511233049,39.46173146332032,emt
Blasco Ibáñez - Manuela Estelles,"[""31"", ""N1""]",POINT (-0.3356237427885236 39.469927607373826),-0.3356237427885236,39.46992760737383,emt
Natzaret,"[""30"", ""4""]",POINT (-0.3317760401079249 39.44747024180433),-0.3317760401079249,39.44747024180433,emt
Nou Campanar - Hospital Arnau de Vilanova,"[""67""]",POINT (-0.4043021542697896 39.49009974886632),-0.4043021542697896,39.49009974886632,emt
la Murta  - Assagador la Torre,"[""14"", ""9""]",POINT (-0.3770051300717038 39.42695797603809),-0.3770051300717038,39.42695797603809,emt
Reus - Poeta Fernández Heredia,"[""98""]",POINT (-0.3793852939768122 39.48553616056461),-0.3793852939768122,39.48553616056461,emt
Pintor Maella - Menorca,"[""35""]",POINT (-0.3474645782163345 39.4569674553845),-0.3474645782163345,39.4569674553845,emt
Direcció General de Salut Pública,"[""93"", ""98""]",POINT (-0.3526827094580434 39.48119626881528),-0.3526827094580433,39.48119626881528,emt
Port - Cases Carbonell,"[""30"", ""4"", ""92"", ""N8""]",POINT (-0.3480577235671096 39.46441464056732),-0.3480577235671096,39.46441464056732,emt
Menorca - Eivissa,"[""19"", ""99"", ""N9""]",POINT (-0.3405546021609436 39.46042944050221),-0.3405546021609436,39.46042944050221,emt
Pere II El Cerimonios - Vicente Beltrán Grimalt,"[""35""]",POINT (-0.347192148340816 39.462558899092706),-0.347192148340816,39.46255889909271,emt
Pérez Galdós - Tres Forques,"[""89""]",POINT (-0.3885466409169001 39.46459971296371),-0.3885466409169001,39.46459971296371,emt
Pintor Maella - Vicent Vidal,"[""35""]",POINT (-0.3477846180060451 39.46106539902749),-0.3477846180060451,39.46106539902749,emt
Pintor Maella - Balears,"[""35""]",POINT (-0.3475076729425336 39.46109284329958),-0.3475076729425336,39.46109284329958,emt
Pérez Galdós - Heroi Romeu,"[""90""]",POINT (-0.3901793595960151 39.46739570171268),-0.3901793595960151,39.46739570171268,emt
Ciutat Administrativa 9 d'Octubre,"[""73"", ""95"", ""98"", ""99""]",POINT (-0.4055931856745867 39.47208325795632),-0.4055931856745867,39.47208325795632,emt
Pintor Maella - Illes Canàries,"[""35""]",POINT (-0.346328069987062 39.463474786032265),-0.3463280699870619,39.463474786032265,emt
Port - Trafalgar,"[""30"", ""4"", ""92"", ""N8""]",POINT (-0.3441919620589243 39.46330636258073),-0.3441919620589243,39.46330636258073,emt
Torrefiel,"[""6"", ""60""]",POINT (-0.3771525112521627 39.498528205767464),-0.3771525112521627,39.49852820576746,emt
Eivissa  - Illes Canàries,"[""99"", ""N9""]",POINT (-0.3398665537913346 39.46125244483722),-0.3398665537913346,39.46125244483722,emt
Hospital 9 d'Octubre,"[""67"", ""98"", ""99""]",POINT (-0.4028881788496154 39.47846821234381),-0.4028881788496154,39.47846821234381,emt
Amado Granell Mesado  - Lluís Oliag,"[""35"", ""6"", ""N9""]",POINT (-0.3656987808229436 39.45972789292361),-0.3656987808229435,39.45972789292361,emt
Amado Granell Mesado  - Lluís Oliag,"[""35"", ""N9""]",POINT (-0.3651885839312649 39.45979828929343),-0.3651885839312649,39.45979828929343,emt
Blasco Ibáñez - Mar Tirreno,"[""31""]",POINT (-0.3275985358265318 39.4877585796915),-0.3275985358265318,39.4877585796915,emt
Escultor J. Capuz  - la Plata,"[""13"", ""14"", ""18""]",POINT (-0.3602702697703499 39.45834565084232),-0.3602702697703499,39.45834565084232,emt
Escultor J. Capuz  - la Plata,"[""14"", ""18""]",POINT (-0.3606172965697816 39.45855752749811),-0.3606172965697816,39.45855752749811,emt
Hospital Dr. Peset - Primer de Maig,"[""18""]",POINT (-0.3939532761410799 39.45038127889592),-0.3939532761410799,39.45038127889592,emt
Constitució - Coronel Montesinos,"[""16"", ""N2""]",POINT (-0.3733657791557381 39.49328629957593),-0.3733657791557381,39.49328629957593,emt
Finlàndia - Aragó,"[""32""]",POINT (-0.3587571550721798 39.47149430617416),-0.3587571550721798,39.47149430617416,emt
Giorgeta - Carcaixent,"[""27"", ""89""]",POINT (-0.385453243476481 39.46047106004427),-0.385453243476481,39.46047106004427,emt
Uruguai - Marques de Bellet,"[""10""]",POINT (-0.3868514972967105 39.45567044055931),-0.3868514972967105,39.45567044055931,emt
Estació del Nord - Castelló,"[""15"", ""19"", ""7"", ""N7""]",POINT (-0.3768044017627947 39.466285570394696),-0.3768044017627947,39.466285570394696,emt
Poliesportiu Natzaret - Pont de les Drassanes,"[""30"", ""4"", ""95"", ""N8""]",POINT (-0.3320645640384786 39.451857131525855),-0.3320645640384785,39.451857131525855,emt
Uruguai - Misser Rabassa,"[""10""]",POINT (-0.3870652728562041 39.456923357109),-0.3870652728562041,39.456923357109,emt
Jesús - Sant Francesc de Borja,"[""10"", ""11"", ""27"", ""71"", ""9"", ""N6""]",POINT (-0.3836760299222454 39.46613731845409),-0.3836760299222453,39.46613731845409,emt
Fonteta de Sant Lluís,"[""13"", ""7"", ""N7""]",POINT (-0.3687570774172895 39.44183578640397),-0.3687570774172894,39.44183578640397,emt
Amado Granell Mesado  - Antonio Sacramento,"[""14""]",POINT (-0.360597484882995 39.45262602145227),-0.360597484882995,39.45262602145227,emt
Amado Granell Mesado  - Antonio Sacramento,"[""14""]",POINT (-0.3602443818045523 39.45274143158424),-0.3602443818045522,39.45274143158424,emt
Tres Forques - Pérez Galdós,"[""71""]",POINT (-0.3890693247043982 39.464112133854066),-0.3890693247043981,39.46411213385407,emt
Font de la Figuera - Dr. Waksman,"[""7""]",POINT (-0.372717361508024 39.456583879542784),-0.372717361508024,39.456583879542784,emt
Fonteta Sant Lluís - Dr. Waksman,"[""7""]",POINT (-0.3715842216929207 39.45571452052689),-0.3715842216929206,39.45571452052689,emt
Xàtiva,"[""10"", ""11"", ""28"", ""60"", ""62"", ""67"", ""7"", ""70"", ""71"", ""72"", ""73"", ""9"", ""C1"", ""N4"", ""N5""]",POINT (-0.3780300190989088 39.467883264908636),-0.3780300190989087,39.46788326490864,emt
Moncada - Alfara,"[""26""]",POINT (-0.3877709702266676 39.54278297921955),-0.3877709702266676,39.54278297921955,emt
Institut Lluís Vives,"[""C1"", ""N6""]",POINT (-0.3771005452392651 39.46863048006576),-0.377100545239265,39.46863048006576,emt
Democràcia - Velázquez,"[""73"", ""N4""]",POINT (-0.4004405379418552 39.47343755922188),-0.4004405379418552,39.47343755922188,emt
Plaça de la Reina,"[""C1""]",POINT (-0.3758163668971253 39.47361052631086),-0.3758163668971253,39.47361052631086,emt
Camí nou de Picanya - Arquitecte Segura de Lago,"[""72"", ""73""]",POINT (-0.4040167518559545 39.4563032174732),-0.4040167518559545,39.4563032174732,emt
Tres Creus  - Campos Crespo,"[""99""]",POINT (-0.3991533722362428 39.452784331289166),-0.3991533722362428,39.452784331289166,emt
Arquitecte Segura de Lago - Prof. Àngel Lacalle,"[""72"", ""73"", ""N5""]",POINT (-0.4042784685091552 39.455429618613074),-0.4042784685091551,39.455429618613074,emt
Terramelar,"[""62""]",POINT (-0.4279307015844851 39.50819355102462),-0.4279307015844851,39.50819355102462,emt
Parc Central,"[""90""]",POINT (-0.3764721523610052 39.45790463610097),-0.3764721523610052,39.45790463610097,emt
Ausiàs March - Na Rovella,"[""6""]",POINT (-0.3713292053477846 39.45013783002448),-0.3713292053477846,39.45013783002448,emt
Plaça Amèrica,"[""10"", ""12"", ""24"", ""25"", ""4"", ""94"", ""95"", ""N1"", ""N8""]",POINT (-0.3641376990430476 39.46928963085881),-0.3641376990430475,39.46928963085881,emt
Mercat de Benimàmet,"[""62"", ""N3""]",POINT (-0.4177851200613768 39.49909246592208),-0.4177851200613767,39.49909246592208,emt
Pérez Galdós - Democràcia,"[""67"", ""89""]",POINT (-0.3955983699722911 39.47446296440309),-0.3955983699722911,39.47446296440309,emt
Ausiàs March - Pianista Martínez Carrasco,"[""6""]",POINT (-0.3695808725070024 39.44755351039576),-0.3695808725070024,39.44755351039576,emt
Gaspar Aguilar - Montesa,"[""9"", ""N6""]",POINT (-0.3919985176855021 39.45417091112244),-0.3919985176855021,39.45417091112244,emt
Gaspar Aguilar  - Dr. Tomas Sala,"[""9"", ""N6""]",POINT (-0.3945208022148127 39.450423704699865),-0.3945208022148126,39.450423704699865,emt
Gaspar Aguilar  - Dr.Tomas Sala,"[""9""]",POINT (-0.394329476963075 39.45029128277088),-0.394329476963075,39.45029128277088,emt
Dr. Tomàs Sala - Gaspar Aguilar,"[""9"", ""99"", ""N6""]",POINT (-0.3944724569368059 39.449104067974616),-0.3944724569368059,39.449104067974616,emt
Pius XI - Manuel Simó,"[""11""]",POINT (-0.3921945944583594 39.45976676171187),-0.3921945944583593,39.45976676171187,emt
Camí nou de Picanya - Tres Creus,"[""72"", ""73"", ""N5""]",POINT (-0.4033659197447694 39.45752170203241),-0.4033659197447694,39.45752170203241,emt
Gaspar Aguilar - Costa i Borràs,"[""9""]",POINT (-0.3906088453093768 39.45587125376543),-0.3906088453093768,39.45587125376543,emt
Teatre Principal,"[""31"", ""4"", ""6""]",POINT (-0.3742453703589538 39.47056078545704),-0.3742453703589538,39.47056078545704,emt
Manuel Carboneres - Sant Francesc de Paula,"[""30"", ""4""]",POINT (-0.3305817765481572 39.44621138408278),-0.3305817765481572,39.44621138408278,emt
Ciutat Administrativa 9 d'Octubre,"[""73"", ""95"", ""98"", ""99""]",POINT (-0.4050442099554933 39.470641956274534),-0.4050442099554933,39.47064195627453,emt
Vinalesa,"[""16""]",POINT (-0.3674442140952633 39.533671049329854),-0.3674442140952633,39.533671049329854,emt
Sant Vicent Màrtir - Joaquín Navarro,"[""27"", ""64""]",POINT (-0.3846976938018522 39.4527911504647),-0.3846976938018521,39.4527911504647,emt
Major de Natzaret - Castell de Pop,"[""30"", ""4"", ""95"", ""N8""]",POINT (-0.3346088607125288 39.44853873629484),-0.3346088607125288,39.44853873629484,emt
Major de Natzaret - Vilanova i Piera,"[""30"", ""4"", ""95"", ""N8""]",POINT (-0.3336825474565664 39.45193815237059),-0.3336825474565664,39.45193815237059,emt
La Torre,"[""27"", ""N6""]",POINT (-0.3934715045179921 39.42738425310394),-0.3934715045179921,39.42738425310394,emt
Sant Vicent Màrtir - Almudaina,"[""27"", ""64"", ""N6""]",POINT (-0.3844587554052317 39.45298658944731),-0.3844587554052317,39.45298658944731,emt
Carters - Pl. Santiago Suárez,"[""10"", ""N6""]",POINT (-0.3884176269314534 39.452816897124215),-0.3884176269314534,39.452816897124215,emt
Accés Cementeri,"[""10""]",POINT (-0.3969161178250977 39.4457785923486),-0.3969161178250976,39.4457785923486,emt
Actor Antonio Ferrandis  - Font de St. Lluís,"[""99""]",POINT (-0.367810375901573 39.44687503638482),-0.3678103759015729,39.44687503638482,emt
Actor Antonio Ferrandis  - Font de St. Lluís,"[""99""]",POINT (-0.3675883191031399 39.44642159361956),-0.3675883191031399,39.44642159361956,emt
Fonteta Sant Lluís - Riu Sec,"[""13"", ""7"", ""N7""]",POINT (-0.3671266365977058 39.44627470682367),-0.3671266365977058,39.44627470682367,emt
Gravador Jordán - Alabau i Arce,"[""13"", ""7"", ""N7""]",POINT (-0.3677261475746398 39.44433423747381),-0.3677261475746398,39.44433423747381,emt
Gravador Jordán - Riu Sec,"[""13"", ""7"", ""N7""]",POINT (-0.3669354581419245 39.446361148814496),-0.3669354581419245,39.446361148814496,emt
Petxina - Túria,"[""95""]",POINT (-0.3843030477931854 39.47960717312815),-0.3843030477931853,39.47960717312815,emt
