{
"type": "FeatureCollection",
"crs": { "type": "name", "properties": { "name": "urn:ogc:def:crs:OGC:1.3:CRS84" } },
"features": [
{ "type": "Feature", "properties": { "id": "237118", "name": "Mas del Rosari", "line": "4", "longitude": "-0.435824990305418", "latitude": "39.52495960421599", "type": "metrovalencia", "town": "La Coma - València" }, "geometry": { "type": "Point", "coordinates": [ -0.435824990305418, 39.524959604215987 ] } },
{ "type": "Feature", "properties": { "id": "237200", "name": "La Cova", "line": "9", "longitude": "-0.4844444397042972", "latitude": "39.49888996240954", "type": "metrovalencia", "town": "Manises" }, "geometry": { "type": "Point", "coordinates": [ -0.484444439704297, 39.498889962409542 ] } },
{ "type": "Feature", "properties": { "id": "237215", "name": "Aeroport", "line": "3,5", "longitude": "-0.4749194388141947", "latitude": "39.49236683054559", "type": "metrovalencia", "town": "Manises" }, "geometry": { "type": "Point", "coordinates": [ -0.474919438814195, 39.492366830545592 ] } },
{ "type": "Feature", "properties": { "id": "237216", "name": "Almàssera", "line": "3", "longitude": "-0.3542666730314796", "latitude": "39.51225666184344", "type": "metrovalencia", "town": "Almàssera" }, "geometry": { "type": "Point", "coordinates": [ -0.35426667303148, 39.512256661843445 ] } },
{ "type": "Feature", "properties": { "id": "237142", "name": "Colón", "line": "3,5,7,9", "longitude": "-0.3709277814305924", "latitude": "39.47014621855607", "type": "metrovalencia", "town": "Sant Francesc - València" }, "geometry": { "type": "Point", "coordinates": [ -0.370927781430592, 39.470146218556067 ] } },
{ "type": "Feature", "properties": { "id": "237133", "name": "Ayora", "line": "5,7", "longitude": "-0.3429694478792123", "latitude": "39.46642688895786", "type": "metrovalencia", "town": "Aiora - València" }, "geometry": { "type": "Point", "coordinates": [ -0.342969447879212, 39.466426888957855 ] } },
{ "type": "Feature", "properties": { "id": "237176", "name": "Bétera", "line": "1", "longitude": "-0.4575305577359146", "latitude": "39.5906067291247", "type": "metrovalencia", "town": "Bétera" }, "geometry": { "type": "Point", "coordinates": [ -0.457530557735915, 39.590606729124701 ] } },
{ "type": "Feature", "properties": { "id": "237177", "name": "Torrent Avinguda", "line": "2,7", "longitude": "-0.4728333352276692", "latitude": "39.43181232610215", "type": "metrovalencia", "town": "Torrent" }, "geometry": { "type": "Point", "coordinates": [ -0.472833335227669, 39.431812326102154 ] } },
{ "type": "Feature", "properties": { "id": "237174", "name": "Alberic", "line": "1", "longitude": "-0.5235260124730562", "latitude": "39.11705020984888", "type": "metrovalencia", "town": "Alberic" }, "geometry": { "type": "Point", "coordinates": [ -0.523526012473056, 39.117050209848877 ] } },
{ "type": "Feature", "properties": { "id": "237169", "name": "Carlet", "line": "1", "longitude": "-0.5249416827217579", "latitude": "39.22679905059184", "type": "metrovalencia", "town": "Carlet" }, "geometry": { "type": "Point", "coordinates": [ -0.524941682721758, 39.226799050591843 ] } },
{ "type": "Feature", "properties": { "id": "237160", "name": "Col·legi El Vedat", "line": "1", "longitude": "-0.460652768267218", "latitude": "39.42313388933493", "type": "metrovalencia", "town": "Torrent" }, "geometry": { "type": "Point", "coordinates": [ -0.460652768267218, 39.423133889334935 ] } },
{ "type": "Feature", "properties": { "id": "237242", "name": "Moreres", "line": "10", "longitude": "-0.3384079998144471", "latitude": "39.45015003927551", "type": "metrovalencia", "town": "Moreres - València" }, "geometry": { "type": "Point", "coordinates": [ -0.338407999814447, 39.450150039275506 ] } },
{ "type": "Feature", "properties": { "id": "237139", "name": "Sant Isidre", "line": "1,2,7", "longitude": "-0.4028027651123522", "latitude": "39.45103458536643", "type": "metrovalencia", "town": "Sant Isidre - València" }, "geometry": { "type": "Point", "coordinates": [ -0.402802765112352, 39.451034585366429 ] } },
{ "type": "Feature", "properties": { "id": "237126", "name": "Sant Miquel dels Reis", "line": "1,6", "longitude": "-0.3684949876810832", "latitude": "39.49721912509855", "type": "metrovalencia", "town": "Els Orriols - València" }, "geometry": { "type": "Point", "coordinates": [ -0.368494987681083, 39.497219125098553 ] } },
{ "type": "Feature", "properties": { "id": "237199", "name": "La Presa", "line": "9", "longitude": "-0.5158333181519046", "latitude": "39.51722339745137", "type": "metrovalencia", "town": "Manises" }, "geometry": { "type": "Point", "coordinates": [ -0.515833318151905, 39.517223397451374 ] } },
{ "type": "Feature", "properties": { "id": "237197", "name": "Masia de Traver", "line": "9", "longitude": "-0.546666681316191", "latitude": "39.53805545992607", "type": "metrovalencia", "town": "Riba-roja de Túria" }, "geometry": { "type": "Point", "coordinates": [ -0.546666681316191, 39.538055459926071 ] } },
{ "type": "Feature", "properties": { "id": "237140", "name": "Jesús", "line": "1,2,7", "longitude": "-0.3845416610541635", "latitude": "39.45920185236387", "type": "metrovalencia", "town": "La Raiosa - València" }, "geometry": { "type": "Point", "coordinates": [ -0.384541661054164, 39.459201852363869 ] } },
{ "type": "Feature", "properties": { "id": "237141", "name": "Patraix", "line": "1,2,7", "longitude": "-0.3905083240820051", "latitude": "39.45645145583467", "type": "metrovalencia", "town": "Patraix - València" }, "geometry": { "type": "Point", "coordinates": [ -0.390508324082005, 39.456451455834667 ] } },
{ "type": "Feature", "properties": { "id": "237164", "name": "Omet", "line": "1", "longitude": "-0.4736869934735695", "latitude": "39.35324482140709", "type": "metrovalencia", "town": "Picassent" }, "geometry": { "type": "Point", "coordinates": [ -0.47368699347357, 39.353244821407088 ] } },
{ "type": "Feature", "properties": { "id": "237137", "name": "Paiporta", "line": "1,2,7", "longitude": "-0.4180611073753367", "latitude": "39.43226246036189", "type": "metrovalencia", "town": "Paiporta" }, "geometry": { "type": "Point", "coordinates": [ -0.418061107375337, 39.432262460361891 ] } },
{ "type": "Feature", "properties": { "id": "237150", "name": "Burjassot - Godella", "line": "1", "longitude": "-0.4119972293308535", "latitude": "39.51353077116404", "type": "metrovalencia", "town": "Burjassot" }, "geometry": { "type": "Point", "coordinates": [ -0.411997229330854, 39.513530771164035 ] } },
{ "type": "Feature", "properties": { "id": "237149", "name": "Godella", "line": "1", "longitude": "-0.4144555629587507", "latitude": "39.51950458696169", "type": "metrovalencia", "town": "Godella" }, "geometry": { "type": "Point", "coordinates": [ -0.414455562958751, 39.519504586961688 ] } },
{ "type": "Feature", "properties": { "id": "237157", "name": "Horta Vella", "line": "1", "longitude": "-0.4431444406472527", "latitude": "39.58193210726515", "type": "metrovalencia", "town": "Bétera" }, "geometry": { "type": "Point", "coordinates": [ -0.443144440647253, 39.581932107265153 ] } },
{ "type": "Feature", "properties": { "id": "237123", "name": "Alfauir", "line": "1,6", "longitude": "-0.366032988194516", "latitude": "39.48929981386816", "type": "metrovalencia", "town": "Sant Llorenç - València" }, "geometry": { "type": "Point", "coordinates": [ -0.366032988194516, 39.489299813868165 ] } },
{ "type": "Feature", "properties": { "id": "237115", "name": "Parc Científic", "line": "4", "longitude": "-0.4226219955791658", "latitude": "39.51514057309938", "type": "metrovalencia", "town": "Paterna" }, "geometry": { "type": "Point", "coordinates": [ -0.422621995579166, 39.51514057309938 ] } },
{ "type": "Feature", "properties": { "id": "237116", "name": "Tomás y Valiente", "line": "4", "longitude": "-0.4256361123531358", "latitude": "39.5197716152865", "type": "metrovalencia", "town": "Paterna" }, "geometry": { "type": "Point", "coordinates": [ -0.425636112353136, 39.519771615286501 ] } },
{ "type": "Feature", "properties": { "id": "237232", "name": "Francesc Cubells", "line": "6,8", "longitude": "-0.3339729906818728", "latitude": "39.46324543123338", "type": "metrovalencia", "town": "Grao - València" }, "geometry": { "type": "Point", "coordinates": [ -0.333972990681873, 39.463245431233382 ] } },
{ "type": "Feature", "properties": { "id": "237233", "name": "Grau - La Marina", "line": "6,8", "longitude": "-0.3294720054933793", "latitude": "39.46310047324224", "type": "metrovalencia", "town": "Grao - València" }, "geometry": { "type": "Point", "coordinates": [ -0.329472005493379, 39.463100473242235 ] } },
{ "type": "Feature", "properties": { "id": "237127", "name": "Tossal del Rei", "line": "1,6", "longitude": "-0.3725369875330207", "latitude": "39.49595264605946", "type": "metrovalencia", "town": "Torrefiel - València" }, "geometry": { "type": "Point", "coordinates": [ -0.372536987533021, 39.495952646059457 ] } },
{ "type": "Feature", "properties": { "id": "237209", "name": "Av. del Cid", "line": "3,5,9", "longitude": "-0.3975749912937578", "latitude": "39.46821979621166", "type": "metrovalencia", "town": "València" }, "geometry": { "type": "Point", "coordinates": [ -0.397574991293758, 39.468219796211656 ] } },
{ "type": "Feature", "properties": { "id": "237195", "name": "Llíria", "line": "2", "longitude": "-0.5902777912103784", "latitude": "39.62284092097164", "type": "metrovalencia", "town": "Llíria" }, "geometry": { "type": "Point", "coordinates": [ -0.590277791210378, 39.62284092097164 ] } },
{ "type": "Feature", "properties": { "id": "237155", "name": "Àngel Guimerà", "line": "1,2,3,5,9", "longitude": "-0.3850361106717916", "latitude": "39.4703026212431", "type": "metrovalencia", "town": "Arrancapins - València" }, "geometry": { "type": "Point", "coordinates": [ -0.385036110671792, 39.4703026212431 ] } },
{ "type": "Feature", "properties": { "id": "237181", "name": "Campament", "line": "2", "longitude": "-0.4353230003048909", "latitude": "39.4958458342054", "type": "metrovalencia", "town": "Paterna" }, "geometry": { "type": "Point", "coordinates": [ -0.435323000304891, 39.495845834205404 ] } },
{ "type": "Feature", "properties": { "id": "237134", "name": "Picanya", "line": "1,2,7", "longitude": "-0.4371583466428395", "latitude": "39.43312076720112", "type": "metrovalencia", "town": "Picanya" }, "geometry": { "type": "Point", "coordinates": [ -0.43715834664284, 39.433120767201117 ] } },
{ "type": "Feature", "properties": { "id": "237219", "name": "Albalat dels Sorells", "line": "3", "longitude": "-0.3482888941423446", "latitude": "39.54526523737024", "type": "metrovalencia", "town": "Albalat dels Sorells" }, "geometry": { "type": "Point", "coordinates": [ -0.348288894142345, 39.545265237370238 ] } },
{ "type": "Feature", "properties": { "id": "237102", "name": "Reus", "line": "4", "longitude": "-0.3817070127981355", "latitude": "39.4859657684198", "type": "metrovalencia", "town": "Marxalenes - València" }, "geometry": { "type": "Point", "coordinates": [ -0.381707012798136, 39.485965768419803 ] } },
{ "type": "Feature", "properties": { "id": "237104", "name": "Trànsits", "line": "4", "longitude": "-0.3872583214747722", "latitude": "39.4895630282213", "type": "metrovalencia", "town": "Benicalap - València" }, "geometry": { "type": "Point", "coordinates": [ -0.387258321474772, 39.489563028221298 ] } },
{ "type": "Feature", "properties": { "id": "237105", "name": "Benicalap", "line": "4", "longitude": "-0.3909277913244515", "latitude": "39.49002842050058", "type": "metrovalencia", "town": "Benicalap - València" }, "geometry": { "type": "Point", "coordinates": [ -0.390927791324452, 39.490028420500579 ] } },
{ "type": "Feature", "properties": { "id": "237095", "name": "La Carrasca", "line": "1,4,6", "longitude": "-0.3448249995342744", "latitude": "39.47966007404467", "type": "metrovalencia", "town": "La Carrasca - València" }, "geometry": { "type": "Point", "coordinates": [ -0.344824999534274, 39.479660074044666 ] } },
{ "type": "Feature", "properties": { "id": "237129", "name": "Dr. Lluch", "line": "4,6", "longitude": "-0.3281527763083297", "latitude": "39.46930698572537", "type": "metrovalencia", "town": "Cabanyal-Canyamelar - València" }, "geometry": { "type": "Point", "coordinates": [ -0.32815277630833, 39.469306985725368 ] } },
{ "type": "Feature", "properties": { "id": "237096", "name": "Universitat Politècnica", "line": "1,4,6", "longitude": "-0.3504999876195505", "latitude": "39.48131565217615", "type": "metrovalencia", "town": "La Carrasca - València" }, "geometry": { "type": "Point", "coordinates": [ -0.350499987619551, 39.48131565217615 ] } },
{ "type": "Feature", "properties": { "id": "237214", "name": "Alboraia Peris Aragó", "line": "3,9", "longitude": "-0.3523277634823597", "latitude": "39.50076297918577", "type": "metrovalencia", "town": "Alboraia" }, "geometry": { "type": "Point", "coordinates": [ -0.35232776348236, 39.500762979185772 ] } },
{ "type": "Feature", "properties": { "id": "237193", "name": "Fondo de Benaguasil", "line": "2", "longitude": "-0.5780805350632693", "latitude": "39.59272388566321", "type": "metrovalencia", "town": "Benaguasil" }, "geometry": { "type": "Point", "coordinates": [ -0.578080535063269, 39.592723885663212 ] } },
{ "type": "Feature", "properties": { "id": "237191", "name": "Gallipont - Torre del Virrei", "line": "2", "longitude": "-0.5419166688737088", "latitude": "39.56866459072798", "type": "metrovalencia", "town": "L'Eliana" }, "geometry": { "type": "Point", "coordinates": [ -0.541916668873709, 39.568664590727977 ] } },
{ "type": "Feature", "properties": { "id": "237184", "name": "Fuente del Jarro", "line": "2", "longitude": "-0.4645166693571574", "latitude": "39.5111732875743", "type": "metrovalencia", "town": "Paterna" }, "geometry": { "type": "Point", "coordinates": [ -0.464516669357157, 39.511173287574302 ] } },
{ "type": "Feature", "properties": { "id": "237171", "name": "L'Alcúdia", "line": "1", "longitude": "-0.5102638606951693", "latitude": "39.19381336356977", "type": "metrovalencia", "town": "L'Alcúdia" }, "geometry": { "type": "Point", "coordinates": [ -0.510263860695169, 39.193813363569774 ] } },
{ "type": "Feature", "properties": { "id": "237162", "name": "Sant Ramon", "line": "1", "longitude": "-0.4672611054062144", "latitude": "39.38486484624794", "type": "metrovalencia", "town": "Picassent" }, "geometry": { "type": "Point", "coordinates": [ -0.467261105406214, 39.384864846247936 ] } },
{ "type": "Feature", "properties": { "id": "237106", "name": "Garbí", "line": "4", "longitude": "-0.3945111033066965", "latitude": "39.4922905363387", "type": "metrovalencia", "town": "Benicalap - València" }, "geometry": { "type": "Point", "coordinates": [ -0.394511103306696, 39.4922905363387 ] } },
{ "type": "Feature", "properties": { "id": "237107", "name": "Florista", "line": "4", "longitude": "-0.3968166705262069", "latitude": "39.49443439623788", "type": "metrovalencia", "town": "Benicalap - València" }, "geometry": { "type": "Point", "coordinates": [ -0.396816670526207, 39.494434396237878 ] } },
{ "type": "Feature", "properties": { "id": "237235", "name": "Neptú", "line": "8", "longitude": "-0.3258508438284417", "latitude": "39.46325306028758", "type": "metrovalencia", "town": "Grao - València" }, "geometry": { "type": "Point", "coordinates": [ -0.325850843828442, 39.463253060287585 ] } },
{ "type": "Feature", "properties": { "id": "237212", "name": "Machado", "line": "3,5,7,9", "longitude": "-0.3587944504398191", "latitude": "39.49243168035884", "type": "metrovalencia", "town": "Benimaclet - València" }, "geometry": { "type": "Point", "coordinates": [ -0.358794450439819, 39.492431680358841 ] } },
{ "type": "Feature", "properties": { "id": "237201", "name": "Roses", "line": "3,5,9", "longitude": "-0.4672361011828295", "latitude": "39.49264911773043", "type": "metrovalencia", "town": "Manises" }, "geometry": { "type": "Point", "coordinates": [ -0.46723610118283, 39.49264911773043 ] } },
{ "type": "Feature", "properties": { "id": "237131", "name": "Amistat", "line": "5,7", "longitude": "-0.3503944579110447", "latitude": "39.47033313859402", "type": "metrovalencia", "town": "Amistat - València" }, "geometry": { "type": "Point", "coordinates": [ -0.350394457911045, 39.470333138594022 ] } },
{ "type": "Feature", "properties": { "id": "237132", "name": "Aragó", "line": "5,7", "longitude": "-0.3581166561927953", "latitude": "39.47262577229274", "type": "metrovalencia", "town": "Mestalla - València" }, "geometry": { "type": "Point", "coordinates": [ -0.358116656192795, 39.472625772292737 ] } },
{ "type": "Feature", "properties": { "id": "237175", "name": "Castelló", "line": "1", "longitude": "-0.5160138604081964", "latitude": "39.08400730254416", "type": "metrovalencia", "town": "Castelló de la Ribera" }, "geometry": { "type": "Point", "coordinates": [ -0.516013860408196, 39.084007302544158 ] } },
{ "type": "Feature", "properties": { "id": "237167", "name": "Alginet", "line": "1", "longitude": "-0.4748859996779908", "latitude": "39.26293949225646", "type": "metrovalencia", "town": "Alginet" }, "geometry": { "type": "Point", "coordinates": [ -0.474885999677991, 39.262939492256457 ] } },
{ "type": "Feature", "properties": { "id": "237238", "name": "Quatre Carreres", "line": "10", "longitude": "-0.3601250002310422", "latitude": "39.45244703954607", "type": "metrovalencia", "town": "La Fonteta de Sant Lluís - València" }, "geometry": { "type": "Point", "coordinates": [ -0.360125000231042, 39.452447039546065 ] } },
{ "type": "Feature", "properties": { "id": "237243", "name": "Oceanogràfic", "line": "10", "longitude": "-0.3473420005329418", "latitude": "39.4520380392216", "type": "metrovalencia", "town": "Ciutat de les Arts i les Ciències - València" }, "geometry": { "type": "Point", "coordinates": [ -0.347342000532942, 39.452038039221598 ] } },
{ "type": "Feature", "properties": { "id": "237108", "name": "Palau de Congressos", "line": "4", "longitude": "-0.4001416565499959", "latitude": "39.49718097783796", "type": "metrovalencia", "town": "Benicalap - València" }, "geometry": { "type": "Point", "coordinates": [ -0.400141656549996, 39.497180977837964 ] } },
{ "type": "Feature", "properties": { "id": "237112", "name": "Campus", "line": "4", "longitude": "-0.4174583255801421", "latitude": "39.5072212611679", "type": "metrovalencia", "town": "Burjassot" }, "geometry": { "type": "Point", "coordinates": [ -0.417458325580142, 39.507221261167899 ] } },
{ "type": "Feature", "properties": { "id": "237187", "name": "Entrepins", "line": "2", "longitude": "-0.5139539842919837", "latitude": "39.54333500081282", "type": "metrovalencia", "town": "L'Eliana" }, "geometry": { "type": "Point", "coordinates": [ -0.513953984291984, 39.543335000812817 ] } },
{ "type": "Feature", "properties": { "id": "237151", "name": "Burjassot", "line": "1", "longitude": "-0.4067361054400869", "latitude": "39.50841526165429", "type": "metrovalencia", "town": "Burjassot" }, "geometry": { "type": "Point", "coordinates": [ -0.406736105440087, 39.508415261654285 ] } },
{ "type": "Feature", "properties": { "id": "237207", "name": "Mislata", "line": "3,5,9", "longitude": "-0.4183055461360697", "latitude": "39.47382358716818", "type": "metrovalencia", "town": "Mislata" }, "geometry": { "type": "Point", "coordinates": [ -0.41830554613607, 39.473823587168184 ] } },
{ "type": "Feature", "properties": { "id": "237154", "name": "Túria", "line": "1,2", "longitude": "-0.391205548747755", "latitude": "39.47886661649007", "type": "metrovalencia", "town": "Campanar - València" }, "geometry": { "type": "Point", "coordinates": [ -0.391205548747755, 39.478866616490073 ] } },
{ "type": "Feature", "properties": { "id": "237186", "name": "La Vallesa", "line": "2", "longitude": "-0.4979777639374245", "latitude": "39.53784183692217", "type": "metrovalencia", "town": "Paterna" }, "geometry": { "type": "Point", "coordinates": [ -0.497977763937424, 39.537841836922169 ] } },
{ "type": "Feature", "properties": { "id": "237172", "name": "Montortal", "line": "1", "longitude": "-0.5158861281369649", "latitude": "39.17379764708401", "type": "metrovalencia", "town": "L'Alcúdia" }, "geometry": { "type": "Point", "coordinates": [ -0.515886128136965, 39.173797647084008 ] } },
{ "type": "Feature", "properties": { "id": "237148", "name": "Rocafort", "line": "1", "longitude": "-0.4075777828732151", "latitude": "39.52870945118481", "type": "metrovalencia", "town": "Rocafort" }, "geometry": { "type": "Point", "coordinates": [ -0.407577782873215, 39.52870945118481 ] } },
{ "type": "Feature", "properties": { "id": "237146", "name": "Moncada - Alfara", "line": "1", "longitude": "-0.3884611127603637", "latitude": "39.54352955038101", "type": "metrovalencia", "town": "Moncada" }, "geometry": { "type": "Point", "coordinates": [ -0.388461112760364, 39.54352955038101 ] } },
{ "type": "Feature", "properties": { "id": "237158", "name": "Masies", "line": "1", "longitude": "-0.4053777748647457", "latitude": "39.56658176543203", "type": "metrovalencia", "town": "Moncada" }, "geometry": { "type": "Point", "coordinates": [ -0.405377774864746, 39.566581765432026 ] } },
{ "type": "Feature", "properties": { "id": "237240", "name": "Russafa", "line": "10", "longitude": "-0.3695310001644055", "latitude": "39.46391303921369", "type": "metrovalencia", "town": "Russafa - València" }, "geometry": { "type": "Point", "coordinates": [ -0.369531000164406, 39.463913039213693 ] } },
{ "type": "Feature", "properties": { "id": "237124", "name": "Orriols", "line": "1,6", "longitude": "-0.367663622109971", "latitude": "39.49314884351592", "type": "metrovalencia", "town": "Els Orriols - València" }, "geometry": { "type": "Point", "coordinates": [ -0.367663622109971, 39.493148843515918 ] } },
{ "type": "Feature", "properties": { "id": "237100", "name": "Pont de Fusta", "line": "4", "longitude": "-0.3731805686023085", "latitude": "39.4817810454178", "type": "metrovalencia", "town": "Morvedre - València" }, "geometry": { "type": "Point", "coordinates": [ -0.373180568602308, 39.481781045417804 ] } },
{ "type": "Feature", "properties": { "id": "237113", "name": "Vicent Andrés Estellés", "line": "4", "longitude": "-0.4198839965021366", "latitude": "39.50856022050974", "type": "metrovalencia", "town": "Burjassot" }, "geometry": { "type": "Point", "coordinates": [ -0.419883996502137, 39.508560220509743 ] } },
{ "type": "Feature", "properties": { "id": "237114", "name": "À Punt", "line": "4", "longitude": "-0.4247489864954702", "latitude": "39.51220325625923", "type": "metrovalencia", "town": "Burjassot" }, "geometry": { "type": "Point", "coordinates": [ -0.42474898649547, 39.512203256259227 ] } },
{ "type": "Feature", "properties": { "id": "237117", "name": "La Coma", "line": "4", "longitude": "-0.4317069942770743", "latitude": "39.52157215224739", "type": "metrovalencia", "town": "Paterna" }, "geometry": { "type": "Point", "coordinates": [ -0.431706994277074, 39.521572152247394 ] } },
{ "type": "Feature", "properties": { "id": "237125", "name": "Estadi Ciutat de València", "line": "1,6", "longitude": "-0.3655419949094195", "latitude": "39.49491886301828", "type": "metrovalencia", "town": "Orriols - València" }, "geometry": { "type": "Point", "coordinates": [ -0.365541994909419, 39.494918863018285 ] } },
{ "type": "Feature", "properties": { "id": "237210", "name": "Xàtiva", "line": "3,5,9", "longitude": "-0.377375006091083", "latitude": "39.46718601400712", "type": "metrovalencia", "town": "Sant Francesc - València" }, "geometry": { "type": "Point", "coordinates": [ -0.377375006091083, 39.467186014007119 ] } },
{ "type": "Feature", "properties": { "id": "237204", "name": "Quart de Poblet", "line": "3,5,9", "longitude": "-0.4418805541345874", "latitude": "39.48108677099763", "type": "metrovalencia", "town": "Quart de Poblet" }, "geometry": { "type": "Point", "coordinates": [ -0.441880554134587, 39.481086770997628 ] } },
{ "type": "Feature", "properties": { "id": "237217", "name": "Meliana", "line": "3", "longitude": "-0.3518194551700547", "latitude": "39.52803043467392", "type": "metrovalencia", "town": "Meliana" }, "geometry": { "type": "Point", "coordinates": [ -0.351819455170055, 39.528030434673923 ] } },
{ "type": "Feature", "properties": { "id": "237218", "name": "Foios", "line": "3", "longitude": "-0.3538694381672806", "latitude": "39.5372238557589", "type": "metrovalencia", "town": "Foios" }, "geometry": { "type": "Point", "coordinates": [ -0.353869438167281, 39.537223855758896 ] } },
{ "type": "Feature", "properties": { "id": "237180", "name": "Les Carolines - Fira", "line": "2", "longitude": "-0.4254194497239249", "latitude": "39.49873737508498", "type": "metrovalencia", "town": "Benimàmet - València" }, "geometry": { "type": "Point", "coordinates": [ -0.425419449723925, 39.498737375084978 ] } },
{ "type": "Feature", "properties": { "id": "237234", "name": "Canyamelar", "line": "6,8", "longitude": "-0.3279320004180729", "latitude": "39.46652225619434", "type": "metrovalencia", "town": "Cabanyal-Canyamelar - València" }, "geometry": { "type": "Point", "coordinates": [ -0.327932000418073, 39.466522256194338 ] } },
{ "type": "Feature", "properties": { "id": "237166", "name": "Font Almaguer", "line": "1", "longitude": "-0.4640861159260068", "latitude": "39.28940586212585", "type": "metrovalencia", "town": "Benifaió" }, "geometry": { "type": "Point", "coordinates": [ -0.464086115926007, 39.289405862125854 ] } },
{ "type": "Feature", "properties": { "id": "237101", "name": "Sagunt", "line": "4", "longitude": "-0.3749722238203376", "latitude": "39.48649982590189", "type": "metrovalencia", "town": "València" }, "geometry": { "type": "Point", "coordinates": [ -0.374972223820338, 39.486499825901895 ] } },
{ "type": "Feature", "properties": { "id": "237153", "name": "Campanar", "line": "1,2", "longitude": "-0.3950361010065258", "latitude": "39.48463062443623", "type": "metrovalencia", "town": "Campanar - València" }, "geometry": { "type": "Point", "coordinates": [ -0.395036101006526, 39.484630624436228 ] } },
{ "type": "Feature", "properties": { "id": "237221", "name": "Massamagrell", "line": "3", "longitude": "-0.333033323500629", "latitude": "39.57056049493916", "type": "metrovalencia", "town": "Massamagrell" }, "geometry": { "type": "Point", "coordinates": [ -0.333033323500629, 39.570560494939159 ] } },
{ "type": "Feature", "properties": { "id": "237147", "name": "Massarrojos", "line": "1", "longitude": "-0.4028777781285831", "latitude": "39.53660968895581", "type": "metrovalencia", "town": "Massarrojos" }, "geometry": { "type": "Point", "coordinates": [ -0.402877778128583, 39.536609688955807 ] } },
{ "type": "Feature", "properties": { "id": "237222", "name": "La Pobla de Farnals", "line": "3", "longitude": "-0.3304361109078244", "latitude": "39.57941822166075", "type": "metrovalencia", "town": "La Pobla de Farnals" }, "geometry": { "type": "Point", "coordinates": [ -0.330436110907824, 39.579418221660752 ] } },
{ "type": "Feature", "properties": { "id": "237211", "name": "Facultats - Manuel Broseta", "line": "3,5,7,9", "longitude": "-0.3619055444301701", "latitude": "39.47800449481189", "type": "metrovalencia", "town": "Exposició - València" }, "geometry": { "type": "Point", "coordinates": [ -0.36190554443017, 39.478004494811891 ] } },
{ "type": "Feature", "properties": { "id": "237188", "name": "El Clot", "line": "2", "longitude": "-0.5279861091158305", "latitude": "39.54986576262979", "type": "metrovalencia", "town": "L'Eliana" }, "geometry": { "type": "Point", "coordinates": [ -0.527986109115831, 39.549865762629793 ] } },
{ "type": "Feature", "properties": { "id": "237138", "name": "Safranar", "line": "1,2,7", "longitude": "-0.3983833189002929", "latitude": "39.45457080974115", "type": "metrovalencia", "town": "Patraix - València" }, "geometry": { "type": "Point", "coordinates": [ -0.398383318900293, 39.454570809741149 ] } },
{ "type": "Feature", "properties": { "id": "237119", "name": "Ll. Llarga - Terramelar", "line": "4", "longitude": "-0.4304472209592373", "latitude": "39.50989917913695", "type": "metrovalencia", "town": "Paterna" }, "geometry": { "type": "Point", "coordinates": [ -0.430447220959237, 39.509899179136951 ] } },
{ "type": "Feature", "properties": { "id": "237203", "name": "Salt de l'Aigua", "line": "3,5,9", "longitude": "-0.4505681992431328", "latitude": "39.4848328033487", "type": "metrovalencia", "town": "Manises" }, "geometry": { "type": "Point", "coordinates": [ -0.450568199243133, 39.484832803348702 ] } },
{ "type": "Feature", "properties": { "id": "237143", "name": "Bailén", "line": "7", "longitude": "-0.3794222170303012", "latitude": "39.46397785356616", "type": "metrovalencia", "town": "La Roqueta - València" }, "geometry": { "type": "Point", "coordinates": [ -0.379422217030301, 39.463977853566156 ] } },
{ "type": "Feature", "properties": { "id": "237223", "name": "Rafelbunyol", "line": "3", "longitude": "-0.3310583234452487", "latitude": "39.58852390451644", "type": "metrovalencia", "town": "Rafelbunyol" }, "geometry": { "type": "Point", "coordinates": [ -0.331058323445249, 39.588523904516435 ] } },
{ "type": "Feature", "properties": { "id": "237244", "name": "Alacant", "line": "10", "longitude": "-0.3774770005122519", "latitude": "39.46472103939357", "type": "metrovalencia", "town": "Russafa - València" }, "geometry": { "type": "Point", "coordinates": [ -0.377477000512252, 39.464721039393567 ] } },
{ "type": "Feature", "properties": { "id": "237205", "name": "Faitanar", "line": "3,5,9", "longitude": "-0.4331833418083209", "latitude": "39.47761921077863", "type": "metrovalencia", "town": "Quart de Poblet" }, "geometry": { "type": "Point", "coordinates": [ -0.433183341808321, 39.477619210778627 ] } },
{ "type": "Feature", "properties": { "id": "237190", "name": "L'Eliana", "line": "2", "longitude": "-0.5359194284163187", "latitude": "39.56183246782633", "type": "metrovalencia", "town": "L'Eliana" }, "geometry": { "type": "Point", "coordinates": [ -0.535919428416319, 39.561832467826335 ] } },
{ "type": "Feature", "properties": { "id": "237196", "name": "Riba-roja de Túria", "line": "9", "longitude": "-0.5594444275774598", "latitude": "39.54333500017424", "type": "metrovalencia", "town": "Riba-roja de Túria" }, "geometry": { "type": "Point", "coordinates": [ -0.55944442757746, 39.543335000174238 ] } },
{ "type": "Feature", "properties": { "id": "237189", "name": "Montesol", "line": "2", "longitude": "-0.5316972140071671", "latitude": "39.55557254933344", "type": "metrovalencia", "town": "L'Eliana" }, "geometry": { "type": "Point", "coordinates": [ -0.531697214007167, 39.555572549333441 ] } },
{ "type": "Feature", "properties": { "id": "237163", "name": "Picassent", "line": "1", "longitude": "-0.464858323278585", "latitude": "39.36303714856912", "type": "metrovalencia", "town": "Picassent" }, "geometry": { "type": "Point", "coordinates": [ -0.464858323278585, 39.36303714856912 ] } },
{ "type": "Feature", "properties": { "id": "237135", "name": "Torrent", "line": "1,2,7", "longitude": "-0.4609861070856414", "latitude": "39.43464664606486", "type": "metrovalencia", "town": "Torrent" }, "geometry": { "type": "Point", "coordinates": [ -0.460986107085641, 39.434646646064856 ] } },
{ "type": "Feature", "properties": { "id": "237237", "name": "Ciutat Arts i Ciències - Justícia", "line": "10", "longitude": "-0.3532159997794547", "latitude": "39.45259203991893", "type": "metrovalencia", "town": "Ciutat de les Arts i les Ciències - València" }, "geometry": { "type": "Point", "coordinates": [ -0.353215999779455, 39.452592039918933 ] } },
{ "type": "Feature", "properties": { "id": "237241", "name": "Natzaret", "line": "10", "longitude": "-0.3346740002450643", "latitude": "39.44988903943966", "type": "metrovalencia", "town": "Natzaret - València" }, "geometry": { "type": "Point", "coordinates": [ -0.334674000245064, 39.449889039439661 ] } },
{ "type": "Feature", "properties": { "id": "237110", "name": "La Granja", "line": "4", "longitude": "-0.4124779998061252", "latitude": "39.50403217479327", "type": "metrovalencia", "town": "Burjassot" }, "geometry": { "type": "Point", "coordinates": [ -0.412477999806125, 39.504032174793267 ] } },
{ "type": "Feature", "properties": { "id": "237111", "name": "Sant Joan", "line": "4", "longitude": "-0.416323989122466", "latitude": "39.50529102481966", "type": "metrovalencia", "town": "Burjassot" }, "geometry": { "type": "Point", "coordinates": [ -0.416323989122466, 39.505291024819662 ] } },
{ "type": "Feature", "properties": { "id": "237220", "name": "Museros", "line": "3", "longitude": "-0.3408555689097638", "latitude": "39.56157688255019", "type": "metrovalencia", "town": "Museros" }, "geometry": { "type": "Point", "coordinates": [ -0.340855568909764, 39.561576882550192 ] } },
{ "type": "Feature", "properties": { "id": "237213", "name": "Alboraia Palmaret", "line": "3,9", "longitude": "-0.3552222251891727", "latitude": "39.49566272842113", "type": "metrovalencia", "town": "Alboraia" }, "geometry": { "type": "Point", "coordinates": [ -0.355222225189173, 39.495662728421131 ] } },
{ "type": "Feature", "properties": { "id": "237198", "name": "València la Vella", "line": "9", "longitude": "-0.5342069862551926", "latitude": "39.53048328537938", "type": "metrovalencia", "town": "Riba-roja de Túria" }, "geometry": { "type": "Point", "coordinates": [ -0.534206986255193, 39.530483285379376 ] } },
{ "type": "Feature", "properties": { "id": "237136", "name": "València Sud", "line": "1,2,7", "longitude": "-0.4106472133564586", "latitude": "39.44081119634306", "type": "metrovalencia", "town": "Faitanar - València" }, "geometry": { "type": "Point", "coordinates": [ -0.410647213356459, 39.440811196343056 ] } },
{ "type": "Feature", "properties": { "id": "237152", "name": "Beniferri", "line": "1,2", "longitude": "-0.3993369340966121", "latitude": "39.49103168614693", "type": "metrovalencia", "town": "Benicalap - València" }, "geometry": { "type": "Point", "coordinates": [ -0.399336934096612, 39.491031686146925 ] } },
{ "type": "Feature", "properties": { "id": "237156", "name": "Pl. Espanya", "line": "1,2", "longitude": "-0.3816333410088131", "latitude": "39.46620182210224", "type": "metrovalencia", "town": "La Roqueta - València" }, "geometry": { "type": "Point", "coordinates": [ -0.381633341008813, 39.466201822102235 ] } },
{ "type": "Feature", "properties": { "id": "237170", "name": "Benimodo", "line": "1", "longitude": "-0.5196194643809373", "latitude": "39.21629337411807", "type": "metrovalencia", "town": "Benimodo" }, "geometry": { "type": "Point", "coordinates": [ -0.519619464380937, 39.216293374118074 ] } },
{ "type": "Feature", "properties": { "id": "237168", "name": "Ausiàs March", "line": "1", "longitude": "-0.491977215041994", "latitude": "39.24955753451306", "type": "metrovalencia", "town": "Carlet" }, "geometry": { "type": "Point", "coordinates": [ -0.491977215041994, 39.249557534513059 ] } },
{ "type": "Feature", "properties": { "id": "237165", "name": "Espioca", "line": "1", "longitude": "-0.4667472240898878", "latitude": "39.32188419454312", "type": "metrovalencia", "town": "Picassent" }, "geometry": { "type": "Point", "coordinates": [ -0.466747224089888, 39.321884194543124 ] } },
{ "type": "Feature", "properties": { "id": "237159", "name": "Seminari - CEU", "line": "1", "longitude": "-0.3897444302876586", "latitude": "39.5499878326498", "type": "metrovalencia", "town": "Moncada" }, "geometry": { "type": "Point", "coordinates": [ -0.389744430287659, 39.549987832649798 ] } },
{ "type": "Feature", "properties": { "id": "237239", "name": "Amado Granell - Montolivet", "line": "10", "longitude": "-0.365110000429508", "latitude": "39.45937303938424", "type": "metrovalencia", "town": "Montolivet - València" }, "geometry": { "type": "Point", "coordinates": [ -0.365110000429508, 39.459373039384239 ] } },
{ "type": "Feature", "properties": { "id": "237094", "name": "Tarongers - Ernest Lluch", "line": "1,4,6", "longitude": "-0.3396222295867719", "latitude": "39.47813800932393", "type": "metrovalencia", "town": "La Carrasca - València" }, "geometry": { "type": "Point", "coordinates": [ -0.339622229586772, 39.478138009323928 ] } },
{ "type": "Feature", "properties": { "id": "237206", "name": "Mislata Almassil", "line": "3,5,9", "longitude": "-0.4243694542402148", "latitude": "39.47600940862436", "type": "metrovalencia", "town": "Mislata" }, "geometry": { "type": "Point", "coordinates": [ -0.424369454240215, 39.476009408624357 ] } },
{ "type": "Feature", "properties": { "id": "237128", "name": "Cabanyal", "line": "4,6", "longitude": "-0.3275833432474662", "latitude": "39.47285465383452", "type": "metrovalencia", "town": "Cabanyal - València" }, "geometry": { "type": "Point", "coordinates": [ -0.327583343247466, 39.472854653834517 ] } },
{ "type": "Feature", "properties": { "id": "237208", "name": "Nou d'Octubre", "line": "3,5,9", "longitude": "-0.4076305632336302", "latitude": "39.47065738808727", "type": "metrovalencia", "town": "Soternes - València" }, "geometry": { "type": "Point", "coordinates": [ -0.40763056323363, 39.470657388087268 ] } },
{ "type": "Feature", "properties": { "id": "237144", "name": "Alameda", "line": "3,5,7,9", "longitude": "-0.3653166591372722", "latitude": "39.47315601519005", "type": "metrovalencia", "town": "La Xerea - València" }, "geometry": { "type": "Point", "coordinates": [ -0.365316659137272, 39.47315601519005 ] } },
{ "type": "Feature", "properties": { "id": "237202", "name": "Manises", "line": "3,5,9", "longitude": "-0.4590654377018195", "latitude": "39.48958973107335", "type": "metrovalencia", "town": "Manises" }, "geometry": { "type": "Point", "coordinates": [ -0.459065437701819, 39.489589731073352 ] } },
{ "type": "Feature", "properties": { "id": "237182", "name": "Paterna", "line": "2", "longitude": "-0.4419719871267472", "latitude": "39.49880985401933", "type": "metrovalencia", "town": "Paterna" }, "geometry": { "type": "Point", "coordinates": [ -0.441971987126747, 39.498809854019328 ] } },
{ "type": "Feature", "properties": { "id": "237130", "name": "Marítim", "line": "5,6,7,8", "longitude": "-0.3382369870182364", "latitude": "39.46493915696556", "type": "metrovalencia", "town": "Aiora - València" }, "geometry": { "type": "Point", "coordinates": [ -0.338236987018236, 39.464939156965563 ] } },
{ "type": "Feature", "properties": { "id": "237179", "name": "Benimàmet", "line": "2", "longitude": "-0.4194111232567788", "latitude": "39.50187687050769", "type": "metrovalencia", "town": "Benimàmet - València" }, "geometry": { "type": "Point", "coordinates": [ -0.419411123256779, 39.501876870507694 ] } },
{ "type": "Feature", "properties": { "id": "237178", "name": "Cantereria", "line": "2", "longitude": "-0.4120722112951377", "latitude": "39.50238041102936", "type": "metrovalencia", "town": "Burjassot" }, "geometry": { "type": "Point", "coordinates": [ -0.412072211295138, 39.502380411029357 ] } },
{ "type": "Feature", "properties": { "id": "237194", "name": "Benaguasil", "line": "2", "longitude": "-0.5839277509085257", "latitude": "39.59888080768081", "type": "metrovalencia", "town": "Benaguasil" }, "geometry": { "type": "Point", "coordinates": [ -0.583927750908526, 39.598880807680814 ] } },
{ "type": "Feature", "properties": { "id": "237161", "name": "Realón", "line": "1", "longitude": "-0.4640137851031758", "latitude": "39.39390567874968", "type": "metrovalencia", "town": "Picassent" }, "geometry": { "type": "Point", "coordinates": [ -0.464013785103176, 39.393905678749682 ] } },
{ "type": "Feature", "properties": { "id": "237093", "name": "Beteró", "line": "1,4,6", "longitude": "-0.3342027661976934", "latitude": "39.47659305743498", "type": "metrovalencia", "town": "La Carrasca - València" }, "geometry": { "type": "Point", "coordinates": [ -0.334202766197693, 39.476593057434982 ] } },
{ "type": "Feature", "properties": { "id": "237103", "name": "Marxalenes", "line": "4", "longitude": "-0.3838368950525468", "latitude": "39.48797229915813", "type": "metrovalencia", "town": "Marxalenes - València" }, "geometry": { "type": "Point", "coordinates": [ -0.383836895052547, 39.48797229915813 ] } },
{ "type": "Feature", "properties": { "id": "237097", "name": "Vicente Zaragozá", "line": "1,4,6", "longitude": "-0.3579472307358761", "latitude": "39.4833717743908", "type": "metrovalencia", "town": "Ciutat Universitària - València" }, "geometry": { "type": "Point", "coordinates": [ -0.357947230735876, 39.483371774390797 ] } },
{ "type": "Feature", "properties": { "id": "237099", "name": "Trinitat", "line": "1,4,6", "longitude": "-0.367763877448546", "latitude": "39.48627094440176", "type": "metrovalencia", "town": "Benimaclet - València" }, "geometry": { "type": "Point", "coordinates": [ -0.367763877448546, 39.48627094440176 ] } },
{ "type": "Feature", "properties": { "id": "237192", "name": "La Pobla de Vallbona", "line": "2", "longitude": "-0.5622777944476075", "latitude": "39.58276371115498", "type": "metrovalencia", "town": "La Pobla de Vallbona" }, "geometry": { "type": "Point", "coordinates": [ -0.562277794447608, 39.582763711154982 ] } },
{ "type": "Feature", "properties": { "id": "237098", "name": "Benimaclet", "line": "1,3,4,5,6,7,9", "longitude": "-0.3623333272775772", "latitude": "39.48485187642764", "type": "metrovalencia", "town": "Benimaclet - València" }, "geometry": { "type": "Point", "coordinates": [ -0.362333327277577, 39.484851876427641 ] } },
{ "type": "Feature", "properties": { "id": "237185", "name": "La Canyada", "line": "2", "longitude": "-0.4871222073769305", "latitude": "39.52680591747526", "type": "metrovalencia", "town": "Paterna" }, "geometry": { "type": "Point", "coordinates": [ -0.487122207376931, 39.526805917475258 ] } },
{ "type": "Feature", "properties": { "id": "237183", "name": "Santa Rita", "line": "2", "longitude": "-0.4551055434970949", "latitude": "39.50565723544864", "type": "metrovalencia", "town": "Paterna" }, "geometry": { "type": "Point", "coordinates": [ -0.455105543497095, 39.505657235448645 ] } },
{ "type": "Feature", "properties": { "id": "237173", "name": "Massalavés", "line": "1", "longitude": "-0.5187610983053753", "latitude": "39.14380649706234", "type": "metrovalencia", "town": "Massalavés" }, "geometry": { "type": "Point", "coordinates": [ -0.518761098305375, 39.143806497062336 ] } },
{ "type": "Feature", "properties": { "id": "237109", "name": "Empalme", "line": "1,2,4", "longitude": "-0.4021083419820373", "latitude": "39.49957660833118", "type": "metrovalencia", "town": "Burjassot" }, "geometry": { "type": "Point", "coordinates": [ -0.402108341982037, 39.499576608331175 ] } },
{ "type": "Feature", "properties": { "id": "237092", "name": "La Cadena", "line": "4,6,8", "longitude": "-0.3293749993077695", "latitude": "39.47520450774123", "type": "metrovalencia", "town": "Cabanyal-Canyamelar - València" }, "geometry": { "type": "Point", "coordinates": [ -0.32937499930777, 39.475204507741232 ] } },
{ "type": "Feature", "properties": { "id": "237091", "name": "Platja Malva-rosa", "line": "4,6,8", "longitude": "-0.3257277910745404", "latitude": "39.47369007271332", "type": "metrovalencia", "town": "Cabanyal-Canyamelar - València" }, "geometry": { "type": "Point", "coordinates": [ -0.32572779107454, 39.473690072713318 ] } },
{ "type": "Feature", "properties": { "id": "237090", "name": "Platja les Arenes", "line": "4,6,8", "longitude": "-0.325727790999878", "latitude": "39.46892933010812", "type": "metrovalencia", "town": "Cabanyal-Canyamelar - València" }, "geometry": { "type": "Point", "coordinates": [ -0.325727790999878, 39.468929330108118 ] } },
{ "type": "Feature", "properties": { "id": "1067", "name": "Equador - Pintor Matarana", "line": "12", "longitude": "-0.3927782320996147", "latitude": "39.49607896649905", "type": "emt", "town": "Benicalap - València" }, "geometry": { "type": "Point", "coordinates": [ -0.392778232099615, 39.496078966499049 ] } },
{ "type": "Feature", "properties": { "id": "2032", "name": "Les Corts", "line": "11,16,26,6,80,94,N10", "longitude": "-0.3742677624589383", "latitude": "39.47872157854415", "type": "emt", "town": "Benicalap - València" }, "geometry": { "type": "Point", "coordinates": [ -0.374267762458938, 39.478721578544153 ] } },
{ "type": "Feature", "properties": { "id": "1183", "name": "General Avilés - Dr. Nicasi Benlloch", "line": "64,94", "longitude": "-0.3914609581496043", "latitude": "39.48803724305937", "type": "emt", "town": "Benicalap - València" }, "geometry": { "type": "Point", "coordinates": [ -0.391460958149604, 39.488037243059374 ] } },
{ "type": "Feature", "properties": { "id": "1319", "name": "Corts Valencianes - Palau de Congressos", "line": "62,63,99,N3", "longitude": "-0.401818111537627", "latitude": "39.49418385019246", "type": "emt", "town": "Benicalap - València" }, "geometry": { "type": "Point", "coordinates": [ -0.401818111537627, 39.494183850192464 ] } },
{ "type": "Feature", "properties": { "id": "1331", "name": "Florista - Carrasqueta", "line": "28", "longitude": "-0.3962088210973264", "latitude": "39.49404940420439", "type": "emt", "town": "Benicalap - València" }, "geometry": { "type": "Point", "coordinates": [ -0.396208821097327, 39.494049404204389 ] } },
{ "type": "Feature", "properties": { "id": "1684", "name": "Dr. Peset Aleixandre - Av. de Burjassot", "line": "60,64,89", "longitude": "-0.3885702988290171", "latitude": "39.48893284987757", "type": "emt", "town": "Benicalap - València" }, "geometry": { "type": "Point", "coordinates": [ -0.388570298829017, 39.488932849877571 ] } },
{ "type": "Feature", "properties": { "id": "2257", "name": "Palau de Justícia", "line": "11,31,32,6,70,71,81,N10,N2", "longitude": "-0.3695681782945649", "latitude": "39.47207596206278", "type": "emt", "town": "Benicalap - València" }, "geometry": { "type": "Point", "coordinates": [ -0.369568178294565, 39.472075962062782 ] } },
{ "type": "Feature", "properties": { "id": "2271", "name": "Passeig Marítim - Pavia", "line": "93,98", "longitude": "-0.324609458011564", "latitude": "39.4742645348839", "type": "emt", "town": "Benicalap - València" }, "geometry": { "type": "Point", "coordinates": [ -0.324609458011564, 39.474264534883901 ] } },
{ "type": "Feature", "properties": { "id": "1825", "name": "Joan XXIII - Federico Alcacer Aguilar", "line": "64", "longitude": "-0.3840975314338629", "latitude": "39.49502166239837", "type": "emt", "town": "Benicalap - València" }, "geometry": { "type": "Point", "coordinates": [ -0.384097531433863, 39.495021662398372 ] } },
{ "type": "Feature", "properties": { "id": "2260", "name": "Colón - Pascual i Genís", "line": "10,11,28,32,40,70,71,8,81,N1,N10,N2,N8", "longitude": "-0.3735744715296922", "latitude": "39.46819493294377", "type": "emt", "town": "Benicalap - València" }, "geometry": { "type": "Point", "coordinates": [ -0.373574471529692, 39.468194932943767 ] } },
{ "type": "Feature", "properties": { "id": "2261", "name": "Estació del Nord", "line": "19,35,40,6,8,N1,N7,N8,N9", "longitude": "-0.3764952645701374", "latitude": "39.46751463572129", "type": "emt", "town": "Benicalap - València" }, "geometry": { "type": "Point", "coordinates": [ -0.376495264570137, 39.467514635721294 ] } },
{ "type": "Feature", "properties": { "id": "1283", "name": "Campus Tarongers", "line": "40,71", "longitude": "-0.3453280743399828", "latitude": "39.47927736170695", "type": "emt", "town": "Benicalap - València" }, "geometry": { "type": "Point", "coordinates": [ -0.345328074339983, 39.479277361706949 ] } },
{ "type": "Feature", "properties": { "id": "1835", "name": "Federico Alcacer Aguilar - Poeta Serrano Clavero", "line": "12,N10", "longitude": "-0.3862542617208672", "latitude": "39.49498286694165", "type": "emt", "town": "Benicalap - València" }, "geometry": { "type": "Point", "coordinates": [ -0.386254261720867, 39.494982866941655 ] } },
{ "type": "Feature", "properties": { "id": "1847", "name": "Castellonet - Joan XXIII", "line": "12", "longitude": "-0.383564526993556", "latitude": "39.49321971627099", "type": "emt", "town": "Benicalap - València" }, "geometry": { "type": "Point", "coordinates": [ -0.383564526993556, 39.493219716270993 ] } },
{ "type": "Feature", "properties": { "id": "1143", "name": "Centre de Salut Fonteta", "line": "13,7,N7", "longitude": "-0.3681617463809649", "latitude": "39.442507726023", "type": "emt", "town": "Benicalap - València" }, "geometry": { "type": "Point", "coordinates": [ -0.368161746380965, 39.442507726023003 ] } },
{ "type": "Feature", "properties": { "id": "281", "name": "Camí de Montcada  - Alemany", "line": "26", "longitude": "-0.3809572259295906", "latitude": "39.49649249254142", "type": "emt", "town": "Benicalap - València" }, "geometry": { "type": "Point", "coordinates": [ -0.380957225929591, 39.496492492541421 ] } },
{ "type": "Feature", "properties": { "id": "304", "name": "Camí de Montcada  - Alemany", "line": "26", "longitude": "-0.3810964690976113", "latitude": "39.49659003403457", "type": "emt", "town": "Benicalap - València" }, "geometry": { "type": "Point", "coordinates": [ -0.381096469097611, 39.496590034034568 ] } },
{ "type": "Feature", "properties": { "id": "308", "name": "Burjassot - Pintor Matarana", "line": "28,N10", "longitude": "-0.3933097334910693", "latitude": "39.49239344045768", "type": "emt", "town": "Benicalap - València" }, "geometry": { "type": "Point", "coordinates": [ -0.393309733491069, 39.492393440457676 ] } },
{ "type": "Feature", "properties": { "id": "1062", "name": "Pere Cabanes - Bisbe Laguarda", "line": "12", "longitude": "-0.3787829198086891", "latitude": "39.49424189829983", "type": "emt", "town": "Torrefiel - València" }, "geometry": { "type": "Point", "coordinates": [ -0.378782919808689, 39.494241898299833 ] } },
{ "type": "Feature", "properties": { "id": "1131", "name": "Pintor Jacomart - Comte de Torrefiel", "line": "12", "longitude": "-0.3772548411393017", "latitude": "39.49646764365853", "type": "emt", "town": "Torrefiel - València" }, "geometry": { "type": "Point", "coordinates": [ -0.377254841139302, 39.496467643658526 ] } },
{ "type": "Feature", "properties": { "id": "1865", "name": "Pérez Galdós - Sant Josep de la Muntanya", "line": "67,N4", "longitude": "-0.3948889650634679", "latitude": "39.47399468570227", "type": "emt", "town": "Torrefiel - València" }, "geometry": { "type": "Point", "coordinates": [ -0.394888965063468, 39.473994685702266 ] } },
{ "type": "Feature", "properties": { "id": "2122", "name": "Parc de Natzaret", "line": "30,4", "longitude": "-0.3332872128016265", "latitude": "39.44458966947652", "type": "emt", "town": "Torrefiel - València" }, "geometry": { "type": "Point", "coordinates": [ -0.333287212801626, 39.444589669476521 ] } },
{ "type": "Feature", "properties": { "id": "1683", "name": "Dr. Peset Aleixandre - Montcada", "line": "60,89", "longitude": "-0.3796334261844185", "latitude": "39.49091664657465", "type": "emt", "town": "Torrefiel - València" }, "geometry": { "type": "Point", "coordinates": [ -0.379633426184418, 39.490916646574654 ] } },
{ "type": "Feature", "properties": { "id": "2231", "name": "Centre d'especialitats Ricard Trénor", "line": "11,N10", "longitude": "-0.3705717018844134", "latitude": "39.48185718248969", "type": "emt", "town": "Torrefiel - València" }, "geometry": { "type": "Point", "coordinates": [ -0.370571701884413, 39.481857182489691 ] } },
{ "type": "Feature", "properties": { "id": "242", "name": "Dr. Peset Aleixandre - Guardacostes", "line": "60,64,90", "longitude": "-0.3829222819940433", "latitude": "39.48998211816957", "type": "emt", "town": "Tormos - València" }, "geometry": { "type": "Point", "coordinates": [ -0.382922281994043, 39.489982118169571 ] } },
{ "type": "Feature", "properties": { "id": "2315", "name": "Roger de Llòria - Colón", "line": "40", "longitude": "-0.3725957521101151", "latitude": "39.46913251637978", "type": "emt", "town": "Tormos - València" }, "geometry": { "type": "Point", "coordinates": [ -0.372595752110115, 39.46913251637978 ] } },
{ "type": "Feature", "properties": { "id": "325", "name": "Constitució - Dr. Peset Aleixandre", "line": "16,26,6,N10", "longitude": "-0.3744527015329162", "latitude": "39.49152974184241", "type": "emt", "town": "Tormos - València" }, "geometry": { "type": "Point", "coordinates": [ -0.374452701532916, 39.491529741842413 ] } },
{ "type": "Feature", "properties": { "id": "206", "name": "Primat Reig - Bilbao", "line": "90,N2", "longitude": "-0.3715588686786924", "latitude": "39.49014289252342", "type": "emt", "town": "Sant Antoni - València" }, "geometry": { "type": "Point", "coordinates": [ -0.371558868678692, 39.490142892523416 ] } },
{ "type": "Feature", "properties": { "id": "2312", "name": "Estació del Nord - Sant Pau", "line": "62,67,73,9,N3,N7", "longitude": "-0.3778266392067869", "latitude": "39.46839356518432", "type": "emt", "town": "Sant Antoni - València" }, "geometry": { "type": "Point", "coordinates": [ -0.377826639206787, 39.468393565184314 ] } },
{ "type": "Feature", "properties": { "id": "2301", "name": "Félix del Río - Camí de Montcada", "line": "60", "longitude": "-0.3794747799932956", "latitude": "39.49198776163449", "type": "emt", "town": "Benimaclet - València" }, "geometry": { "type": "Point", "coordinates": [ -0.379474779993296, 39.491987761634491 ] } },
{ "type": "Feature", "properties": { "id": "2338", "name": "País Valencià - València", "line": "9", "longitude": "-0.3814167408394351", "latitude": "39.42642679040525", "type": "emt", "town": "Benimaclet - València" }, "geometry": { "type": "Point", "coordinates": [ -0.381416740839435, 39.426426790405252 ] } },
{ "type": "Feature", "properties": { "id": "1233", "name": "Dolores Marqués - Assagador d'Alboraia", "line": "12,70", "longitude": "-0.3620430866045034", "latitude": "39.48828209528488", "type": "emt", "town": "Benimaclet - València" }, "geometry": { "type": "Point", "coordinates": [ -0.362043086604504, 39.48828209528488 ] } },
{ "type": "Feature", "properties": { "id": "2340", "name": "País Valencià - Pintor Sorolla", "line": "9", "longitude": "-0.3847701114340046", "latitude": "39.42796620301947", "type": "emt", "town": "Benimaclet - València" }, "geometry": { "type": "Point", "coordinates": [ -0.384770111434005, 39.427966203019466 ] } },
{ "type": "Feature", "properties": { "id": "2341", "name": "Passeig Marítim - Mediterrània", "line": "32", "longitude": "-0.3245759842700254", "latitude": "39.46830732255087", "type": "emt", "town": "Benimaclet - València" }, "geometry": { "type": "Point", "coordinates": [ -0.324575984270025, 39.468307322550871 ] } },
{ "type": "Feature", "properties": { "id": "1902", "name": "Catalunya - Guardia Civil", "line": "93,98", "longitude": "-0.3542697867591446", "latitude": "39.47969835044653", "type": "emt", "town": "Benimaclet - València" }, "geometry": { "type": "Point", "coordinates": [ -0.354269786759145, 39.479698350446533 ] } },
{ "type": "Feature", "properties": { "id": "216", "name": "Primat Reig - Calderón de la Barca", "line": "90,N2", "longitude": "-0.366171206986556", "latitude": "39.48613285656113", "type": "emt", "town": "Benimaclet - València" }, "geometry": { "type": "Point", "coordinates": [ -0.366171206986556, 39.486132856561134 ] } },
{ "type": "Feature", "properties": { "id": "1162", "name": "Passeig Marítim - Mendizábal", "line": "32", "longitude": "-0.3252024019888047", "latitude": "39.48355244046615", "type": "emt", "town": "Benimaclet - València" }, "geometry": { "type": "Point", "coordinates": [ -0.325202401988805, 39.483552440466148 ] } },
{ "type": "Feature", "properties": { "id": "965", "name": "Germans Villalonga - Enric Navarro", "line": "10", "longitude": "-0.3571893087552928", "latitude": "39.48549520152587", "type": "emt", "town": "Benimaclet - València" }, "geometry": { "type": "Point", "coordinates": [ -0.357189308755293, 39.485495201525872 ] } },
{ "type": "Feature", "properties": { "id": "387", "name": "Polvorí - Sinarques", "line": "62", "longitude": "-0.4252266367622225", "latitude": "39.50099178779752", "type": "emt", "town": "Benimaclet - València" }, "geometry": { "type": "Point", "coordinates": [ -0.425226636762223, 39.500991787797524 ] } },
{ "type": "Feature", "properties": { "id": "987", "name": "Mistral - Murta", "line": "10", "longitude": "-0.3578205939800465", "latitude": "39.48586644851965", "type": "emt", "town": "Benimaclet - València" }, "geometry": { "type": "Point", "coordinates": [ -0.357820593980047, 39.485866448519644 ] } },
{ "type": "Feature", "properties": { "id": "7", "name": "Edifici del Rellotge", "line": "19,92,95,N9", "longitude": "-0.3324961026053938", "latitude": "39.46035702072443", "type": "emt", "town": "Marxalenes - València" }, "geometry": { "type": "Point", "coordinates": [ -0.332496102605394, 39.46035702072443 ] } },
{ "type": "Feature", "properties": { "id": "2160", "name": "Burjassot - Marxalenes", "line": "28,94,N10", "longitude": "-0.386812993791799", "latitude": "39.48635768353169", "type": "emt", "town": "Marxalenes - València" }, "geometry": { "type": "Point", "coordinates": [ -0.386812993791799, 39.486357683531693 ] } },
{ "type": "Feature", "properties": { "id": "2160", "name": "Burjassot - Marxalenes", "line": "28,94,N10", "longitude": "-0.3868134851295495", "latitude": "39.48637001860868", "type": "emt", "town": "Marxalenes - València" }, "geometry": { "type": "Point", "coordinates": [ -0.38681348512955, 39.486370018608675 ] } },
{ "type": "Feature", "properties": { "id": "1587", "name": "Marina de València", "line": "19,92", "longitude": "-0.3294739656056153", "latitude": "39.46378658245906", "type": "emt", "town": "Marxalenes - València" }, "geometry": { "type": "Point", "coordinates": [ -0.329473965605615, 39.463786582459058 ] } },
{ "type": "Feature", "properties": { "id": "333", "name": "Burjassot - Dr. Peset Aleixandre", "line": "28,94,N10", "longitude": "-0.3890689091090323", "latitude": "39.48833469992052", "type": "emt", "town": "Marxalenes - València" }, "geometry": { "type": "Point", "coordinates": [ -0.389068909109032, 39.488334699920522 ] } },
{ "type": "Feature", "properties": { "id": "154", "name": "Blasco Ibáñez - Rubén Darío", "line": "30,31,71,81,89,N1", "longitude": "-0.3539115521832035", "latitude": "39.47590882195261", "type": "emt", "town": "El Calvari - València" }, "geometry": { "type": "Point", "coordinates": [ -0.353911552183204, 39.475908821952615 ] } },
{ "type": "Feature", "properties": { "id": "1829", "name": "General Avilés - Conchita Piquer", "line": "94", "longitude": "-0.3905968368320168", "latitude": "39.48801949874912", "type": "emt", "town": "El Calvari - València" }, "geometry": { "type": "Point", "coordinates": [ -0.390596836832017, 39.488019498749118 ] } },
{ "type": "Feature", "properties": { "id": "1807", "name": "Argenter Suárez - Ministre Luis Mayans", "line": "98,N10", "longitude": "-0.3729700513308436", "latitude": "39.48547389435351", "type": "emt", "town": "Morvedre - València" }, "geometry": { "type": "Point", "coordinates": [ -0.372970051330844, 39.485473894353511 ] } },
{ "type": "Feature", "properties": { "id": "231", "name": "Eduard Boscà - Balears", "line": "18,89", "longitude": "-0.3577284538779768", "latitude": "39.46429795476555", "type": "emt", "town": "Morvedre - València" }, "geometry": { "type": "Point", "coordinates": [ -0.357728453877977, 39.464297954765549 ] } },
{ "type": "Feature", "properties": { "id": "342", "name": "Guadalaviar - Sagunt", "line": "79,94,95", "longitude": "-0.3754961789160185", "latitude": "39.4820062206112", "type": "emt", "town": "Morvedre - València" }, "geometry": { "type": "Point", "coordinates": [ -0.375496178916018, 39.482006220611204 ] } },
{ "type": "Feature", "properties": { "id": "1806", "name": "Molinell  - Alboraia", "line": "98,N10", "longitude": "-0.3700428613032802", "latitude": "39.48520324342893", "type": "emt", "town": "Trinitat - València" }, "geometry": { "type": "Point", "coordinates": [ -0.37004286130328, 39.485203243428927 ] } },
{ "type": "Feature", "properties": { "id": "1318", "name": "Molinell  - Alboraia", "line": "98", "longitude": "-0.3697122176746564", "latitude": "39.48494118060363", "type": "emt", "town": "Trinitat - València" }, "geometry": { "type": "Point", "coordinates": [ -0.369712217674656, 39.484941180603634 ] } },
{ "type": "Feature", "properties": { "id": "2232", "name": "Alboraia - Jaca", "line": "11,N10", "longitude": "-0.3693788614546257", "latitude": "39.48413410592833", "type": "emt", "town": "Trinitat - València" }, "geometry": { "type": "Point", "coordinates": [ -0.369378861454626, 39.484134105928334 ] } },
{ "type": "Feature", "properties": { "id": "284", "name": "Camí de Montcada - Casa d'Àngel", "line": "26", "longitude": "-0.3839692130139706", "latitude": "39.50684791912538", "type": "emt", "town": "Les Tendetes - València" }, "geometry": { "type": "Point", "coordinates": [ -0.383969213013971, 39.506847919125384 ] } },
{ "type": "Feature", "properties": { "id": "1812", "name": "Joaquím Ballester  - Pare Ferris", "line": "98", "longitude": "-0.3854716070173363", "latitude": "39.48481382541753", "type": "emt", "town": "Les Tendetes - València" }, "geometry": { "type": "Point", "coordinates": [ -0.385471607017336, 39.484813825417525 ] } },
{ "type": "Feature", "properties": { "id": "70", "name": "Poliesportiu Natzaret - Moraira", "line": "30,4,95,N8", "longitude": "-0.3324287753532208", "latitude": "39.45055909542334", "type": "emt", "town": "Les Tendetes - València" }, "geometry": { "type": "Point", "coordinates": [ -0.332428775353221, 39.450559095423337 ] } },
{ "type": "Feature", "properties": { "id": "1422", "name": "Petxina - Pérez Galdos", "line": "95", "longitude": "-0.3967538585909201", "latitude": "39.47464778834009", "type": "emt", "town": "Campanar - València" }, "geometry": { "type": "Point", "coordinates": [ -0.39675385859092, 39.474647788340086 ] } },
{ "type": "Feature", "properties": { "id": "290", "name": "Carpesa", "line": "26", "longitude": "-0.3773143752871361", "latitude": "39.5150989935312", "type": "emt", "town": "Campanar - València" }, "geometry": { "type": "Point", "coordinates": [ -0.377314375287136, 39.515098993531204 ] } },
{ "type": "Feature", "properties": { "id": "415", "name": "Vall de la Ballestera  - Mestre Rodrigo", "line": "98,99", "longitude": "-0.3979386917095069", "latitude": "39.47932159552723", "type": "emt", "town": "Campanar - València" }, "geometry": { "type": "Point", "coordinates": [ -0.397938691709507, 39.479321595527232 ] } },
{ "type": "Feature", "properties": { "id": "2307", "name": "General Avilés  - Pius XII", "line": "94", "longitude": "-0.3958820309358738", "latitude": "39.48559001534807", "type": "emt", "town": "Campanar - València" }, "geometry": { "type": "Point", "coordinates": [ -0.395882030935874, 39.485590015348073 ] } },
{ "type": "Feature", "properties": { "id": "627", "name": "Fonteta Sant Lluís - Bèrnia", "line": "7", "longitude": "-0.3716216565564202", "latitude": "39.45396312664135", "type": "emt", "town": "Campanar - València" }, "geometry": { "type": "Point", "coordinates": [ -0.37162165655642, 39.453963126641348 ] } },
{ "type": "Feature", "properties": { "id": "530", "name": "Tres Forques - Mare de Déu de la Cabeça", "line": "71,N5", "longitude": "-0.3998469363943848", "latitude": "39.46368117339872", "type": "emt", "town": "Campanar - València" }, "geometry": { "type": "Point", "coordinates": [ -0.399846936394385, 39.463681173398719 ] } },
{ "type": "Feature", "properties": { "id": "359", "name": "Joaquím Ballester - Campanar", "line": "98", "longitude": "-0.3919255341133743", "latitude": "39.48200192837728", "type": "emt", "town": "Campanar - València" }, "geometry": { "type": "Point", "coordinates": [ -0.391925534113374, 39.482001928377279 ] } },
{ "type": "Feature", "properties": { "id": "372", "name": "Pius XII - Campanar", "line": "62,63,64,92,99,N3", "longitude": "-0.3932838665887442", "latitude": "39.48223359170728", "type": "emt", "town": "Campanar - València" }, "geometry": { "type": "Point", "coordinates": [ -0.393283866588744, 39.482233591707285 ] } },
{ "type": "Feature", "properties": { "id": "64", "name": "Vall de la Ballestera - Campanar", "line": "98,99", "longitude": "-0.393545512567508", "latitude": "39.48091290492269", "type": "emt", "town": "Campanar - València" }, "geometry": { "type": "Point", "coordinates": [ -0.393545512567508, 39.48091290492269 ] } },
{ "type": "Feature", "properties": { "id": "1694", "name": "Primat Reig - Dr. Gómez Ferrer", "line": "90,98", "longitude": "-0.3603170919812813", "latitude": "39.48181223106321", "type": "emt", "town": "Jaume Roig - València" }, "geometry": { "type": "Point", "coordinates": [ -0.360317091981281, 39.481812231063209 ] } },
{ "type": "Feature", "properties": { "id": "186", "name": "Primat Reig - Jaume Roig", "line": "90,98", "longitude": "-0.3633803278420699", "latitude": "39.48407398723863", "type": "emt", "town": "Jaume Roig - València" }, "geometry": { "type": "Point", "coordinates": [ -0.36338032784207, 39.484073987238631 ] } },
{ "type": "Feature", "properties": { "id": "1410", "name": "Borbotó", "line": "26", "longitude": "-0.3886678195476463", "latitude": "39.51418151401951", "type": "emt", "town": "El Carme - València" }, "geometry": { "type": "Point", "coordinates": [ -0.388667819547646, 39.514181514019512 ] } },
{ "type": "Feature", "properties": { "id": "1959", "name": "Blanqueria - Pare d' Òrfens", "line": "28,95,C1", "longitude": "-0.3777590314775099", "latitude": "39.48037510519851", "type": "emt", "town": "El Carme - València" }, "geometry": { "type": "Point", "coordinates": [ -0.37775903147751, 39.480375105198512 ] } },
{ "type": "Feature", "properties": { "id": "1442", "name": "Dr. Tomàs Sala  - Sant Vicent Màrtir", "line": "18,9,99,N6", "longitude": "-0.3872770335861917", "latitude": "39.44692260835913", "type": "emt", "town": "El Carme - València" }, "geometry": { "type": "Point", "coordinates": [ -0.387277033586192, 39.446922608359131 ] } },
{ "type": "Feature", "properties": { "id": "1537", "name": "Parc Gulliver", "line": "19,94", "longitude": "-0.3587930091670318", "latitude": "39.46318627266343", "type": "emt", "town": "Ciutat Universitària - València" }, "geometry": { "type": "Point", "coordinates": [ -0.358793009167032, 39.463186272663428 ] } },
{ "type": "Feature", "properties": { "id": "331", "name": "Bombas Gens", "line": "28,94,N10", "longitude": "-0.3856298968111017", "latitude": "39.48548516355135", "type": "emt", "town": "Ciutat Universitària - València" }, "geometry": { "type": "Point", "coordinates": [ -0.385629896811102, 39.485485163551353 ] } },
{ "type": "Feature", "properties": { "id": "341", "name": "Pont de Fusta", "line": "16,26,6,79,94,95", "longitude": "-0.3740110905904736", "latitude": "39.4809077774229", "type": "emt", "town": "El Botànic - València" }, "geometry": { "type": "Point", "coordinates": [ -0.374011090590474, 39.4809077774229 ] } },
{ "type": "Feature", "properties": { "id": "694", "name": "Ferran el Catòlic - Juan de Mena", "line": "60,62,64,80,92,N3", "longitude": "-0.3861318703269893", "latitude": "39.47232192391291", "type": "emt", "town": "El Botànic - València" }, "geometry": { "type": "Point", "coordinates": [ -0.386131870326989, 39.472321923912908 ] } },
{ "type": "Feature", "properties": { "id": "803", "name": "Quart - Guillem de Castro", "line": "73", "longitude": "-0.3846713154528348", "latitude": "39.47572058859991", "type": "emt", "town": "El Botànic - València" }, "geometry": { "type": "Point", "coordinates": [ -0.384671315452835, 39.475720588599913 ] } },
{ "type": "Feature", "properties": { "id": "871", "name": "Misser Mascó - Dr. Moliner", "line": "32", "longitude": "-0.362503832423428", "latitude": "39.47554958631664", "type": "emt", "town": "Exposició - València" }, "geometry": { "type": "Point", "coordinates": [ -0.362503832423428, 39.475549586316639 ] } },
{ "type": "Feature", "properties": { "id": "473", "name": "Brasil - Velàzquez", "line": "73", "longitude": "-0.4006458202088345", "latitude": "39.47246202669662", "type": "emt", "town": "La Seu - València" }, "geometry": { "type": "Point", "coordinates": [ -0.400645820208834, 39.472462026696618 ] } },
{ "type": "Feature", "properties": { "id": "1114", "name": "Ramon Llull - García Donato", "line": "40,71", "longitude": "-0.3468700786979239", "latitude": "39.47681434554242", "type": "emt", "town": "La Vega Baixa - València" }, "geometry": { "type": "Point", "coordinates": [ -0.346870078697924, 39.476814345542415 ] } },
{ "type": "Feature", "properties": { "id": "1145", "name": "Campus de Burjassot", "line": "63", "longitude": "-0.4216996465348844", "latitude": "39.50963008345769", "type": "emt", "town": "La Petxina - València" }, "geometry": { "type": "Point", "coordinates": [ -0.421699646534884, 39.509630083457694 ] } },
{ "type": "Feature", "properties": { "id": "1366", "name": "La Llum", "line": "71", "longitude": "-0.417148661614266", "latitude": "39.46845737329358", "type": "emt", "town": "La Petxina - València" }, "geometry": { "type": "Point", "coordinates": [ -0.417148661614266, 39.468457373293582 ] } },
{ "type": "Feature", "properties": { "id": "749", "name": "Quart - Terol", "line": "73", "longitude": "-0.3912802713032787", "latitude": "39.47461197811272", "type": "emt", "town": "La Petxina - València" }, "geometry": { "type": "Point", "coordinates": [ -0.391280271303279, 39.474611978112719 ] } },
{ "type": "Feature", "properties": { "id": "395", "name": "Campament  - Joaquín Marín", "line": "62,N3", "longitude": "-0.4226941165430092", "latitude": "39.50148699751043", "type": "emt", "town": "La Petxina - València" }, "geometry": { "type": "Point", "coordinates": [ -0.422694116543009, 39.501486997510433 ] } },
{ "type": "Feature", "properties": { "id": "485", "name": "Nou d'Octubre", "line": "93,N4", "longitude": "-0.4055785064508074", "latitude": "39.47013317475743", "type": "emt", "town": "Cabanyal-Canyamelar - València" }, "geometry": { "type": "Point", "coordinates": [ -0.405578506450807, 39.470133174757429 ] } },
{ "type": "Feature", "properties": { "id": "1384", "name": "Serradora - Poliesportiu", "line": "32,99", "longitude": "-0.33503715902562", "latitude": "39.46667732511951", "type": "emt", "town": "Cabanyal-Canyamelar - València" }, "geometry": { "type": "Point", "coordinates": [ -0.33503715902562, 39.466677325119512 ] } },
{ "type": "Feature", "properties": { "id": "1385", "name": "Martí Grajales - Serradora", "line": "32", "longitude": "-0.3345553043626351", "latitude": "39.46825484873621", "type": "emt", "town": "Cabanyal-Canyamelar - València" }, "geometry": { "type": "Point", "coordinates": [ -0.334555304362635, 39.468254848736208 ] } },
{ "type": "Feature", "properties": { "id": "1672", "name": "Reina - Pescadors", "line": "19,92,N1", "longitude": "-0.3285296166249586", "latitude": "39.46986107034692", "type": "emt", "town": "Cabanyal-Canyamelar - València" }, "geometry": { "type": "Point", "coordinates": [ -0.328529616624959, 39.469861070346923 ] } },
{ "type": "Feature", "properties": { "id": "934", "name": "el Tremolar - Camí del Cavalló", "line": "14", "longitude": "-0.3609942678649792", "latitude": "39.42349814485445", "type": "emt", "town": "Cabanyal-Canyamelar - València" }, "geometry": { "type": "Point", "coordinates": [ -0.360994267864979, 39.423498144854449 ] } },
{ "type": "Feature", "properties": { "id": "45", "name": "Pintor Ferrandis - Josep Benlliure", "line": "31,N1", "longitude": "-0.3295753425167224", "latitude": "39.47194838405358", "type": "emt", "town": "Cabanyal-Canyamelar - València" }, "geometry": { "type": "Point", "coordinates": [ -0.329575342516722, 39.471948384053576 ] } },
{ "type": "Feature", "properties": { "id": "949", "name": "Almàssera", "line": "16", "longitude": "-0.3613584036763181", "latitude": "39.51637262851342", "type": "emt", "town": "Cabanyal-Canyamelar - València" }, "geometry": { "type": "Point", "coordinates": [ -0.361358403676318, 39.516372628513423 ] } },
{ "type": "Feature", "properties": { "id": "1007", "name": "Jesús Morante Borràs  -", "line": "15", "longitude": "-0.3454345529992708", "latitude": "39.45101489021512", "type": "emt", "town": "Cabanyal-Canyamelar - València" }, "geometry": { "type": "Point", "coordinates": [ -0.345434552999271, 39.45101489021512 ] } },
{ "type": "Feature", "properties": { "id": "1010", "name": "Jesús Morante Borrás", "line": "15", "longitude": "-0.3439874281076998", "latitude": "39.44414756137639", "type": "emt", "town": "Mestalla - València" }, "geometry": { "type": "Point", "coordinates": [ -0.3439874281077, 39.44414756137639 ] } },
{ "type": "Feature", "properties": { "id": "1014", "name": "Jesús Morante Borràs  -", "line": "15", "longitude": "-0.3438649676535533", "latitude": "39.44789369518285", "type": "emt", "town": "Mestalla - València" }, "geometry": { "type": "Point", "coordinates": [ -0.343864967653553, 39.447893695182849 ] } },
{ "type": "Feature", "properties": { "id": "1615", "name": "Port - Saragossa", "line": "4,92,N8", "longitude": "-0.3600001765439261", "latitude": "39.46794697759549", "type": "emt", "town": "Mestalla - València" }, "geometry": { "type": "Point", "coordinates": [ -0.360000176543926, 39.467946977595489 ] } },
{ "type": "Feature", "properties": { "id": "226", "name": "Cardenal Benlloch - Ernest Ferrer", "line": "18,90", "longitude": "-0.3542597170047676", "latitude": "39.47204907178329", "type": "emt", "town": "Mestalla - València" }, "geometry": { "type": "Point", "coordinates": [ -0.354259717004768, 39.472049071783289 ] } },
{ "type": "Feature", "properties": { "id": "966", "name": "Vicent Zaragozà", "line": "10", "longitude": "-0.3575740857631919", "latitude": "39.48407868643406", "type": "emt", "town": "Mestalla - València" }, "geometry": { "type": "Point", "coordinates": [ -0.357574085763192, 39.48407868643406 ] } },
{ "type": "Feature", "properties": { "id": "869", "name": "Amadeu de Savoia - Suècia", "line": "32", "longitude": "-0.3594915098152329", "latitude": "39.47303074723169", "type": "emt", "town": "Mestalla - València" }, "geometry": { "type": "Point", "coordinates": [ -0.359491509815233, 39.473030747231689 ] } },
{ "type": "Feature", "properties": { "id": "874", "name": "Finlàndia - General Gil Dolz", "line": "32", "longitude": "-0.3603308647332809", "latitude": "39.47272286992908", "type": "emt", "town": "Mestalla - València" }, "geometry": { "type": "Point", "coordinates": [ -0.360330864733281, 39.472722869929079 ] } },
{ "type": "Feature", "properties": { "id": "1597", "name": "Illes Canàries - Lebon", "line": "30,4,92,N8", "longitude": "-0.3504602989321458", "latitude": "39.46504304755925", "type": "emt", "town": "La Xerea - València" }, "geometry": { "type": "Point", "coordinates": [ -0.350460298932146, 39.465043047559249 ] } },
{ "type": "Feature", "properties": { "id": "1631", "name": "Port - Illes Canàries", "line": "19,N9", "longitude": "-0.3381571286187351", "latitude": "39.46152898895248", "type": "emt", "town": "El Mercat - València" }, "geometry": { "type": "Point", "coordinates": [ -0.338157128618735, 39.46152898895248 ] } },
{ "type": "Feature", "properties": { "id": "1734", "name": "Carda - Moro Zeit", "line": "73", "longitude": "-0.3808729918214302", "latitude": "39.47511272140295", "type": "emt", "town": "El Mercat - València" }, "geometry": { "type": "Point", "coordinates": [ -0.38087299182143, 39.475112721402951 ] } },
{ "type": "Feature", "properties": { "id": "985", "name": "Centre de Salut Benimaclet", "line": "10", "longitude": "-0.3585035150302925", "latitude": "39.48332168711801", "type": "emt", "town": "El Mercat - València" }, "geometry": { "type": "Point", "coordinates": [ -0.358503515030292, 39.483321687118007 ] } },
{ "type": "Feature", "properties": { "id": "2287", "name": "Editor Manuel Aguilar - Guillem Sorolla", "line": "11,60,62,73", "longitude": "-0.380412359239771", "latitude": "39.47271228635729", "type": "emt", "town": "El Mercat - València" }, "geometry": { "type": "Point", "coordinates": [ -0.380412359239771, 39.472712286357293 ] } },
{ "type": "Feature", "properties": { "id": "773", "name": "Plaça del Temple", "line": "11,16,26,28,6,80,94,95,C1,N10", "longitude": "-0.3712278016518398", "latitude": "39.47697902585149", "type": "emt", "town": "El Pilar - València" }, "geometry": { "type": "Point", "coordinates": [ -0.37122780165184, 39.476979025851492 ] } },
{ "type": "Feature", "properties": { "id": "653", "name": "Poliesportiu Fta. Sant Lluís", "line": "13", "longitude": "-0.3664446867397901", "latitude": "39.4519407436984", "type": "emt", "town": "Sant Francesc - València" }, "geometry": { "type": "Point", "coordinates": [ -0.36644468673979, 39.451940743698394 ] } },
{ "type": "Feature", "properties": { "id": "686", "name": "Plaça de Cánovas", "line": "80,92,93", "longitude": "-0.3658185852528091", "latitude": "39.46848898117759", "type": "emt", "town": "Sant Francesc - València" }, "geometry": { "type": "Point", "coordinates": [ -0.365818585252809, 39.468488981177593 ] } },
{ "type": "Feature", "properties": { "id": "691", "name": "Plaça d'Espanya", "line": "80,92", "longitude": "-0.3810372751688723", "latitude": "39.46526988246608", "type": "emt", "town": "Sant Francesc - València" }, "geometry": { "type": "Point", "coordinates": [ -0.381037275168872, 39.465269882466082 ] } },
{ "type": "Feature", "properties": { "id": "2282", "name": "Av. de l'Oest  - Sant Agustí", "line": "27,7,73", "longitude": "-0.3795578084269184", "latitude": "39.46949136427292", "type": "emt", "town": "Sant Francesc - València" }, "geometry": { "type": "Point", "coordinates": [ -0.379557808426918, 39.469491364272919 ] } },
{ "type": "Feature", "properties": { "id": "555", "name": "Conca - Pérez Galdós", "line": "11", "longitude": "-0.3885707407060946", "latitude": "39.46377446986934", "type": "emt", "town": "Sant Francesc - València" }, "geometry": { "type": "Point", "coordinates": [ -0.388570740706095, 39.463774469869342 ] } },
{ "type": "Feature", "properties": { "id": "636", "name": "Fonteta Sant Lluís  - Àngel Villena", "line": "13,7,N7", "longitude": "-0.3684030328771879", "latitude": "39.44858302343373", "type": "emt", "town": "El Pla del Remei - València" }, "geometry": { "type": "Point", "coordinates": [ -0.368403032877188, 39.448583023433734 ] } },
{ "type": "Feature", "properties": { "id": "2206", "name": "Pl. Amèrica - Navarro Reverter", "line": "10,4,94", "longitude": "-0.3658702891536001", "latitude": "39.4706842963996", "type": "emt", "town": "El Pla del Remei - València" }, "geometry": { "type": "Point", "coordinates": [ -0.3658702891536, 39.470684296399597 ] } },
{ "type": "Feature", "properties": { "id": "498", "name": "Mercat de Castilla", "line": "71,99", "longitude": "-0.4061690717084912", "latitude": "39.46545980494533", "type": "emt", "town": "El Pla del Remei - València" }, "geometry": { "type": "Point", "coordinates": [ -0.406169071708491, 39.465459804945326 ] } },
{ "type": "Feature", "properties": { "id": "507", "name": "Central de Policia Local de València", "line": "70,93,N4", "longitude": "-0.3999233152564228", "latitude": "39.46855484215892", "type": "emt", "town": "El Pla del Remei - València" }, "geometry": { "type": "Point", "coordinates": [ -0.399923315256423, 39.468554842158923 ] } },
{ "type": "Feature", "properties": { "id": "368", "name": "Mercat de Campanar", "line": "89", "longitude": "-0.3947695586673236", "latitude": "39.47777580159739", "type": "emt", "town": "El Pla del Remei - València" }, "geometry": { "type": "Point", "coordinates": [ -0.394769558667324, 39.477775801597389 ] } },
{ "type": "Feature", "properties": { "id": "373", "name": "Campanar", "line": "62,64,92,99,N3", "longitude": "-0.3946933426654246", "latitude": "39.48439589204899", "type": "emt", "town": "El Pla del Remei - València" }, "geometry": { "type": "Point", "coordinates": [ -0.394693342665425, 39.484395892048987 ] } },
{ "type": "Feature", "properties": { "id": "1690", "name": "Giorgeta - Albacete", "line": "90", "longitude": "-0.3860026431579386", "latitude": "39.46154303335536", "type": "emt", "town": "Arrancapins - València" }, "geometry": { "type": "Point", "coordinates": [ -0.386002643157939, 39.461543033355362 ] } },
{ "type": "Feature", "properties": { "id": "310", "name": "Parc de Benicalap", "line": "28,N10", "longitude": "-0.3962106880814399", "latitude": "39.49567884866867", "type": "emt", "town": "Arrancapins - València" }, "geometry": { "type": "Point", "coordinates": [ -0.39621068808144, 39.495678848668668 ] } },
{ "type": "Feature", "properties": { "id": "352", "name": "Pont dels Serrans", "line": "16,26,6,80,94,N10", "longitude": "-0.3753595170469953", "latitude": "39.48164319706041", "type": "emt", "town": "Arrancapins - València" }, "geometry": { "type": "Point", "coordinates": [ -0.375359517046995, 39.481643197060407 ] } },
{ "type": "Feature", "properties": { "id": "346", "name": "Estació d'autobusos", "line": "79,95", "longitude": "-0.3877087530282515", "latitude": "39.48021191577372", "type": "emt", "town": "Arrancapins - València" }, "geometry": { "type": "Point", "coordinates": [ -0.387708753028251, 39.480211915773715 ] } },
{ "type": "Feature", "properties": { "id": "344", "name": "Escola Oficial d'Idiomes", "line": "79,94,95", "longitude": "-0.3812053074435144", "latitude": "39.48298254491847", "type": "emt", "town": "Arrancapins - València" }, "geometry": { "type": "Point", "coordinates": [ -0.381205307443514, 39.482982544918471 ] } },
{ "type": "Feature", "properties": { "id": "1110", "name": "Dr. Manuel Candela  - Port", "line": "30,40", "longitude": "-0.3509472577149589", "latitude": "39.46597126822129", "type": "emt", "town": "Aiora - València" }, "geometry": { "type": "Point", "coordinates": [ -0.350947257714959, 39.465971268221288 ] } },
{ "type": "Feature", "properties": { "id": "1119", "name": "Dr. Manuel Candela  - Port", "line": "30,40", "longitude": "-0.3512720404620183", "latitude": "39.46590818654433", "type": "emt", "town": "Aiora - València" }, "geometry": { "type": "Point", "coordinates": [ -0.351272040462018, 39.465908186544326 ] } },
{ "type": "Feature", "properties": { "id": "1118", "name": "Dr. Manuel Candela  - Rodríguez de Cepeda", "line": "30,40", "longitude": "-0.3502674310412221", "latitude": "39.46837632561385", "type": "emt", "town": "Aiora - València" }, "geometry": { "type": "Point", "coordinates": [ -0.350267431041222, 39.468376325613853 ] } },
{ "type": "Feature", "properties": { "id": "144", "name": "Dr. Manuel Candela  - Rodríguez de Cepeda", "line": "30,40", "longitude": "-0.3500404147013441", "latitude": "39.46811774168418", "type": "emt", "town": "Aiora - València" }, "geometry": { "type": "Point", "coordinates": [ -0.350040414701344, 39.468117741684182 ] } },
{ "type": "Feature", "properties": { "id": "1306", "name": "Pont de les Drassanes", "line": "30,4,95,N8", "longitude": "-0.3299745828044704", "latitude": "39.45506261133725", "type": "emt", "town": "Aiora - València" }, "geometry": { "type": "Point", "coordinates": [ -0.32997458280447, 39.455062611337247 ] } },
{ "type": "Feature", "properties": { "id": "1500", "name": "Sants Just i Pastor - Escultor Esteve Edo", "line": "32", "longitude": "-0.3390583913822912", "latitude": "39.46691242145077", "type": "emt", "town": "Aiora - València" }, "geometry": { "type": "Point", "coordinates": [ -0.339058391382291, 39.466912421450772 ] } },
{ "type": "Feature", "properties": { "id": "1602", "name": "Serradora - Peanya", "line": "99,N9", "longitude": "-0.3375800691131813", "latitude": "39.46279175204722", "type": "emt", "town": "Aiora - València" }, "geometry": { "type": "Point", "coordinates": [ -0.337580069113181, 39.462791752047224 ] } },
{ "type": "Feature", "properties": { "id": "1239", "name": "Primat Reig - Xàbia", "line": "10,90,98", "longitude": "-0.356596088318809", "latitude": "39.47901319651021", "type": "emt", "town": "La Roqueta - València" }, "geometry": { "type": "Point", "coordinates": [ -0.356596088318809, 39.479013196510209 ] } },
{ "type": "Feature", "properties": { "id": "1538", "name": "França-Albereda", "line": "19,N9", "longitude": "-0.3521466572906376", "latitude": "39.46005182152625", "type": "emt", "town": "La Roqueta - València" }, "geometry": { "type": "Point", "coordinates": [ -0.352146657290638, 39.46005182152625 ] } },
{ "type": "Feature", "properties": { "id": "1540", "name": "França-Trafalgar", "line": "19,N9", "longitude": "-0.3456023537080434", "latitude": "39.45861530746599", "type": "emt", "town": "La Gran Via - València" }, "geometry": { "type": "Point", "coordinates": [ -0.345602353708043, 39.45861530746599 ] } },
{ "type": "Feature", "properties": { "id": "1427", "name": "Jacinto Benavente - Borriana", "line": "13,24,25,95", "longitude": "-0.3628317805160905", "latitude": "39.46632864471147", "type": "emt", "town": "La Gran Via - València" }, "geometry": { "type": "Point", "coordinates": [ -0.362831780516091, 39.466328644711474 ] } },
{ "type": "Feature", "properties": { "id": "1764", "name": "Jacinto Benavente - Palau de la Música", "line": "24,25,95", "longitude": "-0.3625584170618676", "latitude": "39.46683775245832", "type": "emt", "town": "La Gran Via - València" }, "geometry": { "type": "Point", "coordinates": [ -0.362558417061868, 39.466837752458325 ] } },
{ "type": "Feature", "properties": { "id": "725", "name": "Regne de València - Mestre Gozalbo", "line": "19", "longitude": "-0.3676614927874143", "latitude": "39.46384499789331", "type": "emt", "town": "La Gran Via - València" }, "geometry": { "type": "Point", "coordinates": [ -0.367661492787414, 39.463844997893311 ] } },
{ "type": "Feature", "properties": { "id": "268", "name": "Joan XXIII  - Félix del Río", "line": "60,64", "longitude": "-0.382308920049371", "latitude": "39.4912216304024", "type": "emt", "town": "La Gran Via - València" }, "geometry": { "type": "Point", "coordinates": [ -0.382308920049371, 39.4912216304024 ] } },
{ "type": "Feature", "properties": { "id": "732", "name": "Ciscar - Mestre Racional", "line": "13", "longitude": "-0.3638254251834878", "latitude": "39.46350784461669", "type": "emt", "town": "La Gran Via - València" }, "geometry": { "type": "Point", "coordinates": [ -0.363825425183488, 39.463507844616686 ] } },
{ "type": "Feature", "properties": { "id": "124", "name": "Blasco Ibáñez - José María Orense", "line": "31,81,N1", "longitude": "-0.340052576937374", "latitude": "39.47216399351745", "type": "emt", "town": "La Gran Via - València" }, "geometry": { "type": "Point", "coordinates": [ -0.340052576937374, 39.472163993517448 ] } },
{ "type": "Feature", "properties": { "id": "733", "name": "Ciscar - Borriana", "line": "13,40", "longitude": "-0.3651252342108835", "latitude": "39.46545629263329", "type": "emt", "town": "La Gran Via - València" }, "geometry": { "type": "Point", "coordinates": [ -0.365125234210884, 39.465456292633291 ] } },
{ "type": "Feature", "properties": { "id": "734", "name": "Ciscar - Comte d'Altea", "line": "13,40", "longitude": "-0.3663166285891424", "latitude": "39.46717694166819", "type": "emt", "town": "La Gran Via - València" }, "geometry": { "type": "Point", "coordinates": [ -0.366316628589142, 39.467176941668193 ] } },
{ "type": "Feature", "properties": { "id": "514", "name": "Tres Creus  - Llombai", "line": "71,73,99,N5", "longitude": "-0.4054479622256522", "latitude": "39.46410335444224", "type": "emt", "town": "Tres Forques - València" }, "geometry": { "type": "Point", "coordinates": [ -0.405447962225652, 39.464103354442237 ] } },
{ "type": "Feature", "properties": { "id": "1307", "name": "Tres Creus - Llombai", "line": "70", "longitude": "-0.4052608054741534", "latitude": "39.46439767508708", "type": "emt", "town": "Tres Forques - València" }, "geometry": { "type": "Point", "coordinates": [ -0.405260805474153, 39.464397675087085 ] } },
{ "type": "Feature", "properties": { "id": "1133", "name": "Tossal del Rei", "line": "12,16,N2", "longitude": "-0.3723487535040463", "latitude": "39.49631621156632", "type": "emt", "town": "Tres Forques - València" }, "geometry": { "type": "Point", "coordinates": [ -0.372348753504046, 39.496316211566324 ] } },
{ "type": "Feature", "properties": { "id": "62", "name": "Mercat de Natzaret", "line": "30,4,95,N8", "longitude": "-0.3341561776066225", "latitude": "39.45023729846008", "type": "emt", "town": "Tres Forques - València" }, "geometry": { "type": "Point", "coordinates": [ -0.334156177606622, 39.450237298460074 ] } },
{ "type": "Feature", "properties": { "id": "60", "name": "Pont de les Drassanes", "line": "30,4,95,N8", "longitude": "-0.3306578542809831", "latitude": "39.454493936024", "type": "emt", "town": "Tres Forques - València" }, "geometry": { "type": "Point", "coordinates": [ -0.330657854280983, 39.454493936024001 ] } },
{ "type": "Feature", "properties": { "id": "1132", "name": "Músic Espí - Gravador Fabregat", "line": "12", "longitude": "-0.3741982329483814", "latitude": "39.49696940247059", "type": "emt", "town": "Camí Fondo - València" }, "geometry": { "type": "Point", "coordinates": [ -0.374198232948381, 39.49696940247059 ] } },
{ "type": "Feature", "properties": { "id": "1617", "name": "Port - Riu Escalona", "line": "4,92,N8", "longitude": "-0.3526632875858894", "latitude": "39.46577323434218", "type": "emt", "town": "Camí Fondo - València" }, "geometry": { "type": "Point", "coordinates": [ -0.352663287585889, 39.46577323434218 ] } },
{ "type": "Feature", "properties": { "id": "1055", "name": "Aragó - Ernest Ferrer", "line": "10,12,79,93,N1", "longitude": "-0.3568933589312842", "latitude": "39.4728157944994", "type": "emt", "town": "Patraix - València" }, "geometry": { "type": "Point", "coordinates": [ -0.356893358931284, 39.472815794499397 ] } },
{ "type": "Feature", "properties": { "id": "1038", "name": "Arxiduc Carles  - Tres Forques", "line": "72", "longitude": "-0.3964277824215156", "latitude": "39.46344373708717", "type": "emt", "town": "Patraix - València" }, "geometry": { "type": "Point", "coordinates": [ -0.396427782421516, 39.463443737087168 ] } },
{ "type": "Feature", "properties": { "id": "1254", "name": "Cid - Aiora", "line": "67,70,89,93,N4", "longitude": "-0.3923113127113459", "latitude": "39.46723397815293", "type": "emt", "town": "Patraix - València" }, "geometry": { "type": "Point", "coordinates": [ -0.392311312711346, 39.467233978152933 ] } },
{ "type": "Feature", "properties": { "id": "1083", "name": "Aragó", "line": "10,12,80,93,N1", "longitude": "-0.3578193955924653", "latitude": "39.47279886321418", "type": "emt", "town": "Patraix - València" }, "geometry": { "type": "Point", "coordinates": [ -0.357819395592465, 39.47279886321418 ] } },
{ "type": "Feature", "properties": { "id": "531", "name": "Tres Forques  - Arxiduc Carles", "line": "71,N5", "longitude": "-0.396888496609976", "latitude": "39.4637962038548", "type": "emt", "town": "Patraix - València" }, "geometry": { "type": "Point", "coordinates": [ -0.396888496609976, 39.463796203854798 ] } },
{ "type": "Feature", "properties": { "id": "511", "name": "Tres Forques  - Arxiduc Carles", "line": "71,N5", "longitude": "-0.3968986906759247", "latitude": "39.4640549316569", "type": "emt", "town": "Patraix - València" }, "geometry": { "type": "Point", "coordinates": [ -0.396898690675925, 39.464054931656896 ] } },
{ "type": "Feature", "properties": { "id": "532", "name": "Tres Forques - Churat i Saurí", "line": "71", "longitude": "-0.3919199326488302", "latitude": "39.46400204524694", "type": "emt", "town": "Patraix - València" }, "geometry": { "type": "Point", "coordinates": [ -0.39191993264883, 39.464002045246943 ] } },
{ "type": "Feature", "properties": { "id": "1678", "name": "Cardenal Benlloch - Sants Just i Pastor", "line": "18,89", "longitude": "-0.3538671785622053", "latitude": "39.47214092415209", "type": "emt", "town": "Patraix - València" }, "geometry": { "type": "Point", "coordinates": [ -0.353867178562205, 39.472140924152086 ] } },
{ "type": "Feature", "properties": { "id": "1744", "name": "Albereda  - L'Hemisfèric", "line": "94", "longitude": "-0.3529621413320647", "latitude": "39.45943549573665", "type": "emt", "town": "Patraix - València" }, "geometry": { "type": "Point", "coordinates": [ -0.352962141332065, 39.459435495736649 ] } },
{ "type": "Feature", "properties": { "id": "1748", "name": "Marítim - Serradora", "line": "99", "longitude": "-0.336123890213226", "latitude": "39.46401999477247", "type": "emt", "town": "Patraix - València" }, "geometry": { "type": "Point", "coordinates": [ -0.336123890213226, 39.464019994772471 ] } },
{ "type": "Feature", "properties": { "id": "1751", "name": "La Malva-rosa - Mendizàbal", "line": "99", "longitude": "-0.3292264613206788", "latitude": "39.48387408481384", "type": "emt", "town": "Russafa - València" }, "geometry": { "type": "Point", "coordinates": [ -0.329226461320679, 39.483874084813834 ] } },
{ "type": "Feature", "properties": { "id": "2127", "name": "Filipines - Gibraltar", "line": "8", "longitude": "-0.3788205964376223", "latitude": "39.4607583215138", "type": "emt", "town": "Russafa - València" }, "geometry": { "type": "Point", "coordinates": [ -0.378820596437622, 39.460758321513801 ] } },
{ "type": "Feature", "properties": { "id": "1769", "name": "la Murta  - Cementeri", "line": "14,9", "longitude": "-0.3780329532518725", "latitude": "39.42507766761667", "type": "emt", "town": "Russafa - València" }, "geometry": { "type": "Point", "coordinates": [ -0.378032953251873, 39.425077667616669 ] } },
{ "type": "Feature", "properties": { "id": "1839", "name": "Orriols", "line": "11,12", "longitude": "-0.3683987623827159", "latitude": "39.49289523298874", "type": "emt", "town": "Russafa - València" }, "geometry": { "type": "Point", "coordinates": [ -0.368398762382716, 39.492895232988744 ] } },
{ "type": "Feature", "properties": { "id": "708", "name": "Germanies - Sevilla", "line": "15,19,79,92,93", "longitude": "-0.3746594381490225", "latitude": "39.46435627681756", "type": "emt", "town": "Russafa - València" }, "geometry": { "type": "Point", "coordinates": [ -0.374659438149022, 39.464356276817561 ] } },
{ "type": "Feature", "properties": { "id": "717", "name": "Cadis - Puerto Rico", "line": "7,N7", "longitude": "-0.3736885919328791", "latitude": "39.46186663193128", "type": "emt", "town": "Russafa - València" }, "geometry": { "type": "Point", "coordinates": [ -0.373688591932879, 39.461866631931279 ] } },
{ "type": "Feature", "properties": { "id": "718", "name": "Cadis - dels Centelles", "line": "7,N7", "longitude": "-0.3718067286186897", "latitude": "39.4592662745097", "type": "emt", "town": "Russafa - València" }, "geometry": { "type": "Point", "coordinates": [ -0.37180672861869, 39.459266274509702 ] } },
{ "type": "Feature", "properties": { "id": "137", "name": "Amistat", "line": "32", "longitude": "-0.3498450829022355", "latitude": "39.47030864145061", "type": "emt", "town": "Russafa - València" }, "geometry": { "type": "Point", "coordinates": [ -0.349845082902235, 39.470308641450607 ] } },
{ "type": "Feature", "properties": { "id": "728", "name": "Pintor Salvador Abril - Mestre J. Serrano", "line": "14,15,35,6,N9", "longitude": "-0.3709369933054984", "latitude": "39.46375709314925", "type": "emt", "town": "Russafa - València" }, "geometry": { "type": "Point", "coordinates": [ -0.370936993305498, 39.463757093149248 ] } },
{ "type": "Feature", "properties": { "id": "1613", "name": "Comissaria Policia - Marítim", "line": "95,N9", "longitude": "-0.3284097712575995", "latitude": "39.46290421170919", "type": "emt", "town": "Russafa - València" }, "geometry": { "type": "Point", "coordinates": [ -0.3284097712576, 39.462904211709187 ] } },
{ "type": "Feature", "properties": { "id": "886", "name": "Peris i Valero - Pintor Salvador Abril", "line": "14,35,N9", "longitude": "-0.3678117213164141", "latitude": "39.46042515743724", "type": "emt", "town": "Russafa - València" }, "geometry": { "type": "Point", "coordinates": [ -0.367811721316414, 39.460425157437243 ] } },
{ "type": "Feature", "properties": { "id": "2006", "name": "Pare Esteban Pernet  - Centre Comercial", "line": "71", "longitude": "-0.4125941963771926", "latitude": "39.46699042836268", "type": "emt", "town": "Penya-Roja - València" }, "geometry": { "type": "Point", "coordinates": [ -0.412594196377193, 39.466990428362678 ] } },
{ "type": "Feature", "properties": { "id": "1462", "name": "Albereda - Pont del Regne", "line": "19,40,94", "longitude": "-0.3567920097923907", "latitude": "39.46097446479127", "type": "emt", "town": "Penya-Roja - València" }, "geometry": { "type": "Point", "coordinates": [ -0.356792009792391, 39.460974464791271 ] } },
{ "type": "Feature", "properties": { "id": "951", "name": "Cases de Bàrcena III -", "line": "16", "longitude": "-0.3573106563254097", "latitude": "39.52234005222628", "type": "emt", "town": "Penya-Roja - València" }, "geometry": { "type": "Point", "coordinates": [ -0.35731065632541, 39.522340052226276 ] } },
{ "type": "Feature", "properties": { "id": "1813", "name": "Reus", "line": "98", "longitude": "-0.382808970297176", "latitude": "39.48572281620208", "type": "emt", "town": "Penya-Roja - València" }, "geometry": { "type": "Point", "coordinates": [ -0.382808970297176, 39.485722816202077 ] } },
{ "type": "Feature", "properties": { "id": "1826", "name": "Joan XXIII  - Félix del Río", "line": "64", "longitude": "-0.3824033616671084", "latitude": "39.49053076657013", "type": "emt", "town": "Penya-Roja - València" }, "geometry": { "type": "Point", "coordinates": [ -0.382403361667108, 39.490530766570132 ] } },
{ "type": "Feature", "properties": { "id": "1950", "name": "Illes Canàries", "line": "35", "longitude": "-0.3491471614381523", "latitude": "39.46316071041991", "type": "emt", "town": "Penya-Roja - València" }, "geometry": { "type": "Point", "coordinates": [ -0.349147161438152, 39.463160710419906 ] } },
{ "type": "Feature", "properties": { "id": "1745", "name": "Albereda  - Museu de les Ciències", "line": "94", "longitude": "-0.3502611281751168", "latitude": "39.45757031587636", "type": "emt", "town": "Penya-Roja - València" }, "geometry": { "type": "Point", "coordinates": [ -0.350261128175117, 39.45757031587636 ] } },
{ "type": "Feature", "properties": { "id": "1759", "name": "Menorca -  Centre Comercial", "line": "94,99,N9", "longitude": "-0.345891153851769", "latitude": "39.45742892594355", "type": "emt", "town": "Penya-Roja - València" }, "geometry": { "type": "Point", "coordinates": [ -0.345891153851769, 39.457428925943553 ] } },
{ "type": "Feature", "properties": { "id": "1833", "name": "Centre de Salut Assutzena", "line": "12,N10", "longitude": "-0.3907715436438417", "latitude": "39.49406711392466", "type": "emt", "town": "Penya-Roja - València" }, "geometry": { "type": "Point", "coordinates": [ -0.390771543643842, 39.494067113924665 ] } },
{ "type": "Feature", "properties": { "id": "1837", "name": "Riu Nervión - Riu Segre", "line": "12,N10", "longitude": "-0.3821985883275548", "latitude": "39.49565698533578", "type": "emt", "town": "Penya-Roja - València" }, "geometry": { "type": "Point", "coordinates": [ -0.382198588327555, 39.495656985335778 ] } },
{ "type": "Feature", "properties": { "id": "1963", "name": "Club Nàutic", "line": "15", "longitude": "-0.3347437428105366", "latitude": "39.42797378068089", "type": "emt", "town": "La Creu del Grau - València" }, "geometry": { "type": "Point", "coordinates": [ -0.334743742810537, 39.427973780680887 ] } },
{ "type": "Feature", "properties": { "id": "1593", "name": "Eivissa - Prof.Vicente Llorens", "line": "30,4,92,N8", "longitude": "-0.3395451078194701", "latitude": "39.46104554265735", "type": "emt", "town": "La Creu del Grau - València" }, "geometry": { "type": "Point", "coordinates": [ -0.33954510781947, 39.461045542657345 ] } },