{
"type": "FeatureCollection",
"crs": { "type": "name", "properties": { "name": "urn:ogc:def:crs:OGC:1.3:CRS84" } },
"features": [
{ "type": "Feature", "properties": { "id": "237118", "nombre": "Mas del Rosari", "linea": "4", "longitud": "-0.435824990305418", "latitud": "39.52495960421599", "tipo": "metrovalencia", "municipio": "La Coma - València" }, "geometry": { "type": "Point", "coordinates": [ -0.435824990305418, 39.524959604215987 ] } },
{ "type": "Feature", "properties": { "id": "237200", "nombre": "La Cova", "linea": "9", "longitud": "-0.4844444397042972", "latitud": "39.49888996240954", "tipo": "metrovalencia", "municipio": "Manises" }, "geometry": { "type": "Point", "coordinates": [ -0.484444439704297, 39.498889962409542 ] } },
{ "type": "Feature", "properties": { "id": "237215", "nombre": "Aeroport", "linea": "3,5", "longitud": "-0.4749194388141947", "latitud": "39.49236683054559", "tipo": "metrovalencia", "municipio": "Manises" }, "geometry": { "type": "Point", "coordinates": [ -0.474919438814195, 39.492366830545592 ] } },
{ "type": "Feature", "properties": { "id": "237216", "nombre": "Almàssera", "linea": "3", "longitud": "-0.3542666730314796", "latitud": "39.51225666184344", "tipo": "metrovalencia", "municipio": "Almàssera" }, "geometry": { "type": "Point", "coordinates": [ -0.35426667303148, 39.512256661843445 ] } },
{ "type": "Feature", "properties": { "id": "237142", "nombre": "Colón", "linea": "3,5,7,9", "longitud": "-0.3709277814305924", "latitud": "39.47014621855607", "tipo": "metrovalencia", "municipio": "Sant Francesc - València" }, "geometry": { "type": "Point", "coordinates": [ -0.370927781430592, 39.470146218556067 ] } },
{ "type": "Feature", "properties": { "id": "237133", "nombre": "Ayora", "linea": "5,7", "longitud": "-0.3429694478792123", "latitud": "39.46642688895786", "tipo": "metrovalencia", "municipio": "Ayora - València" }, "geometry": { "type": "Point", "coordinates": [ -0.342969447879212, 39.466426888957855 ] } },
{ "type": "Feature", "properties": { "id": "237176", "nombre": "Bétera", "linea": "1", "longitud": "-0.4575305577359146", "latitud": "39.5906067291247", "tipo": "metrovalencia", "municipio": "Bétera" }, "geometry": { "type": "Point", "coordinates": [ -0.457530557735915, 39.590606729124701 ] } },
{ "type": "Feature", "properties": { "id": "237177", "nombre": "Torrent Avinguda", "linea": "2,7", "longitud": "-0.4728333352276692", "latitud": "39.43181232610215", "tipo": "metrovalencia", "municipio": "Torrent" }, "geometry": { "type": "Point", "coordinates": [ -0.472833335227669, 39.431812326102154 ] } },
{ "type": "Feature", "properties": { "id": "237174", "nombre": "Alberic", "linea": "1", "longitud": "-0.5235260124730562", "latitud": "39.11705020984888", "tipo": "metrovalencia", "municipio": "Alberic" }, "geometry": { "type": "Point", "coordinates": [ -0.523526012473056, 39.117050209848877 ] } },
{ "type": "Feature", "properties": { "id": "237169", "nombre": "Carlet", "linea": "1", "longitud": "-0.5249416827217579", "latitud": "39.22679905059184", "tipo": "metrovalencia", "municipio": "Carlet" }, "geometry": { "type": "Point", "coordinates": [ -0.524941682721758, 39.226799050591843 ] } },
{ "type": "Feature", "properties": { "id": "237160", "nombre": "Col·legi El Vedat", "linea": "1", "longitud": "-0.460652768267218", "latitud": "39.42313388933493", "tipo": "metrovalencia", "municipio": "Torrent" }, "geometry": { "type": "Point", "coordinates": [ -0.460652768267218, 39.423133889334935 ] } },
{ "type": "Feature", "properties": { "id": "237242", "nombre": "Moreres", "linea": "10", "longitud": "-0.3384079998144471", "latitud": "39.45015003927551", "tipo": "metrovalencia", "municipio": "València" }, "geometry": { "type": "Point", "coordinates": [ -0.338407999814447, 39.450150039275506 ] } },
{ "type": "Feature", "properties": { "id": "237139", "nombre": "Sant Isidre", "linea": "1,2,7", "longitud": "-0.4028027651123522", "latitud": "39.45103458536643", "tipo": "metrovalencia", "municipio": "Sant Isidre - València" }, "geometry": { "type": "Point", "coordinates": [ -0.402802765112352, 39.451034585366429 ] } },
{ "type": "Feature", "properties": { "id": "237126", "nombre": "Sant Miquel dels Reis", "linea": "1,6", "longitud": "-0.3684949876810832", "latitud": "39.49721912509855", "tipo": "metrovalencia", "municipio": "València" }, "geometry": { "type": "Point", "coordinates": [ -0.368494987681083, 39.497219125098553 ] } },
{ "type": "Feature", "properties": { "id": "237199", "nombre": "La Presa", "linea": "9", "longitud": "-0.5158333181519046", "latitud": "39.51722339745137", "tipo": "metrovalencia", "municipio": "Manises" }, "geometry": { "type": "Point", "coordinates": [ -0.515833318151905, 39.517223397451374 ] } },
{ "type": "Feature", "properties": { "id": "237197", "nombre": "Masia de Traver", "linea": "9", "longitud": "-0.546666681316191", "latitud": "39.53805545992607", "tipo": "metrovalencia", "municipio": "Riba-roja de Túria" }, "geometry": { "type": "Point", "coordinates": [ -0.546666681316191, 39.538055459926071 ] } },
{ "type": "Feature", "properties": { "id": "237140", "nombre": "Jesús", "linea": "1,2,7", "longitud": "-0.3845416610541635", "latitud": "39.45920185236387", "tipo": "metrovalencia", "municipio": "València" }, "geometry": { "type": "Point", "coordinates": [ -0.384541661054164, 39.459201852363869 ] } },
{ "type": "Feature", "properties": { "id": "237141", "nombre": "Patraix", "linea": "1,2,7", "longitud": "-0.3905083240820051", "latitud": "39.45645145583467", "tipo": "metrovalencia", "municipio": "València" }, "geometry": { "type": "Point", "coordinates": [ -0.390508324082005, 39.456451455834667 ] } },
{ "type": "Feature", "properties": { "id": "237164", "nombre": "Omet", "linea": "1", "longitud": "-0.4736869934735695", "latitud": "39.35324482140709", "tipo": "metrovalencia", "municipio": "Picassent" }, "geometry": { "type": "Point", "coordinates": [ -0.47368699347357, 39.353244821407088 ] } },
{ "type": "Feature", "properties": { "id": "237137", "nombre": "Paiporta", "linea": "1,2,7", "longitud": "-0.4180611073753367", "latitud": "39.43226246036189", "tipo": "metrovalencia", "municipio": "Paiporta" }, "geometry": { "type": "Point", "coordinates": [ -0.418061107375337, 39.432262460361891 ] } },
{ "type": "Feature", "properties": { "id": "237150", "nombre": "Burjassot - Godella", "linea": "1", "longitud": "-0.4119972293308535", "latitud": "39.51353077116404", "tipo": "metrovalencia", "municipio": "Burjassot" }, "geometry": { "type": "Point", "coordinates": [ -0.411997229330854, 39.513530771164035 ] } },
{ "type": "Feature", "properties": { "id": "237149", "nombre": "Godella", "linea": "1", "longitud": "-0.4144555629587507", "latitud": "39.51950458696169", "tipo": "metrovalencia", "municipio": "Godella" }, "geometry": { "type": "Point", "coordinates": [ -0.414455562958751, 39.519504586961688 ] } },
{ "type": "Feature", "properties": { "id": "237157", "nombre": "Horta Vella", "linea": "1", "longitud": "-0.4431444406472527", "latitud": "39.58193210726515", "tipo": "metrovalencia", "municipio": "Bétera" }, "geometry": { "type": "Point", "coordinates": [ -0.443144440647253, 39.581932107265153 ] } },
{ "type": "Feature", "properties": { "id": "237123", "nombre": "Alfauir", "linea": "1,6", "longitud": "-0.366032988194516", "latitud": "39.48929981386816", "tipo": "metrovalencia", "municipio": "València" }, "geometry": { "type": "Point", "coordinates": [ -0.366032988194516, 39.489299813868165 ] } },
{ "type": "Feature", "properties": { "id": "237115", "nombre": "Parc Científic", "linea": "4", "longitud": "-0.4226219955791658", "latitud": "39.51514057309938", "tipo": "metrovalencia", "municipio": "Paterna" }, "geometry": { "type": "Point", "coordinates": [ -0.422621995579166, 39.51514057309938 ] } },
{ "type": "Feature", "properties": { "id": "237116", "nombre": "Tomás y Valiente", "linea": "4", "longitud": "-0.4256361123531358", "latitud": "39.5197716152865", "tipo": "metrovalencia", "municipio": "Paterna" }, "geometry": { "type": "Point", "coordinates": [ -0.425636112353136, 39.519771615286501 ] } },
{ "type": "Feature", "properties": { "id": "237232", "nombre": "Francesc Cubells", "linea": "6,8", "longitud": "-0.3339729906818728", "latitud": "39.46324543123338", "tipo": "metrovalencia", "municipio": "València" }, "geometry": { "type": "Point", "coordinates": [ -0.333972990681873, 39.463245431233382 ] } },
{ "type": "Feature", "properties": { "id": "237233", "nombre": "Grau - La Marina", "linea": "6,8", "longitud": "-0.3294720054933793", "latitud": "39.46310047324224", "tipo": "metrovalencia", "municipio": "València" }, "geometry": { "type": "Point", "coordinates": [ -0.329472005493379, 39.463100473242235 ] } },
{ "type": "Feature", "properties": { "id": "237127", "nombre": "Tossal del Rei", "linea": "1,6", "longitud": "-0.3725369875330207", "latitud": "39.49595264605946", "tipo": "metrovalencia", "municipio": "València" }, "geometry": { "type": "Point", "coordinates": [ -0.372536987533021, 39.495952646059457 ] } },
{ "type": "Feature", "properties": { "id": "237209", "nombre": "Av. del Cid", "linea": "3,5,9", "longitud": "-0.3975749912937578", "latitud": "39.46821979621166", "tipo": "metrovalencia", "municipio": "València" }, "geometry": { "type": "Point", "coordinates": [ -0.397574991293758, 39.468219796211656 ] } },
{ "type": "Feature", "properties": { "id": "237195", "nombre": "Llíria", "linea": "2", "longitud": "-0.5902777912103784", "latitud": "39.62284092097164", "tipo": "metrovalencia", "municipio": "Llíria" }, "geometry": { "type": "Point", "coordinates": [ -0.590277791210378, 39.62284092097164 ] } },
{ "type": "Feature", "properties": { "id": "237155", "nombre": "Àngel Guimerà", "linea": "1,2,3,5,9", "longitud": "-0.3850361106717916", "latitud": "39.4703026212431", "tipo": "metrovalencia", "municipio": "València" }, "geometry": { "type": "Point", "coordinates": [ -0.385036110671792, 39.4703026212431 ] } },
{ "type": "Feature", "properties": { "id": "237181", "nombre": "Campament", "linea": "2", "longitud": "-0.4353230003048909", "latitud": "39.4958458342054", "tipo": "metrovalencia", "municipio": "Paterna" }, "geometry": { "type": "Point", "coordinates": [ -0.435323000304891, 39.495845834205404 ] } },
{ "type": "Feature", "properties": { "id": "237134", "nombre": "Picanya", "linea": "1,2,7", "longitud": "-0.4371583466428395", "latitud": "39.43312076720112", "tipo": "metrovalencia", "municipio": "Picanya" }, "geometry": { "type": "Point", "coordinates": [ -0.43715834664284, 39.433120767201117 ] } },
{ "type": "Feature", "properties": { "id": "237219", "nombre": "Albalat dels Sorells", "linea": "3", "longitud": "-0.3482888941423446", "latitud": "39.54526523737024", "tipo": "metrovalencia", "municipio": "Albalat dels Sorells" }, "geometry": { "type": "Point", "coordinates": [ -0.348288894142345, 39.545265237370238 ] } },
{ "type": "Feature", "properties": { "id": "237102", "nombre": "Reus", "linea": "4", "longitud": "-0.3817070127981355", "latitud": "39.4859657684198", "tipo": "metrovalencia", "municipio": "València" }, "geometry": { "type": "Point", "coordinates": [ -0.381707012798136, 39.485965768419803 ] } },
{ "type": "Feature", "properties": { "id": "237104", "nombre": "Trànsits", "linea": "4", "longitud": "-0.3872583214747722", "latitud": "39.4895630282213", "tipo": "metrovalencia", "municipio": "València" }, "geometry": { "type": "Point", "coordinates": [ -0.387258321474772, 39.489563028221298 ] } },
{ "type": "Feature", "properties": { "id": "237105", "nombre": "Benicalap", "linea": "4", "longitud": "-0.3909277913244515", "latitud": "39.49002842050058", "tipo": "metrovalencia", "municipio": "València" }, "geometry": { "type": "Point", "coordinates": [ -0.390927791324452, 39.490028420500579 ] } },
{ "type": "Feature", "properties": { "id": "237095", "nombre": "La Carrasca", "linea": "1,4,6", "longitud": "-0.3448249995342744", "latitud": "39.47966007404467", "tipo": "metrovalencia", "municipio": "València" }, "geometry": { "type": "Point", "coordinates": [ -0.344824999534274, 39.479660074044666 ] } },
{ "type": "Feature", "properties": { "id": "237129", "nombre": "Dr. Lluch", "linea": "4,6", "longitud": "-0.3281527763083297", "latitud": "39.46930698572537", "tipo": "metrovalencia", "municipio": "València" }, "geometry": { "type": "Point", "coordinates": [ -0.32815277630833, 39.469306985725368 ] } },
{ "type": "Feature", "properties": { "id": "237096", "nombre": "Universitat Politècnica", "linea": "1,4,6", "longitud": "-0.3504999876195505", "latitud": "39.48131565217615", "tipo": "metrovalencia", "municipio": "València" }, "geometry": { "type": "Point", "coordinates": [ -0.350499987619551, 39.48131565217615 ] } },
{ "type": "Feature", "properties": { "id": "237214", "nombre": "Alboraia Peris Aragó", "linea": "3,9", "longitud": "-0.3523277634823597", "latitud": "39.50076297918577", "tipo": "metrovalencia", "municipio": "Alboraia" }, "geometry": { "type": "Point", "coordinates": [ -0.35232776348236, 39.500762979185772 ] } },
{ "type": "Feature", "properties": { "id": "237193", "nombre": "Fondo de Benaguasil", "linea": "2", "longitud": "-0.5780805350632693", "latitud": "39.59272388566321", "tipo": "metrovalencia", "municipio": "Benaguasil" }, "geometry": { "type": "Point", "coordinates": [ -0.578080535063269, 39.592723885663212 ] } },
{ "type": "Feature", "properties": { "id": "237191", "nombre": "Gallipont - Torre del Virrei", "linea": "2", "longitud": "-0.5419166688737088", "latitud": "39.56866459072798", "tipo": "metrovalencia", "municipio": "L'Eliana" }, "geometry": { "type": "Point", "coordinates": [ -0.541916668873709, 39.568664590727977 ] } },
{ "type": "Feature", "properties": { "id": "237184", "nombre": "Fuente del Jarro", "linea": "2", "longitud": "-0.4645166693571574", "latitud": "39.5111732875743", "tipo": "metrovalencia", "municipio": "Paterna" }, "geometry": { "type": "Point", "coordinates": [ -0.464516669357157, 39.511173287574302 ] } },
{ "type": "Feature", "properties": { "id": "237171", "nombre": "L'Alcúdia", "linea": "1", "longitud": "-0.5102638606951693", "latitud": "39.19381336356977", "tipo": "metrovalencia", "municipio": "L'Alcúdia" }, "geometry": { "type": "Point", "coordinates": [ -0.510263860695169, 39.193813363569774 ] } },
{ "type": "Feature", "properties": { "id": "237162", "nombre": "Sant Ramon", "linea": "1", "longitud": "-0.4672611054062144", "latitud": "39.38486484624794", "tipo": "metrovalencia", "municipio": "Picassent" }, "geometry": { "type": "Point", "coordinates": [ -0.467261105406214, 39.384864846247936 ] } },
{ "type": "Feature", "properties": { "id": "237106", "nombre": "Garbí", "linea": "4", "longitud": "-0.3945111033066965", "latitud": "39.4922905363387", "tipo": "metrovalencia", "municipio": "València" }, "geometry": { "type": "Point", "coordinates": [ -0.394511103306696, 39.4922905363387 ] } },
{ "type": "Feature", "properties": { "id": "237107", "nombre": "Florista", "linea": "4", "longitud": "-0.3968166705262069", "latitud": "39.49443439623788", "tipo": "metrovalencia", "municipio": "València" }, "geometry": { "type": "Point", "coordinates": [ -0.396816670526207, 39.494434396237878 ] } },
{ "type": "Feature", "properties": { "id": "237235", "nombre": "Neptú", "linea": "8", "longitud": "-0.3258508438284417", "latitud": "39.46325306028758", "tipo": "metrovalencia", "municipio": "València" }, "geometry": { "type": "Point", "coordinates": [ -0.325850843828442, 39.463253060287585 ] } },
{ "type": "Feature", "properties": { "id": "237212", "nombre": "Machado", "linea": "3,5,7,9", "longitud": "-0.3587944504398191", "latitud": "39.49243168035884", "tipo": "metrovalencia", "municipio": "València" }, "geometry": { "type": "Point", "coordinates": [ -0.358794450439819, 39.492431680358841 ] } },
{ "type": "Feature", "properties": { "id": "237201", "nombre": "Roses", "linea": "3,5,9", "longitud": "-0.4672361011828295", "latitud": "39.49264911773043", "tipo": "metrovalencia", "municipio": "Manises" }, "geometry": { "type": "Point", "coordinates": [ -0.46723610118283, 39.49264911773043 ] } },
{ "type": "Feature", "properties": { "id": "237131", "nombre": "Amistat", "linea": "5,7", "longitud": "-0.3503944579110447", "latitud": "39.47033313859402", "tipo": "metrovalencia", "municipio": "València" }, "geometry": { "type": "Point", "coordinates": [ -0.350394457911045, 39.470333138594022 ] } },
{ "type": "Feature", "properties": { "id": "237132", "nombre": "Aragó", "linea": "5,7", "longitud": "-0.3581166561927953", "latitud": "39.47262577229274", "tipo": "metrovalencia", "municipio": "València" }, "geometry": { "type": "Point", "coordinates": [ -0.358116656192795, 39.472625772292737 ] } },
{ "type": "Feature", "properties": { "id": "237175", "nombre": "Castelló", "linea": "1", "longitud": "-0.5160138604081964", "latitud": "39.08400730254416", "tipo": "metrovalencia", "municipio": "Castelló" }, "geometry": { "type": "Point", "coordinates": [ -0.516013860408196, 39.084007302544158 ] } },
{ "type": "Feature", "properties": { "id": "237167", "nombre": "Alginet", "linea": "1", "longitud": "-0.4748859996779908", "latitud": "39.26293949225646", "tipo": "metrovalencia", "municipio": "Alginet" }, "geometry": { "type": "Point", "coordinates": [ -0.474885999677991, 39.262939492256457 ] } },
{ "type": "Feature", "properties": { "id": "237238", "nombre": "Quatre Carreres", "linea": "10", "longitud": "-0.3601250002310422", "latitud": "39.45244703954607", "tipo": "metrovalencia", "municipio": "València" }, "geometry": { "type": "Point", "coordinates": [ -0.360125000231042, 39.452447039546065 ] } },
{ "type": "Feature", "properties": { "id": "237243", "nombre": "Oceanogràfic", "linea": "10", "longitud": "-0.3473420005329418", "latitud": "39.4520380392216", "tipo": "metrovalencia", "municipio": "València" }, "geometry": { "type": "Point", "coordinates": [ -0.347342000532942, 39.452038039221598 ] } },
{ "type": "Feature", "properties": { "id": "237108", "nombre": "Palau de Congressos", "linea": "4", "longitud": "-0.4001416565499959", "latitud": "39.49718097783796", "tipo": "metrovalencia", "municipio": "València" }, "geometry": { "type": "Point", "coordinates": [ -0.400141656549996, 39.497180977837964 ] } },
{ "type": "Feature", "properties": { "id": "237112", "nombre": "Campus", "linea": "4", "longitud": "-0.4174583255801421", "latitud": "39.5072212611679", "tipo": "metrovalencia", "municipio": "Burjassot" }, "geometry": { "type": "Point", "coordinates": [ -0.417458325580142, 39.507221261167899 ] } },
{ "type": "Feature", "properties": { "id": "237187", "nombre": "Entrepins", "linea": "2", "longitud": "-0.5139539842919837", "latitud": "39.54333500081282", "tipo": "metrovalencia", "municipio": "L'Eliana" }, "geometry": { "type": "Point", "coordinates": [ -0.513953984291984, 39.543335000812817 ] } },
{ "type": "Feature", "properties": { "id": "237151", "nombre": "Burjassot", "linea": "1", "longitud": "-0.4067361054400869", "latitud": "39.50841526165429", "tipo": "metrovalencia", "municipio": "Burjassot" }, "geometry": { "type": "Point", "coordinates": [ -0.406736105440087, 39.508415261654285 ] } },
{ "type": "Feature", "properties": { "id": "237207", "nombre": "Mislata", "linea": "3,5,9", "longitud": "-0.4183055461360697", "latitud": "39.47382358716818", "tipo": "metrovalencia", "municipio": "Mislata" }, "geometry": { "type": "Point", "coordinates": [ -0.41830554613607, 39.473823587168184 ] } },
{ "type": "Feature", "properties": { "id": "237154", "nombre": "Túria", "linea": "1,2", "longitud": "-0.391205548747755", "latitud": "39.47886661649007", "tipo": "metrovalencia", "municipio": "València" }, "geometry": { "type": "Point", "coordinates": [ -0.391205548747755, 39.478866616490073 ] } },
{ "type": "Feature", "properties": { "id": "237186", "nombre": "La Vallesa", "linea": "2", "longitud": "-0.4979777639374245", "latitud": "39.53784183692217", "tipo": "metrovalencia", "municipio": "Paterna" }, "geometry": { "type": "Point", "coordinates": [ -0.497977763937424, 39.537841836922169 ] } },
{ "type": "Feature", "properties": { "id": "237172", "nombre": "Montortal", "linea": "1", "longitud": "-0.5158861281369649", "latitud": "39.17379764708401", "tipo": "metrovalencia", "municipio": "L'Alcúdia" }, "geometry": { "type": "Point", "coordinates": [ -0.515886128136965, 39.173797647084008 ] } },
{ "type": "Feature", "properties": { "id": "237148", "nombre": "Rocafort", "linea": "1", "longitud": "-0.4075777828732151", "latitud": "39.52870945118481", "tipo": "metrovalencia", "municipio": "Rocafort" }, "geometry": { "type": "Point", "coordinates": [ -0.407577782873215, 39.52870945118481 ] } },
{ "type": "Feature", "properties": { "id": "237146", "nombre": "Moncada - Alfara", "linea": "1", "longitud": "-0.3884611127603637", "latitud": "39.54352955038101", "tipo": "metrovalencia", "municipio": "Moncada - Alfara" }, "geometry": { "type": "Point", "coordinates": [ -0.388461112760364, 39.54352955038101 ] } },
{ "type": "Feature", "properties": { "id": "237158", "nombre": "Masies", "linea": "1", "longitud": "-0.4053777748647457", "latitud": "39.56658176543203", "tipo": "metrovalencia", "municipio": "Moncada - Alfara" }, "geometry": { "type": "Point", "coordinates": [ -0.405377774864746, 39.566581765432026 ] } },
{ "type": "Feature", "properties": { "id": "237240", "nombre": "Russafa", "linea": "10", "longitud": "-0.3695310001644055", "latitud": "39.46391303921369", "tipo": "metrovalencia", "municipio": "València" }, "geometry": { "type": "Point", "coordinates": [ -0.369531000164406, 39.463913039213693 ] } },
{ "type": "Feature", "properties": { "id": "237124", "nombre": "Orriols", "linea": "1,6", "longitud": "-0.367663622109971", "latitud": "39.49314884351592", "tipo": "metrovalencia", "municipio": "València" }, "geometry": { "type": "Point", "coordinates": [ -0.367663622109971, 39.493148843515918 ] } },
{ "type": "Feature", "properties": { "id": "237100", "nombre": "Pont de Fusta", "linea": "4", "longitud": "-0.3731805686023085", "latitud": "39.4817810454178", "tipo": "metrovalencia", "municipio": "València" }, "geometry": { "type": "Point", "coordinates": [ -0.373180568602308, 39.481781045417804 ] } },
{ "type": "Feature", "properties": { "id": "237113", "nombre": "Vicent Andrés Estellés", "linea": "4", "longitud": "-0.4198839965021366", "latitud": "39.50856022050974", "tipo": "metrovalencia", "municipio": "Burjassot" }, "geometry": { "type": "Point", "coordinates": [ -0.419883996502137, 39.508560220509743 ] } },
{ "type": "Feature", "properties": { "id": "237114", "nombre": "À Punt", "linea": "4", "longitud": "-0.4247489864954702", "latitud": "39.51220325625923", "tipo": "metrovalencia", "municipio": "Burjassot" }, "geometry": { "type": "Point", "coordinates": [ -0.42474898649547, 39.512203256259227 ] } },
{ "type": "Feature", "properties": { "id": "237117", "nombre": "La Coma", "linea": "4", "longitud": "-0.4317069942770743", "latitud": "39.52157215224739", "tipo": "metrovalencia", "municipio": "Paterna" }, "geometry": { "type": "Point", "coordinates": [ -0.431706994277074, 39.521572152247394 ] } },
{ "type": "Feature", "properties": { "id": "237125", "nombre": "Estadi Ciutat de València", "linea": "1,6", "longitud": "-0.3655419949094195", "latitud": "39.49491886301828", "tipo": "metrovalencia", "municipio": "València" }, "geometry": { "type": "Point", "coordinates": [ -0.365541994909419, 39.494918863018285 ] } },
{ "type": "Feature", "properties": { "id": "237210", "nombre": "Xàtiva", "linea": "3,5,9", "longitud": "-0.377375006091083", "latitud": "39.46718601400712", "tipo": "metrovalencia", "municipio": "València" }, "geometry": { "type": "Point", "coordinates": [ -0.377375006091083, 39.467186014007119 ] } },
{ "type": "Feature", "properties": { "id": "237204", "nombre": "Quart de Poblet", "linea": "3,5,9", "longitud": "-0.4418805541345874", "latitud": "39.48108677099763", "tipo": "metrovalencia", "municipio": "Quart de Poblet" }, "geometry": { "type": "Point", "coordinates": [ -0.441880554134587, 39.481086770997628 ] } },
{ "type": "Feature", "properties": { "id": "237217", "nombre": "Meliana", "linea": "3", "longitud": "-0.3518194551700547", "latitud": "39.52803043467392", "tipo": "metrovalencia", "municipio": "Meliana" }, "geometry": { "type": "Point", "coordinates": [ -0.351819455170055, 39.528030434673923 ] } },
{ "type": "Feature", "properties": { "id": "237218", "nombre": "Foios", "linea": "3", "longitud": "-0.3538694381672806", "latitud": "39.5372238557589", "tipo": "metrovalencia", "municipio": "Foios" }, "geometry": { "type": "Point", "coordinates": [ -0.353869438167281, 39.537223855758896 ] } },
{ "type": "Feature", "properties": { "id": "237180", "nombre": "Les Carolines - Fira", "linea": "2", "longitud": "-0.4254194497239249", "latitud": "39.49873737508498", "tipo": "metrovalencia", "municipio": "València" }, "geometry": { "type": "Point", "coordinates": [ -0.425419449723925, 39.498737375084978 ] } },
{ "type": "Feature", "properties": { "id": "237234", "nombre": "Canyamelar", "linea": "6,8", "longitud": "-0.3279320004180729", "latitud": "39.46652225619434", "tipo": "metrovalencia", "municipio": "València" }, "geometry": { "type": "Point", "coordinates": [ -0.327932000418073, 39.466522256194338 ] } },
{ "type": "Feature", "properties": { "id": "237166", "nombre": "Font Almaguer", "linea": "1", "longitud": "-0.4640861159260068", "latitud": "39.28940586212585", "tipo": "metrovalencia", "municipio": "Benifaio" }, "geometry": { "type": "Point", "coordinates": [ -0.464086115926007, 39.289405862125854 ] } },
{ "type": "Feature", "properties": { "id": "237101", "nombre": "Sagunt", "linea": "4", "longitud": "-0.3749722238203376", "latitud": "39.48649982590189", "tipo": "metrovalencia", "municipio": "València" }, "geometry": { "type": "Point", "coordinates": [ -0.374972223820338, 39.486499825901895 ] } },
{ "type": "Feature", "properties": { "id": "237153", "nombre": "Campanar", "linea": "1,2", "longitud": "-0.3950361010065258", "latitud": "39.48463062443623", "tipo": "metrovalencia", "municipio": "València" }, "geometry": { "type": "Point", "coordinates": [ -0.395036101006526, 39.484630624436228 ] } },
{ "type": "Feature", "properties": { "id": "237221", "nombre": "Massamagrell", "linea": "3", "longitud": "-0.333033323500629", "latitud": "39.57056049493916", "tipo": "metrovalencia", "municipio": "Massamagrell" }, "geometry": { "type": "Point", "coordinates": [ -0.333033323500629, 39.570560494939159 ] } },
{ "type": "Feature", "properties": { "id": "237147", "nombre": "Massarrojos", "linea": "1", "longitud": "-0.4028777781285831", "latitud": "39.53660968895581", "tipo": "metrovalencia", "municipio": "València" }, "geometry": { "type": "Point", "coordinates": [ -0.402877778128583, 39.536609688955807 ] } },
{ "type": "Feature", "properties": { "id": "237222", "nombre": "La Pobla de Farnals", "linea": "3", "longitud": "-0.3304361109078244", "latitud": "39.57941822166075", "tipo": "metrovalencia", "municipio": "La Pobla de Farnals" }, "geometry": { "type": "Point", "coordinates": [ -0.330436110907824, 39.579418221660752 ] } },
{ "type": "Feature", "properties": { "id": "237211", "nombre": "Facultats - Manuel Broseta", "linea": "3,5,7,9", "longitud": "-0.3619055444301701", "latitud": "39.47800449481189", "tipo": "metrovalencia", "municipio": "València" }, "geometry": { "type": "Point", "coordinates": [ -0.36190554443017, 39.478004494811891 ] } },
{ "type": "Feature", "properties": { "id": "237188", "nombre": "El Clot", "linea": "2", "longitud": "-0.5279861091158305", "latitud": "39.54986576262979", "tipo": "metrovalencia", "municipio": "L'Eliana" }, "geometry": { "type": "Point", "coordinates": [ -0.527986109115831, 39.549865762629793 ] } },
{ "type": "Feature", "properties": { "id": "237138", "nombre": "Safranar", "linea": "1,2,7", "longitud": "-0.3983833189002929", "latitud": "39.45457080974115", "tipo": "metrovalencia", "municipio": "València" }, "geometry": { "type": "Point", "coordinates": [ -0.398383318900293, 39.454570809741149 ] } },
{ "type": "Feature", "properties": { "id": "237119", "nombre": "Ll. Llarga - Terramelar", "linea": "4", "longitud": "-0.4304472209592373", "latitud": "39.50989917913695", "tipo": "metrovalencia", "municipio": "Paterna" }, "geometry": { "type": "Point", "coordinates": [ -0.430447220959237, 39.509899179136951 ] } },
{ "type": "Feature", "properties": { "id": "237203", "nombre": "Salt de l'Aigua", "linea": "3,5,9", "longitud": "-0.4505681992431328", "latitud": "39.4848328033487", "tipo": "metrovalencia", "municipio": "Manises" }, "geometry": { "type": "Point", "coordinates": [ -0.450568199243133, 39.484832803348702 ] } },
{ "type": "Feature", "properties": { "id": "237143", "nombre": "Bailén", "linea": "7", "longitud": "-0.3794222170303012", "latitud": "39.46397785356616", "tipo": "metrovalencia", "municipio": "València" }, "geometry": { "type": "Point", "coordinates": [ -0.379422217030301, 39.463977853566156 ] } },
{ "type": "Feature", "properties": { "id": "237223", "nombre": "Rafelbunyol", "linea": "3", "longitud": "-0.3310583234452487", "latitud": "39.58852390451644", "tipo": "metrovalencia", "municipio": "Rafelbunyol" }, "geometry": { "type": "Point", "coordinates": [ -0.331058323445249, 39.588523904516435 ] } },
{ "type": "Feature", "properties": { "id": "237244", "nombre": "Alacant", "linea": "10", "longitud": "-0.3774770005122519", "latitud": "39.46472103939357", "tipo": "metrovalencia", "municipio": "València" }, "geometry": { "type": "Point", "coordinates": [ -0.377477000512252, 39.464721039393567 ] } },
{ "type": "Feature", "properties": { "id": "237205", "nombre": "Faitanar", "linea": "3,5,9", "longitud": "-0.4331833418083209", "latitud": "39.47761921077863", "tipo": "metrovalencia", "municipio": "Quart de Poblet" }, "geometry": { "type": "Point", "coordinates": [ -0.433183341808321, 39.477619210778627 ] } },
{ "type": "Feature", "properties": { "id": "237190", "nombre": "L'Eliana", "linea": "2", "longitud": "-0.5359194284163187", "latitud": "39.56183246782633", "tipo": "metrovalencia", "municipio": "L'Eliana" }, "geometry": { "type": "Point", "coordinates": [ -0.535919428416319, 39.561832467826335 ] } },
{ "type": "Feature", "properties": { "id": "237196", "nombre": "Riba-roja de Túria", "linea": "9", "longitud": "-0.5594444275774598", "latitud": "39.54333500017424", "tipo": "metrovalencia", "municipio": "Riba-roja de Túria" }, "geometry": { "type": "Point", "coordinates": [ -0.55944442757746, 39.543335000174238 ] } },
{ "type": "Feature", "properties": { "id": "237189", "nombre": "Montesol", "linea": "2", "longitud": "-0.5316972140071671", "latitud": "39.55557254933344", "tipo": "metrovalencia", "municipio": "L'Eliana" }, "geometry": { "type": "Point", "coordinates": [ -0.531697214007167, 39.555572549333441 ] } },
{ "type": "Feature", "properties": { "id": "237163", "nombre": "Picassent", "linea": "1", "longitud": "-0.464858323278585", "latitud": "39.36303714856912", "tipo": "metrovalencia", "municipio": "Picassent" }, "geometry": { "type": "Point", "coordinates": [ -0.464858323278585, 39.36303714856912 ] } },
{ "type": "Feature", "properties": { "id": "237135", "nombre": "Torrent", "linea": "1,2,7", "longitud": "-0.4609861070856414", "latitud": "39.43464664606486", "tipo": "metrovalencia", "municipio": "Torrent" }, "geometry": { "type": "Point", "coordinates": [ -0.460986107085641, 39.434646646064856 ] } },
{ "type": "Feature", "properties": { "id": "237237", "nombre": "Ciutat Arts i Ciències - Justícia", "linea": "10", "longitud": "-0.3532159997794547", "latitud": "39.45259203991893", "tipo": "metrovalencia", "municipio": "València" }, "geometry": { "type": "Point", "coordinates": [ -0.353215999779455, 39.452592039918933 ] } },
{ "type": "Feature", "properties": { "id": "237241", "nombre": "Natzaret", "linea": "10", "longitud": "-0.3346740002450643", "latitud": "39.44988903943966", "tipo": "metrovalencia", "municipio": "València" }, "geometry": { "type": "Point", "coordinates": [ -0.334674000245064, 39.449889039439661 ] } },
{ "type": "Feature", "properties": { "id": "237110", "nombre": "La Granja", "linea": "4", "longitud": "-0.4124779998061252", "latitud": "39.50403217479327", "tipo": "metrovalencia", "municipio": "Burjassot" }, "geometry": { "type": "Point", "coordinates": [ -0.412477999806125, 39.504032174793267 ] } },
{ "type": "Feature", "properties": { "id": "237111", "nombre": "Sant Joan", "linea": "4", "longitud": "-0.416323989122466", "latitud": "39.50529102481966", "tipo": "metrovalencia", "municipio": "Burjassot" }, "geometry": { "type": "Point", "coordinates": [ -0.416323989122466, 39.505291024819662 ] } },
{ "type": "Feature", "properties": { "id": "237220", "nombre": "Museros", "linea": "3", "longitud": "-0.3408555689097638", "latitud": "39.56157688255019", "tipo": "metrovalencia", "municipio": "Museros" }, "geometry": { "type": "Point", "coordinates": [ -0.340855568909764, 39.561576882550192 ] } },
{ "type": "Feature", "properties": { "id": "237213", "nombre": "Alboraia Palmaret", "linea": "3,9", "longitud": "-0.3552222251891727", "latitud": "39.49566272842113", "tipo": "metrovalencia", "municipio": "Alboraia" }, "geometry": { "type": "Point", "coordinates": [ -0.355222225189173, 39.495662728421131 ] } },
{ "type": "Feature", "properties": { "id": "237198", "nombre": "València la Vella", "linea": "9", "longitud": "-0.5342069862551926", "latitud": "39.53048328537938", "tipo": "metrovalencia", "municipio": "Riba-roja de Túria" }, "geometry": { "type": "Point", "coordinates": [ -0.534206986255193, 39.530483285379376 ] } },
{ "type": "Feature", "properties": { "id": "237136", "nombre": "València Sud", "linea": "1,2,7", "longitud": "-0.4106472133564586", "latitud": "39.44081119634306", "tipo": "metrovalencia", "municipio": "València" }, "geometry": { "type": "Point", "coordinates": [ -0.410647213356459, 39.440811196343056 ] } },
{ "type": "Feature", "properties": { "id": "237152", "nombre": "Beniferri", "linea": "1,2", "longitud": "-0.3993369340966121", "latitud": "39.49103168614693", "tipo": "metrovalencia", "municipio": "València" }, "geometry": { "type": "Point", "coordinates": [ -0.399336934096612, 39.491031686146925 ] } },
{ "type": "Feature", "properties": { "id": "237156", "nombre": "Pl. Espanya", "linea": "1,2", "longitud": "-0.3816333410088131", "latitud": "39.46620182210224", "tipo": "metrovalencia", "municipio": "València" }, "geometry": { "type": "Point", "coordinates": [ -0.381633341008813, 39.466201822102235 ] } },
{ "type": "Feature", "properties": { "id": "237170", "nombre": "Benimodo", "linea": "1", "longitud": "-0.5196194643809373", "latitud": "39.21629337411807", "tipo": "metrovalencia", "municipio": "València" }, "geometry": { "type": "Point", "coordinates": [ -0.519619464380937, 39.216293374118074 ] } },
{ "type": "Feature", "properties": { "id": "237168", "nombre": "Ausiàs March", "linea": "1", "longitud": "-0.491977215041994", "latitud": "39.24955753451306", "tipo": "metrovalencia", "municipio": "Carlet" }, "geometry": { "type": "Point", "coordinates": [ -0.491977215041994, 39.249557534513059 ] } },
{ "type": "Feature", "properties": { "id": "237165", "nombre": "Espioca", "linea": "1", "longitud": "-0.4667472240898878", "latitud": "39.32188419454312", "tipo": "metrovalencia", "municipio": "Picassent" }, "geometry": { "type": "Point", "coordinates": [ -0.466747224089888, 39.321884194543124 ] } },
{ "type": "Feature", "properties": { "id": "237159", "nombre": "Seminari - CEU", "linea": "1", "longitud": "-0.3897444302876586", "latitud": "39.5499878326498", "tipo": "metrovalencia", "municipio": "Moncada" }, "geometry": { "type": "Point", "coordinates": [ -0.389744430287659, 39.549987832649798 ] } },
{ "type": "Feature", "properties": { "id": "237239", "nombre": "Amado Granell - Montolivet", "linea": "10", "longitud": "-0.365110000429508", "latitud": "39.45937303938424", "tipo": "metrovalencia", "municipio": "València" }, "geometry": { "type": "Point", "coordinates": [ -0.365110000429508, 39.459373039384239 ] } },
{ "type": "Feature", "properties": { "id": "237094", "nombre": "Tarongers - Ernest Lluch", "linea": "1,4,6", "longitud": "-0.3396222295867719", "latitud": "39.47813800932393", "tipo": "metrovalencia", "municipio": "València" }, "geometry": { "type": "Point", "coordinates": [ -0.339622229586772, 39.478138009323928 ] } },
{ "type": "Feature", "properties": { "id": "237206", "nombre": "Mislata Almassil", "linea": "3,5,9", "longitud": "-0.4243694542402148", "latitud": "39.47600940862436", "tipo": "metrovalencia", "municipio": "Mislata" }, "geometry": { "type": "Point", "coordinates": [ -0.424369454240215, 39.476009408624357 ] } },
{ "type": "Feature", "properties": { "id": "237128", "nombre": "Cabanyal", "linea": "4,6", "longitud": "-0.3275833432474662", "latitud": "39.47285465383452", "tipo": "metrovalencia", "municipio": "València" }, "geometry": { "type": "Point", "coordinates": [ -0.327583343247466, 39.472854653834517 ] } },
{ "type": "Feature", "properties": { "id": "237208", "nombre": "Nou d'Octubre", "linea": "3,5,9", "longitud": "-0.4076305632336302", "latitud": "39.47065738808727", "tipo": "metrovalencia", "municipio": "València" }, "geometry": { "type": "Point", "coordinates": [ -0.40763056323363, 39.470657388087268 ] } },
{ "type": "Feature", "properties": { "id": "237144", "nombre": "Alameda", "linea": "3,5,7,9", "longitud": "-0.3653166591372722", "latitud": "39.47315601519005", "tipo": "metrovalencia", "municipio": "València" }, "geometry": { "type": "Point", "coordinates": [ -0.365316659137272, 39.47315601519005 ] } },
{ "type": "Feature", "properties": { "id": "237202", "nombre": "Manises", "linea": "3,5,9", "longitud": "-0.4590654377018195", "latitud": "39.48958973107335", "tipo": "metrovalencia", "municipio": "Manises" }, "geometry": { "type": "Point", "coordinates": [ -0.459065437701819, 39.489589731073352 ] } },
{ "type": "Feature", "properties": { "id": "237182", "nombre": "Paterna", "linea": "2", "longitud": "-0.4419719871267472", "latitud": "39.49880985401933", "tipo": "metrovalencia", "municipio": "Paterna" }, "geometry": { "type": "Point", "coordinates": [ -0.441971987126747, 39.498809854019328 ] } },
{ "type": "Feature", "properties": { "id": "237130", "nombre": "Marítim", "linea": "5,6,7,8", "longitud": "-0.3382369870182364", "latitud": "39.46493915696556", "tipo": "metrovalencia", "municipio": "València" }, "geometry": { "type": "Point", "coordinates": [ -0.338236987018236, 39.464939156965563 ] } },
{ "type": "Feature", "properties": { "id": "237179", "nombre": "Benimàmet", "linea": "2", "longitud": "-0.4194111232567788", "latitud": "39.50187687050769", "tipo": "metrovalencia", "municipio": "València" }, "geometry": { "type": "Point", "coordinates": [ -0.419411123256779, 39.501876870507694 ] } },
{ "type": "Feature", "properties": { "id": "237178", "nombre": "Cantereria", "linea": "2", "longitud": "-0.4120722112951377", "latitud": "39.50238041102936", "tipo": "metrovalencia", "municipio": "Burjassot" }, "geometry": { "type": "Point", "coordinates": [ -0.412072211295138, 39.502380411029357 ] } },
{ "type": "Feature", "properties": { "id": "237194", "nombre": "Benaguasil", "linea": "2", "longitud": "-0.5839277509085257", "latitud": "39.59888080768081", "tipo": "metrovalencia", "municipio": "Benaguasil" }, "geometry": { "type": "Point", "coordinates": [ -0.583927750908526, 39.598880807680814 ] } },
{ "type": "Feature", "properties": { "id": "237161", "nombre": "Realón", "linea": "1", "longitud": "-0.4640137851031758", "latitud": "39.39390567874968", "tipo": "metrovalencia", "municipio": "Picassent" }, "geometry": { "type": "Point", "coordinates": [ -0.464013785103176, 39.393905678749682 ] } },
{ "type": "Feature", "properties": { "id": "237093", "nombre": "Beteró", "linea": "1,4,6", "longitud": "-0.3342027661976934", "latitud": "39.47659305743498", "tipo": "metrovalencia", "municipio": "València" }, "geometry": { "type": "Point", "coordinates": [ -0.334202766197693, 39.476593057434982 ] } },
{ "type": "Feature", "properties": { "id": "237103", "nombre": "Marxalenes", "linea": "4", "longitud": "-0.3838368950525468", "latitud": "39.48797229915813", "tipo": "metrovalencia", "municipio": "València" }, "geometry": { "type": "Point", "coordinates": [ -0.383836895052547, 39.48797229915813 ] } },
{ "type": "Feature", "properties": { "id": "237097", "nombre": "Vicente Zaragozá", "linea": "1,4,6", "longitud": "-0.3579472307358761", "latitud": "39.4833717743908", "tipo": "metrovalencia", "municipio": "València" }, "geometry": { "type": "Point", "coordinates": [ -0.357947230735876, 39.483371774390797 ] } },
{ "type": "Feature", "properties": { "id": "237099", "nombre": "Trinitat", "linea": "1,4,6", "longitud": "-0.367763877448546", "latitud": "39.48627094440176", "tipo": "metrovalencia", "municipio": "València" }, "geometry": { "type": "Point", "coordinates": [ -0.367763877448546, 39.48627094440176 ] } },
{ "type": "Feature", "properties": { "id": "237192", "nombre": "La Pobla de Vallbona", "linea": "2", "longitud": "-0.5622777944476075", "latitud": "39.58276371115498", "tipo": "metrovalencia", "municipio": "La Pobla de Vallbona" }, "geometry": { "type": "Point", "coordinates": [ -0.562277794447608, 39.582763711154982 ] } },
{ "type": "Feature", "properties": { "id": "237098", "nombre": "Benimaclet", "linea": "1,3,4,5,6,7,9", "longitud": "-0.3623333272775772", "latitud": "39.48485187642764", "tipo": "metrovalencia", "municipio": "València" }, "geometry": { "type": "Point", "coordinates": [ -0.362333327277577, 39.484851876427641 ] } },
{ "type": "Feature", "properties": { "id": "237185", "nombre": "La Canyada", "linea": "2", "longitud": "-0.4871222073769305", "latitud": "39.52680591747526", "tipo": "metrovalencia", "municipio": "Paterna" }, "geometry": { "type": "Point", "coordinates": [ -0.487122207376931, 39.526805917475258 ] } },
{ "type": "Feature", "properties": { "id": "237183", "nombre": "Santa Rita", "linea": "2", "longitud": "-0.4551055434970949", "latitud": "39.50565723544864", "tipo": "metrovalencia", "municipio": "Paterna" }, "geometry": { "type": "Point", "coordinates": [ -0.455105543497095, 39.505657235448645 ] } },
{ "type": "Feature", "properties": { "id": "237173", "nombre": "Massalavés", "linea": "1", "longitud": "-0.5187610983053753", "latitud": "39.14380649706234", "tipo": "metrovalencia", "municipio": "Massalavés" }, "geometry": { "type": "Point", "coordinates": [ -0.518761098305375, 39.143806497062336 ] } },
{ "type": "Feature", "properties": { "id": "237109", "nombre": "Empalme", "linea": "1,2,4", "longitud": "-0.4021083419820373", "latitud": "39.49957660833118", "tipo": "metrovalencia", "municipio": "Burjassot" }, "geometry": { "type": "Point", "coordinates": [ -0.402108341982037, 39.499576608331175 ] } },
{ "type": "Feature", "properties": { "id": "237092", "nombre": "La Cadena", "linea": "4,6,8", "longitud": "-0.3293749993077695", "latitud": "39.47520450774123", "tipo": "metrovalencia", "municipio": "València" }, "geometry": { "type": "Point", "coordinates": [ -0.32937499930777, 39.475204507741232 ] } },
{ "type": "Feature", "properties": { "id": "237091", "nombre": "Platja Malva-rosa", "linea": "4,6,8", "longitud": "-0.3257277910745404", "latitud": "39.47369007271332", "tipo": "metrovalencia", "municipio": "València" }, "geometry": { "type": "Point", "coordinates": [ -0.32572779107454, 39.473690072713318 ] } },
{ "type": "Feature", "properties": { "id": "237090", "nombre": "Platja les Arenes", "linea": "4,6,8", "longitud": "-0.325727790999878", "latitud": "39.46892933010812", "tipo": "metrovalencia", "municipio": "València" }, "geometry": { "type": "Point", "coordinates": [ -0.325727790999878, 39.468929330108118 ] } },
{ "type": "Feature", "properties": { "id": "1067", "nombre": "Equador - Pintor Matarana (1067)", "linea": "12", "longitud": "-0.3927782320996147", "latitud": "39.49607896649905", "tipo": "emt", "municipio": "Benicalap" }, "geometry": { "type": "Point", "coordinates": [ -0.392778232099615, 39.496078966499049 ] } },
{ "type": "Feature", "properties": { "id": "2032", "nombre": "Les Corts (2032)", "linea": "11,16,26,6,80,94,N10", "longitud": "-0.3742677624589383", "latitud": "39.47872157854415", "tipo": "emt", "municipio": "Benicalap" }, "geometry": { "type": "Point", "coordinates": [ -0.374267762458938, 39.478721578544153 ] } },
{ "type": "Feature", "properties": { "id": "1183", "nombre": "General Avilés - Dr. Nicasi Benlloch (1183)", "linea": "64,94", "longitud": "-0.3914609581496043", "latitud": "39.48803724305937", "tipo": "emt", "municipio": "Benicalap" }, "geometry": { "type": "Point", "coordinates": [ -0.391460958149604, 39.488037243059374 ] } },
{ "type": "Feature", "properties": { "id": "1319", "nombre": "Corts Valencianes - Palau de Congressos (1319)", "linea": "62,63,99,N3", "longitud": "-0.401818111537627", "latitud": "39.49418385019246", "tipo": "emt", "municipio": "Benicalap" }, "geometry": { "type": "Point", "coordinates": [ -0.401818111537627, 39.494183850192464 ] } },
{ "type": "Feature", "properties": { "id": "1331", "nombre": "Florista - Carrasqueta (1331)", "linea": "28", "longitud": "-0.3962088210973264", "latitud": "39.49404940420439", "tipo": "emt", "municipio": "Benicalap" }, "geometry": { "type": "Point", "coordinates": [ -0.396208821097327, 39.494049404204389 ] } },
{ "type": "Feature", "properties": { "id": "1684", "nombre": "Dr. Peset Aleixandre - Av. de Burjassot (1684)", "linea": "60,64,89", "longitud": "-0.3885702988290171", "latitud": "39.48893284987757", "tipo": "emt", "municipio": "Benicalap" }, "geometry": { "type": "Point", "coordinates": [ -0.388570298829017, 39.488932849877571 ] } },
{ "type": "Feature", "properties": { "id": "2257", "nombre": "Palau de Justícia (2257)", "linea": "11,31,32,6,70,71,81,N10,N2", "longitud": "-0.3695681782945649", "latitud": "39.47207596206278", "tipo": "emt", "municipio": "Benicalap" }, "geometry": { "type": "Point", "coordinates": [ -0.369568178294565, 39.472075962062782 ] } },
{ "type": "Feature", "properties": { "id": "2271", "nombre": "Passeig Marítim - Pavia (2271)", "linea": "93,98", "longitud": "-0.324609458011564", "latitud": "39.4742645348839", "tipo": "emt", "municipio": "Benicalap" }, "geometry": { "type": "Point", "coordinates": [ -0.324609458011564, 39.474264534883901 ] } },
{ "type": "Feature", "properties": { "id": "1825", "nombre": "Joan XXIII - Federico Alcacer Aguilar (1825)", "linea": "64", "longitud": "-0.3840975314338629", "latitud": "39.49502166239837", "tipo": "emt", "municipio": "Benicalap" }, "geometry": { "type": "Point", "coordinates": [ -0.384097531433863, 39.495021662398372 ] } },
{ "type": "Feature", "properties": { "id": "2260", "nombre": "Colón - Pascual i Genís (2260)", "linea": "10,11,28,32,40,70,71,8,81,N1,N10,N2,N8", "longitud": "-0.3735744715296922", "latitud": "39.46819493294377", "tipo": "emt", "municipio": "Benicalap" }, "geometry": { "type": "Point", "coordinates": [ -0.373574471529692, 39.468194932943767 ] } },
{ "type": "Feature", "properties": { "id": "2261", "nombre": "Estació del Nord (2261)", "linea": "19,35,40,6,8,N1,N7,N8,N9", "longitud": "-0.3764952645701374", "latitud": "39.46751463572129", "tipo": "emt", "municipio": "Benicalap" }, "geometry": { "type": "Point", "coordinates": [ -0.376495264570137, 39.467514635721294 ] } },
{ "type": "Feature", "properties": { "id": "1283", "nombre": "Campus Tarongers (1283)", "linea": "40,71", "longitud": "-0.3453280743399828", "latitud": "39.47927736170695", "tipo": "emt", "municipio": "Benicalap" }, "geometry": { "type": "Point", "coordinates": [ -0.345328074339983, 39.479277361706949 ] } },
{ "type": "Feature", "properties": { "id": "1835", "nombre": "Federico Alcacer Aguilar - Poeta Serrano Clavero (1835)", "linea": "12,N10", "longitud": "-0.3862542617208672", "latitud": "39.49498286694165", "tipo": "emt", "municipio": "Benicalap" }, "geometry": { "type": "Point", "coordinates": [ -0.386254261720867, 39.494982866941655 ] } },
{ "type": "Feature", "properties": { "id": "1847", "nombre": "Castellonet - Joan XXIII (1847)", "linea": "12", "longitud": "-0.383564526993556", "latitud": "39.49321971627099", "tipo": "emt", "municipio": "Benicalap" }, "geometry": { "type": "Point", "coordinates": [ -0.383564526993556, 39.493219716270993 ] } },
{ "type": "Feature", "properties": { "id": "1143", "nombre": "Centre de Salut Fonteta (1143)", "linea": "13,7,N7", "longitud": "-0.3681617463809649", "latitud": "39.442507726023", "tipo": "emt", "municipio": "Benicalap" }, "geometry": { "type": "Point", "coordinates": [ -0.368161746380965, 39.442507726023003 ] } },
{ "type": "Feature", "properties": { "id": "281", "nombre": "Camí de Montcada (parell) - Alemany (281)", "linea": "26", "longitud": "-0.3809572259295906", "latitud": "39.49649249254142", "tipo": "emt", "municipio": "Benicalap" }, "geometry": { "type": "Point", "coordinates": [ -0.380957225929591, 39.496492492541421 ] } },
{ "type": "Feature", "properties": { "id": "304", "nombre": "Camí de Montcada (imparell) - Alemany (304)", "linea": "26", "longitud": "-0.3810964690976113", "latitud": "39.49659003403457", "tipo": "emt", "municipio": "Benicalap" }, "geometry": { "type": "Point", "coordinates": [ -0.381096469097611, 39.496590034034568 ] } },
{ "type": "Feature", "properties": { "id": "308", "nombre": "Burjassot - Pintor Matarana (308)", "linea": "28,N10", "longitud": "-0.3933097334910693", "latitud": "39.49239344045768", "tipo": "emt", "municipio": "Benicalap" }, "geometry": { "type": "Point", "coordinates": [ -0.393309733491069, 39.492393440457676 ] } },
{ "type": "Feature", "properties": { "id": "1062", "nombre": "Pere Cabanes - Bisbe Laguarda (1062)", "linea": "12", "longitud": "-0.3787829198086891", "latitud": "39.49424189829983", "tipo": "emt", "municipio": "Torrefiel" }, "geometry": { "type": "Point", "coordinates": [ -0.378782919808689, 39.494241898299833 ] } },
{ "type": "Feature", "properties": { "id": "1131", "nombre": "Pintor Jacomart - Comte de Torrefiel (1131)", "linea": "12", "longitud": "-0.3772548411393017", "latitud": "39.49646764365853", "tipo": "emt", "municipio": "Torrefiel" }, "geometry": { "type": "Point", "coordinates": [ -0.377254841139302, 39.496467643658526 ] } },
{ "type": "Feature", "properties": { "id": "1865", "nombre": "Pérez Galdós - Sant Josep de la Muntanya (1865)", "linea": "67,N4", "longitud": "-0.3948889650634679", "latitud": "39.47399468570227", "tipo": "emt", "municipio": "Torrefiel" }, "geometry": { "type": "Point", "coordinates": [ -0.394888965063468, 39.473994685702266 ] } },
{ "type": "Feature", "properties": { "id": "2122", "nombre": "Parc de Natzaret (2122)", "linea": "30,4", "longitud": "-0.3332872128016265", "latitud": "39.44458966947652", "tipo": "emt", "municipio": "Torrefiel" }, "geometry": { "type": "Point", "coordinates": [ -0.333287212801626, 39.444589669476521 ] } },
{ "type": "Feature", "properties": { "id": "1683", "nombre": "Dr. Peset Aleixandre - Montcada (1683)", "linea": "60,89", "longitud": "-0.3796334261844185", "latitud": "39.49091664657465", "tipo": "emt", "municipio": "Torrefiel" }, "geometry": { "type": "Point", "coordinates": [ -0.379633426184418, 39.490916646574654 ] } },
{ "type": "Feature", "properties": { "id": "2231", "nombre": "Centre d'especialitats Ricard Trénor  (2231)", "linea": "11,N10", "longitud": "-0.3705717018844134", "latitud": "39.48185718248969", "tipo": "emt", "municipio": "Torrefiel" }, "geometry": { "type": "Point", "coordinates": [ -0.370571701884413, 39.481857182489691 ] } },
{ "type": "Feature", "properties": { "id": "242", "nombre": "Dr. Peset Aleixandre - Guardacostes (242)", "linea": "60,64,90", "longitud": "-0.3829222819940433", "latitud": "39.48998211816957", "tipo": "emt", "municipio": "Tormos" }, "geometry": { "type": "Point", "coordinates": [ -0.382922281994043, 39.489982118169571 ] } },
{ "type": "Feature", "properties": { "id": "2315", "nombre": "Roger de Llòria - Colón (2315)", "linea": "40", "longitud": "-0.3725957521101151", "latitud": "39.46913251637978", "tipo": "emt", "municipio": "Tormos" }, "geometry": { "type": "Point", "coordinates": [ -0.372595752110115, 39.46913251637978 ] } },
{ "type": "Feature", "properties": { "id": "325", "nombre": "Constitució - Dr. Peset Aleixandre (325)", "linea": "16,26,6,N10", "longitud": "-0.3744527015329162", "latitud": "39.49152974184241", "tipo": "emt", "municipio": "Tormos" }, "geometry": { "type": "Point", "coordinates": [ -0.374452701532916, 39.491529741842413 ] } },
{ "type": "Feature", "properties": { "id": "206", "nombre": "Primat Reig - Bilbao (206)", "linea": "90,N2", "longitud": "-0.3715588686786924", "latitud": "39.49014289252342", "tipo": "emt", "municipio": "Sant Antoni" }, "geometry": { "type": "Point", "coordinates": [ -0.371558868678692, 39.490142892523416 ] } },
{ "type": "Feature", "properties": { "id": "2312", "nombre": "Estació del Nord - Sant Pau (2312)", "linea": "62,67,73,9,N3,N7", "longitud": "-0.3778266392067869", "latitud": "39.46839356518432", "tipo": "emt", "municipio": "Sant Antoni" }, "geometry": { "type": "Point", "coordinates": [ -0.377826639206787, 39.468393565184314 ] } },
{ "type": "Feature", "properties": { "id": "2301", "nombre": "Félix del Río - Camí de Montcada (2301)", "linea": "60", "longitud": "-0.3794747799932956", "latitud": "39.49198776163449", "tipo": "emt", "municipio": "Benimaclet" }, "geometry": { "type": "Point", "coordinates": [ -0.379474779993296, 39.491987761634491 ] } },
{ "type": "Feature", "properties": { "id": "2338", "nombre": "País Valencià - València (2338)", "linea": "9", "longitud": "-0.3814167408394351", "latitud": "39.42642679040525", "tipo": "emt", "municipio": "Benimaclet" }, "geometry": { "type": "Point", "coordinates": [ -0.381416740839435, 39.426426790405252 ] } },
{ "type": "Feature", "properties": { "id": "1233", "nombre": "Dolores Marqués - Assagador d'Alboraia (1233)", "linea": "12,70", "longitud": "-0.3620430866045034", "latitud": "39.48828209528488", "tipo": "emt", "municipio": "Benimaclet" }, "geometry": { "type": "Point", "coordinates": [ -0.362043086604504, 39.48828209528488 ] } },
{ "type": "Feature", "properties": { "id": "2340", "nombre": "País Valencià - Pintor Sorolla (2340)", "linea": "9", "longitud": "-0.3847701114340046", "latitud": "39.42796620301947", "tipo": "emt", "municipio": "Benimaclet" }, "geometry": { "type": "Point", "coordinates": [ -0.384770111434005, 39.427966203019466 ] } },
{ "type": "Feature", "properties": { "id": "2341", "nombre": "Passeig Marítim - Mediterrània (2341)", "linea": "32", "longitud": "-0.3245759842700254", "latitud": "39.46830732255087", "tipo": "emt", "municipio": "Benimaclet" }, "geometry": { "type": "Point", "coordinates": [ -0.324575984270025, 39.468307322550871 ] } },
{ "type": "Feature", "properties": { "id": "1902", "nombre": "Catalunya - Guardia Civil (1902)", "linea": "93,98", "longitud": "-0.3542697867591446", "latitud": "39.47969835044653", "tipo": "emt", "municipio": "Benimaclet" }, "geometry": { "type": "Point", "coordinates": [ -0.354269786759145, 39.479698350446533 ] } },
{ "type": "Feature", "properties": { "id": "216", "nombre": "Primat Reig - Calderón de la Barca (216)", "linea": "90,N2", "longitud": "-0.366171206986556", "latitud": "39.48613285656113", "tipo": "emt", "municipio": "Benimaclet" }, "geometry": { "type": "Point", "coordinates": [ -0.366171206986556, 39.486132856561134 ] } },
{ "type": "Feature", "properties": { "id": "1162", "nombre": "Passeig Marítim - Mendizábal (1162)", "linea": "32", "longitud": "-0.3252024019888047", "latitud": "39.48355244046615", "tipo": "emt", "municipio": "Benimaclet" }, "geometry": { "type": "Point", "coordinates": [ -0.325202401988805, 39.483552440466148 ] } },
{ "type": "Feature", "properties": { "id": "965", "nombre": "Germans Villalonga - Enric Navarro (965)", "linea": "10", "longitud": "-0.3571893087552928", "latitud": "39.48549520152587", "tipo": "emt", "municipio": "Benimaclet" }, "geometry": { "type": "Point", "coordinates": [ -0.357189308755293, 39.485495201525872 ] } },
{ "type": "Feature", "properties": { "id": "387", "nombre": "Polvorí - Sinarques (387)", "linea": "62", "longitud": "-0.4252266367622225", "latitud": "39.50099178779752", "tipo": "emt", "municipio": "Benimaclet" }, "geometry": { "type": "Point", "coordinates": [ -0.425226636762223, 39.500991787797524 ] } },
{ "type": "Feature", "properties": { "id": "987", "nombre": "Mistral - Murta (987)", "linea": "10", "longitud": "-0.3578205939800465", "latitud": "39.48586644851965", "tipo": "emt", "municipio": "Benimaclet" }, "geometry": { "type": "Point", "coordinates": [ -0.357820593980047, 39.485866448519644 ] } },
{ "type": "Feature", "properties": { "id": "7", "nombre": "Edifici del Rellotge (7)", "linea": "19,92,95,N9", "longitud": "-0.3324961026053938", "latitud": "39.46035702072443", "tipo": "emt", "municipio": "Marxalenes" }, "geometry": { "type": "Point", "coordinates": [ -0.332496102605394, 39.46035702072443 ] } },
{ "type": "Feature", "properties": { "id": "2160", "nombre": "Burjassot - Marxalenes (2160)", "linea": "28,94,N10", "longitud": "-0.386812993791799", "latitud": "39.48635768353169", "tipo": "emt", "municipio": "Marxalenes" }, "geometry": { "type": "Point", "coordinates": [ -0.386812993791799, 39.486357683531693 ] } },
{ "type": "Feature", "properties": { "id": "2160", "nombre": "Burjassot - Marxalenes (2160)", "linea": "28,94,N10", "longitud": "-0.3868134851295495", "latitud": "39.48637001860868", "tipo": "emt", "municipio": "Marxalenes" }, "geometry": { "type": "Point", "coordinates": [ -0.38681348512955, 39.486370018608675 ] } },
{ "type": "Feature", "properties": { "id": "1587", "nombre": "Marina de València (1587)", "linea": "19,92", "longitud": "-0.3294739656056153", "latitud": "39.46378658245906", "tipo": "emt", "municipio": "Marxalenes" }, "geometry": { "type": "Point", "coordinates": [ -0.329473965605615, 39.463786582459058 ] } },
{ "type": "Feature", "properties": { "id": "333", "nombre": "Burjassot - Dr. Peset Aleixandre (333)", "linea": "28,94,N10", "longitud": "-0.3890689091090323", "latitud": "39.48833469992052", "tipo": "emt", "municipio": "Marxalenes" }, "geometry": { "type": "Point", "coordinates": [ -0.389068909109032, 39.488334699920522 ] } },
{ "type": "Feature", "properties": { "id": "154", "nombre": "Blasco Ibáñez - Rubén Darío (154)", "linea": "30,31,71,81,89,N1", "longitud": "-0.3539115521832035", "latitud": "39.47590882195261", "tipo": "emt", "municipio": "El Calvari" }, "geometry": { "type": "Point", "coordinates": [ -0.353911552183204, 39.475908821952615 ] } },
{ "type": "Feature", "properties": { "id": "1829", "nombre": "General Avilés - Conchita Piquer (1829)", "linea": "94", "longitud": "-0.3905968368320168", "latitud": "39.48801949874912", "tipo": "emt", "municipio": "El Calvari" }, "geometry": { "type": "Point", "coordinates": [ -0.390596836832017, 39.488019498749118 ] } },
{ "type": "Feature", "properties": { "id": "1807", "nombre": "Argenter Suárez - Ministre Luis Mayans (1807)", "linea": "98,N10", "longitud": "-0.3729700513308436", "latitud": "39.48547389435351", "tipo": "emt", "municipio": "Morvedre" }, "geometry": { "type": "Point", "coordinates": [ -0.372970051330844, 39.485473894353511 ] } },
{ "type": "Feature", "properties": { "id": "231", "nombre": "Eduard Boscà - Balears (231)", "linea": "18,89", "longitud": "-0.3577284538779768", "latitud": "39.46429795476555", "tipo": "emt", "municipio": "Morvedre" }, "geometry": { "type": "Point", "coordinates": [ -0.357728453877977, 39.464297954765549 ] } },
{ "type": "Feature", "properties": { "id": "342", "nombre": "Guadalaviar - Sagunt (342)", "linea": "79,94,95", "longitud": "-0.3754961789160185", "latitud": "39.4820062206112", "tipo": "emt", "municipio": "Morvedre" }, "geometry": { "type": "Point", "coordinates": [ -0.375496178916018, 39.482006220611204 ] } },
{ "type": "Feature", "properties": { "id": "1806", "nombre": "Molinell (imparell) - Alboraia (1806)", "linea": "98,N10", "longitud": "-0.3700428613032802", "latitud": "39.48520324342893", "tipo": "emt", "municipio": "Trinitat" }, "geometry": { "type": "Point", "coordinates": [ -0.37004286130328, 39.485203243428927 ] } },
{ "type": "Feature", "properties": { "id": "1318", "nombre": "Molinell (parell) - Alboraia (1318)", "linea": "98", "longitud": "-0.3697122176746564", "latitud": "39.48494118060363", "tipo": "emt", "municipio": "Trinitat" }, "geometry": { "type": "Point", "coordinates": [ -0.369712217674656, 39.484941180603634 ] } },
{ "type": "Feature", "properties": { "id": "2232", "nombre": "Alboraia - Jaca (2232)", "linea": "11,N10", "longitud": "-0.3693788614546257", "latitud": "39.48413410592833", "tipo": "emt", "municipio": "Trinitat" }, "geometry": { "type": "Point", "coordinates": [ -0.369378861454626, 39.484134105928334 ] } },
{ "type": "Feature", "properties": { "id": "284", "nombre": "Camí de Montcada - Casa d'Àngel (284)", "linea": "26", "longitud": "-0.3839692130139706", "latitud": "39.50684791912538", "tipo": "emt", "municipio": "Les Tendetes" }, "geometry": { "type": "Point", "coordinates": [ -0.383969213013971, 39.506847919125384 ] } },
{ "type": "Feature", "properties": { "id": "1812", "nombre": "Joaquím Ballester (imparell) - Pare Ferris (1812)", "linea": "98", "longitud": "-0.3854716070173363", "latitud": "39.48481382541753", "tipo": "emt", "municipio": "Les Tendetes" }, "geometry": { "type": "Point", "coordinates": [ -0.385471607017336, 39.484813825417525 ] } },
{ "type": "Feature", "properties": { "id": "70", "nombre": "Poliesportiu Natzaret - Moraira (70)", "linea": "30,4,95,N8", "longitud": "-0.3324287753532208", "latitud": "39.45055909542334", "tipo": "emt", "municipio": "Les Tendetes" }, "geometry": { "type": "Point", "coordinates": [ -0.332428775353221, 39.450559095423337 ] } },
{ "type": "Feature", "properties": { "id": "1422", "nombre": "Petxina - Pérez Galdos (1422)", "linea": "95", "longitud": "-0.3967538585909201", "latitud": "39.47464778834009", "tipo": "emt", "municipio": "Campanar" }, "geometry": { "type": "Point", "coordinates": [ -0.39675385859092, 39.474647788340086 ] } },
{ "type": "Feature", "properties": { "id": "290", "nombre": "Carpesa (290)", "linea": "26", "longitud": "-0.3773143752871361", "latitud": "39.5150989935312", "tipo": "emt", "municipio": "Campanar" }, "geometry": { "type": "Point", "coordinates": [ -0.377314375287136, 39.515098993531204 ] } },
{ "type": "Feature", "properties": { "id": "415", "nombre": "Vall de la Ballestera (parell) - Mestre Rodrigo (415)", "linea": "98,99", "longitud": "-0.3979386917095069", "latitud": "39.47932159552723", "tipo": "emt", "municipio": "Campanar" }, "geometry": { "type": "Point", "coordinates": [ -0.397938691709507, 39.479321595527232 ] } },
{ "type": "Feature", "properties": { "id": "2307", "nombre": "General Avilés (illeta) - Pius XII (2307)", "linea": "94", "longitud": "-0.3958820309358738", "latitud": "39.48559001534807", "tipo": "emt", "municipio": "Campanar" }, "geometry": { "type": "Point", "coordinates": [ -0.395882030935874, 39.485590015348073 ] } },
{ "type": "Feature", "properties": { "id": "627", "nombre": "Fonteta Sant Lluís - Bèrnia (627)", "linea": "7", "longitud": "-0.3716216565564202", "latitud": "39.45396312664135", "tipo": "emt", "municipio": "Campanar" }, "geometry": { "type": "Point", "coordinates": [ -0.37162165655642, 39.453963126641348 ] } },
{ "type": "Feature", "properties": { "id": "530", "nombre": "Tres Forques - Mare de Déu de la Cabeça (530)", "linea": "71,N5", "longitud": "-0.3998469363943848", "latitud": "39.46368117339872", "tipo": "emt", "municipio": "Campanar" }, "geometry": { "type": "Point", "coordinates": [ -0.399846936394385, 39.463681173398719 ] } },
{ "type": "Feature", "properties": { "id": "359", "nombre": "Joaquím Ballester - Campanar (359)", "linea": "98", "longitud": "-0.3919255341133743", "latitud": "39.48200192837728", "tipo": "emt", "municipio": "Campanar" }, "geometry": { "type": "Point", "coordinates": [ -0.391925534113374, 39.482001928377279 ] } },
{ "type": "Feature", "properties": { "id": "372", "nombre": "Pius XII - Campanar (372)", "linea": "62,63,64,92,99,N3", "longitud": "-0.3932838665887442", "latitud": "39.48223359170728", "tipo": "emt", "municipio": "Campanar" }, "geometry": { "type": "Point", "coordinates": [ -0.393283866588744, 39.482233591707285 ] } },
{ "type": "Feature", "properties": { "id": "64", "nombre": "Vall de la Ballestera - Campanar (64)", "linea": "98,99", "longitud": "-0.393545512567508", "latitud": "39.48091290492269", "tipo": "emt", "municipio": "Campanar" }, "geometry": { "type": "Point", "coordinates": [ -0.393545512567508, 39.48091290492269 ] } },
{ "type": "Feature", "properties": { "id": "1694", "nombre": "Primat Reig - Dr. Gómez Ferrer (1694)", "linea": "90,98", "longitud": "-0.3603170919812813", "latitud": "39.48181223106321", "tipo": "emt", "municipio": "Jaume Roig" }, "geometry": { "type": "Point", "coordinates": [ -0.360317091981281, 39.481812231063209 ] } },
{ "type": "Feature", "properties": { "id": "186", "nombre": "Primat Reig - Jaume Roig (186)", "linea": "90,98", "longitud": "-0.3633803278420699", "latitud": "39.48407398723863", "tipo": "emt", "municipio": "Jaume Roig" }, "geometry": { "type": "Point", "coordinates": [ -0.36338032784207, 39.484073987238631 ] } },
{ "type": "Feature", "properties": { "id": "1410", "nombre": "Borbotó (1410)", "linea": "26", "longitud": "-0.3886678195476463", "latitud": "39.51418151401951", "tipo": "emt", "municipio": "El Carme" }, "geometry": { "type": "Point", "coordinates": [ -0.388667819547646, 39.514181514019512 ] } },
{ "type": "Feature", "properties": { "id": "1959", "nombre": "Blanqueria - Pare d' Òrfens (1959)", "linea": "28,95,C1", "longitud": "-0.3777590314775099", "latitud": "39.48037510519851", "tipo": "emt", "municipio": "El Carme" }, "geometry": { "type": "Point", "coordinates": [ -0.37775903147751, 39.480375105198512 ] } },
{ "type": "Feature", "properties": { "id": "1442", "nombre": "Dr. Tomàs Sala (imparell) - Sant Vicent Màrtir (1442)", "linea": "18,9,99,N6", "longitud": "-0.3872770335861917", "latitud": "39.44692260835913", "tipo": "emt", "municipio": "El Carme" }, "geometry": { "type": "Point", "coordinates": [ -0.387277033586192, 39.446922608359131 ] } },
{ "type": "Feature", "properties": { "id": "1537", "nombre": "Parc Gulliver  (1537)", "linea": "19,94", "longitud": "-0.3587930091670318", "latitud": "39.46318627266343", "tipo": "emt", "municipio": "Ciutat Universitaria" }, "geometry": { "type": "Point", "coordinates": [ -0.358793009167032, 39.463186272663428 ] } },
{ "type": "Feature", "properties": { "id": "331", "nombre": "Bombas Gens (331)", "linea": "28,94,N10", "longitud": "-0.3856298968111017", "latitud": "39.48548516355135", "tipo": "emt", "municipio": "Ciutat Universitaria" }, "geometry": { "type": "Point", "coordinates": [ -0.385629896811102, 39.485485163551353 ] } },
{ "type": "Feature", "properties": { "id": "341", "nombre": "Pont de Fusta (341)", "linea": "16,26,6,79,94,95", "longitud": "-0.3740110905904736", "latitud": "39.4809077774229", "tipo": "emt", "municipio": "El Botanic" }, "geometry": { "type": "Point", "coordinates": [ -0.374011090590474, 39.4809077774229 ] } },
{ "type": "Feature", "properties": { "id": "694", "nombre": "Ferran el Catòlic - Juan de Mena (694)", "linea": "60,62,64,80,92,N3", "longitud": "-0.3861318703269893", "latitud": "39.47232192391291", "tipo": "emt", "municipio": "El Botanic" }, "geometry": { "type": "Point", "coordinates": [ -0.386131870326989, 39.472321923912908 ] } },
{ "type": "Feature", "properties": { "id": "803", "nombre": "Quart - Guillem de Castro (803)", "linea": "73", "longitud": "-0.3846713154528348", "latitud": "39.47572058859991", "tipo": "emt", "municipio": "El Botanic" }, "geometry": { "type": "Point", "coordinates": [ -0.384671315452835, 39.475720588599913 ] } },
{ "type": "Feature", "properties": { "id": "871", "nombre": "Misser Mascó - Dr. Moliner (871)", "linea": "32", "longitud": "-0.362503832423428", "latitud": "39.47554958631664", "tipo": "emt", "municipio": "Exposicio" }, "geometry": { "type": "Point", "coordinates": [ -0.362503832423428, 39.475549586316639 ] } },
{ "type": "Feature", "properties": { "id": "473", "nombre": "Brasil - Velàzquez (473)", "linea": "73", "longitud": "-0.4006458202088345", "latitud": "39.47246202669662", "tipo": "emt", "municipio": "La Seu" }, "geometry": { "type": "Point", "coordinates": [ -0.400645820208834, 39.472462026696618 ] } },
{ "type": "Feature", "properties": { "id": "1114", "nombre": "Ramon Llull - García Donato (1114)", "linea": "40,71", "longitud": "-0.3468700786979239", "latitud": "39.47681434554242", "tipo": "emt", "municipio": "La Vega Baixa" }, "geometry": { "type": "Point", "coordinates": [ -0.346870078697924, 39.476814345542415 ] } },
{ "type": "Feature", "properties": { "id": "1145", "nombre": "Campus de Burjassot (1145)", "linea": "63", "longitud": "-0.4216996465348844", "latitud": "39.50963008345769", "tipo": "emt", "municipio": "La Petxina" }, "geometry": { "type": "Point", "coordinates": [ -0.421699646534884, 39.509630083457694 ] } },
{ "type": "Feature", "properties": { "id": "1366", "nombre": "La Llum (1366)", "linea": "71", "longitud": "-0.417148661614266", "latitud": "39.46845737329358", "tipo": "emt", "municipio": "La Petxina" }, "geometry": { "type": "Point", "coordinates": [ -0.417148661614266, 39.468457373293582 ] } },
{ "type": "Feature", "properties": { "id": "749", "nombre": "Quart - Terol (749)", "linea": "73", "longitud": "-0.3912802713032787", "latitud": "39.47461197811272", "tipo": "emt", "municipio": "La Petxina" }, "geometry": { "type": "Point", "coordinates": [ -0.391280271303279, 39.474611978112719 ] } },
{ "type": "Feature", "properties": { "id": "395", "nombre": "Campament (imparell) - Joaquín Marín (395)", "linea": "62,N3", "longitud": "-0.4226941165430092", "latitud": "39.50148699751043", "tipo": "emt", "municipio": "La Petxina" }, "geometry": { "type": "Point", "coordinates": [ -0.422694116543009, 39.501486997510433 ] } },
{ "type": "Feature", "properties": { "id": "485", "nombre": "Nou d'Octubre (485)", "linea": "93,N4", "longitud": "-0.4055785064508074", "latitud": "39.47013317475743", "tipo": "emt", "municipio": "Cabanyal-Canyamelar" }, "geometry": { "type": "Point", "coordinates": [ -0.405578506450807, 39.470133174757429 ] } },
{ "type": "Feature", "properties": { "id": "1384", "nombre": "Serradora - Poliesportiu (1384)", "linea": "32,99", "longitud": "-0.33503715902562", "latitud": "39.46667732511951", "tipo": "emt", "municipio": "Cabanyal-Canyamelar" }, "geometry": { "type": "Point", "coordinates": [ -0.33503715902562, 39.466677325119512 ] } },
{ "type": "Feature", "properties": { "id": "1385", "nombre": "Martí Grajales - Serradora (1385)", "linea": "32", "longitud": "-0.3345553043626351", "latitud": "39.46825484873621", "tipo": "emt", "municipio": "Cabanyal-Canyamelar" }, "geometry": { "type": "Point", "coordinates": [ -0.334555304362635, 39.468254848736208 ] } },
{ "type": "Feature", "properties": { "id": "1672", "nombre": "Reina - Pescadors (1672)", "linea": "19,92,N1", "longitud": "-0.3285296166249586", "latitud": "39.46986107034692", "tipo": "emt", "municipio": "Cabanyal-Canyamelar" }, "geometry": { "type": "Point", "coordinates": [ -0.328529616624959, 39.469861070346923 ] } },
{ "type": "Feature", "properties": { "id": "934", "nombre": "el Tremolar - Camí del Cavalló (934)", "linea": "14", "longitud": "-0.3609942678649792", "latitud": "39.42349814485445", "tipo": "emt", "municipio": "Cabanyal-Canyamelar" }, "geometry": { "type": "Point", "coordinates": [ -0.360994267864979, 39.423498144854449 ] } },
{ "type": "Feature", "properties": { "id": "45", "nombre": "Pintor Ferrandis - Josep Benlliure (45)", "linea": "31,N1", "longitud": "-0.3295753425167224", "latitud": "39.47194838405358", "tipo": "emt", "municipio": "Cabanyal-Canyamelar" }, "geometry": { "type": "Point", "coordinates": [ -0.329575342516722, 39.471948384053576 ] } },
{ "type": "Feature", "properties": { "id": "949", "nombre": "Almàssera (949)", "linea": "16", "longitud": "-0.3613584036763181", "latitud": "39.51637262851342", "tipo": "emt", "municipio": "Cabanyal-Canyamelar" }, "geometry": { "type": "Point", "coordinates": [ -0.361358403676318, 39.516372628513423 ] } },
{ "type": "Feature", "properties": { "id": "1007", "nombre": "Jesús Morante Borràs (I) - (1007)", "linea": "15", "longitud": "-0.3454345529992708", "latitud": "39.45101489021512", "tipo": "emt", "municipio": "Cabanyal-Canyamelar" }, "geometry": { "type": "Point", "coordinates": [ -0.345434552999271, 39.45101489021512 ] } },
{ "type": "Feature", "properties": { "id": "1010", "nombre": "Jesús Morante Borrás (IV) (1010)", "linea": "15", "longitud": "-0.3439874281076998", "latitud": "39.44414756137639", "tipo": "emt", "municipio": "Mestalla" }, "geometry": { "type": "Point", "coordinates": [ -0.3439874281077, 39.44414756137639 ] } },
{ "type": "Feature", "properties": { "id": "1014", "nombre": "Jesús Morante Borràs (VIII) -  (1014)", "linea": "15", "longitud": "-0.3438649676535533", "latitud": "39.44789369518285", "tipo": "emt", "municipio": "Mestalla" }, "geometry": { "type": "Point", "coordinates": [ -0.343864967653553, 39.447893695182849 ] } },
{ "type": "Feature", "properties": { "id": "1615", "nombre": "Port - Saragossa (1615)", "linea": "4,92,N8", "longitud": "-0.3600001765439261", "latitud": "39.46794697759549", "tipo": "emt", "municipio": "Mestalla" }, "geometry": { "type": "Point", "coordinates": [ -0.360000176543926, 39.467946977595489 ] } },
{ "type": "Feature", "properties": { "id": "226", "nombre": "Cardenal Benlloch - Ernest Ferrer (226)", "linea": "18,90", "longitud": "-0.3542597170047676", "latitud": "39.47204907178329", "tipo": "emt", "municipio": "Mestalla" }, "geometry": { "type": "Point", "coordinates": [ -0.354259717004768, 39.472049071783289 ] } },
{ "type": "Feature", "properties": { "id": "966", "nombre": "Vicent Zaragozà (966)", "linea": "10", "longitud": "-0.3575740857631919", "latitud": "39.48407868643406", "tipo": "emt", "municipio": "Mestalla" }, "geometry": { "type": "Point", "coordinates": [ -0.357574085763192, 39.48407868643406 ] } },
{ "type": "Feature", "properties": { "id": "869", "nombre": "Amadeu de Savoia - Suècia (869)", "linea": "32", "longitud": "-0.3594915098152329", "latitud": "39.47303074723169", "tipo": "emt", "municipio": "Mestalla" }, "geometry": { "type": "Point", "coordinates": [ -0.359491509815233, 39.473030747231689 ] } },
{ "type": "Feature", "properties": { "id": "874", "nombre": "Finlàndia - General Gil Dolz (874)", "linea": "32", "longitud": "-0.3603308647332809", "latitud": "39.47272286992908", "tipo": "emt", "municipio": "Mestalla" }, "geometry": { "type": "Point", "coordinates": [ -0.360330864733281, 39.472722869929079 ] } },
{ "type": "Feature", "properties": { "id": "1597", "nombre": "Illes Canàries - Lebon (1597)", "linea": "30,4,92,N8", "longitud": "-0.3504602989321458", "latitud": "39.46504304755925", "tipo": "emt", "municipio": "La Xerea" }, "geometry": { "type": "Point", "coordinates": [ -0.350460298932146, 39.465043047559249 ] } },
{ "type": "Feature", "properties": { "id": "1631", "nombre": "Port - Illes Canàries (1631)", "linea": "19,N9", "longitud": "-0.3381571286187351", "latitud": "39.46152898895248", "tipo": "emt", "municipio": "El Mercat" }, "geometry": { "type": "Point", "coordinates": [ -0.338157128618735, 39.46152898895248 ] } },
{ "type": "Feature", "properties": { "id": "1734", "nombre": "Carda - Moro Zeit (1734)", "linea": "73", "longitud": "-0.3808729918214302", "latitud": "39.47511272140295", "tipo": "emt", "municipio": "El Mercat" }, "geometry": { "type": "Point", "coordinates": [ -0.38087299182143, 39.475112721402951 ] } },
{ "type": "Feature", "properties": { "id": "985", "nombre": "Centre de Salut Benimaclet (985)", "linea": "10", "longitud": "-0.3585035150302925", "latitud": "39.48332168711801", "tipo": "emt", "municipio": "El Mercat" }, "geometry": { "type": "Point", "coordinates": [ -0.358503515030292, 39.483321687118007 ] } },
{ "type": "Feature", "properties": { "id": "2287", "nombre": "Editor Manuel Aguilar - Guillem Sorolla (2287)", "linea": "11,60,62,73", "longitud": "-0.380412359239771", "latitud": "39.47271228635729", "tipo": "emt", "municipio": "El Mercat" }, "geometry": { "type": "Point", "coordinates": [ -0.380412359239771, 39.472712286357293 ] } },
{ "type": "Feature", "properties": { "id": "773", "nombre": "Plaça del Temple (773)", "linea": "11,16,26,28,6,80,94,95,C1,N10", "longitud": "-0.3712278016518398", "latitud": "39.47697902585149", "tipo": "emt", "municipio": "El Pilar" }, "geometry": { "type": "Point", "coordinates": [ -0.37122780165184, 39.476979025851492 ] } },
{ "type": "Feature", "properties": { "id": "653", "nombre": "Poliesportiu Fta. Sant Lluís (653)", "linea": "13", "longitud": "-0.3664446867397901", "latitud": "39.4519407436984", "tipo": "emt", "municipio": "Sant Francesc" }, "geometry": { "type": "Point", "coordinates": [ -0.36644468673979, 39.451940743698394 ] } },
{ "type": "Feature", "properties": { "id": "686", "nombre": "Plaça de Cánovas (686)", "linea": "80,92,93", "longitud": "-0.3658185852528091", "latitud": "39.46848898117759", "tipo": "emt", "municipio": "Sant Francesc" }, "geometry": { "type": "Point", "coordinates": [ -0.365818585252809, 39.468488981177593 ] } },
{ "type": "Feature", "properties": { "id": "691", "nombre": "Plaça d'Espanya (691)", "linea": "80,92", "longitud": "-0.3810372751688723", "latitud": "39.46526988246608", "tipo": "emt", "municipio": "Sant Francesc" }, "geometry": { "type": "Point", "coordinates": [ -0.381037275168872, 39.465269882466082 ] } },
{ "type": "Feature", "properties": { "id": "2282", "nombre": "Av. de l'Oest (imparell) - Sant Agustí (2282)", "linea": "27,7,73", "longitud": "-0.3795578084269184", "latitud": "39.46949136427292", "tipo": "emt", "municipio": "Sant Francesc" }, "geometry": { "type": "Point", "coordinates": [ -0.379557808426918, 39.469491364272919 ] } },
{ "type": "Feature", "properties": { "id": "555", "nombre": "Conca - Pérez Galdós (555)", "linea": "11", "longitud": "-0.3885707407060946", "latitud": "39.46377446986934", "tipo": "emt", "municipio": "Sant Francesc" }, "geometry": { "type": "Point", "coordinates": [ -0.388570740706095, 39.463774469869342 ] } },
{ "type": "Feature", "properties": { "id": "636", "nombre": "Fonteta Sant Lluís (imparell) - Àngel Villena (636)", "linea": "13,7,N7", "longitud": "-0.3684030328771879", "latitud": "39.44858302343373", "tipo": "emt", "municipio": "El Pla del Remei" }, "geometry": { "type": "Point", "coordinates": [ -0.368403032877188, 39.448583023433734 ] } },
{ "type": "Feature", "properties": { "id": "2206", "nombre": "Pl. Amèrica - Navarro Reverter (2206)", "linea": "10,4,94", "longitud": "-0.3658702891536001", "latitud": "39.4706842963996", "tipo": "emt", "municipio": "El Pla del Remei" }, "geometry": { "type": "Point", "coordinates": [ -0.3658702891536, 39.470684296399597 ] } },
{ "type": "Feature", "properties": { "id": "498", "nombre": "Mercat de Castilla (498)", "linea": "71,99", "longitud": "-0.4061690717084912", "latitud": "39.46545980494533", "tipo": "emt", "municipio": "El Pla del Remei" }, "geometry": { "type": "Point", "coordinates": [ -0.406169071708491, 39.465459804945326 ] } },
{ "type": "Feature", "properties": { "id": "507", "nombre": "Central de Policia Local de València (507)", "linea": "70,93,N4", "longitud": "-0.3999233152564228", "latitud": "39.46855484215892", "tipo": "emt", "municipio": "El Pla del Remei" }, "geometry": { "type": "Point", "coordinates": [ -0.399923315256423, 39.468554842158923 ] } },
{ "type": "Feature", "properties": { "id": "368", "nombre": "Mercat de Campanar (368)", "linea": "89", "longitud": "-0.3947695586673236", "latitud": "39.47777580159739", "tipo": "emt", "municipio": "El Pla del Remei" }, "geometry": { "type": "Point", "coordinates": [ -0.394769558667324, 39.477775801597389 ] } },
{ "type": "Feature", "properties": { "id": "373", "nombre": "Campanar (373)", "linea": "62,64,92,99,N3", "longitud": "-0.3946933426654246", "latitud": "39.48439589204899", "tipo": "emt", "municipio": "El Pla del Remei" }, "geometry": { "type": "Point", "coordinates": [ -0.394693342665425, 39.484395892048987 ] } },
{ "type": "Feature", "properties": { "id": "1690", "nombre": "Giorgeta - Albacete (1690)", "linea": "90", "longitud": "-0.3860026431579386", "latitud": "39.46154303335536", "tipo": "emt", "municipio": "Arrancapins" }, "geometry": { "type": "Point", "coordinates": [ -0.386002643157939, 39.461543033355362 ] } },
{ "type": "Feature", "properties": { "id": "310", "nombre": "Parc de Benicalap (310)", "linea": "28,N10", "longitud": "-0.3962106880814399", "latitud": "39.49567884866867", "tipo": "emt", "municipio": "Arrancapins" }, "geometry": { "type": "Point", "coordinates": [ -0.39621068808144, 39.495678848668668 ] } },
{ "type": "Feature", "properties": { "id": "352", "nombre": "Pont dels Serrans (352)", "linea": "16,26,6,80,94,N10", "longitud": "-0.3753595170469953", "latitud": "39.48164319706041", "tipo": "emt", "municipio": "Arrancapins" }, "geometry": { "type": "Point", "coordinates": [ -0.375359517046995, 39.481643197060407 ] } },
{ "type": "Feature", "properties": { "id": "346", "nombre": "Estació d'autobusos (346)", "linea": "79,95", "longitud": "-0.3877087530282515", "latitud": "39.48021191577372", "tipo": "emt", "municipio": "Arrancapins" }, "geometry": { "type": "Point", "coordinates": [ -0.387708753028251, 39.480211915773715 ] } },
{ "type": "Feature", "properties": { "id": "344", "nombre": "Escola Oficial d'Idiomes (344)", "linea": "79,94,95", "longitud": "-0.3812053074435144", "latitud": "39.48298254491847", "tipo": "emt", "municipio": "Arrancapins" }, "geometry": { "type": "Point", "coordinates": [ -0.381205307443514, 39.482982544918471 ] } },
{ "type": "Feature", "properties": { "id": "1110", "nombre": "Dr. Manuel Candela (parell) - Port (1110)", "linea": "30,40", "longitud": "-0.3509472577149589", "latitud": "39.46597126822129", "tipo": "emt", "municipio": "Aiora" }, "geometry": { "type": "Point", "coordinates": [ -0.350947257714959, 39.465971268221288 ] } },
{ "type": "Feature", "properties": { "id": "1119", "nombre": "Dr. Manuel Candela (imparell) - Port (1119)", "linea": "30,40", "longitud": "-0.3512720404620183", "latitud": "39.46590818654433", "tipo": "emt", "municipio": "Aiora" }, "geometry": { "type": "Point", "coordinates": [ -0.351272040462018, 39.465908186544326 ] } },
{ "type": "Feature", "properties": { "id": "1118", "nombre": "Dr. Manuel Candela (imparell) - Rodríguez de Cepeda (1118)", "linea": "30,40", "longitud": "-0.3502674310412221", "latitud": "39.46837632561385", "tipo": "emt", "municipio": "Aiora" }, "geometry": { "type": "Point", "coordinates": [ -0.350267431041222, 39.468376325613853 ] } },
{ "type": "Feature", "properties": { "id": "144", "nombre": "Dr. Manuel Candela (parell) - Rodríguez de Cepeda (144)", "linea": "30,40", "longitud": "-0.3500404147013441", "latitud": "39.46811774168418", "tipo": "emt", "municipio": "Aiora" }, "geometry": { "type": "Point", "coordinates": [ -0.350040414701344, 39.468117741684182 ] } },
{ "type": "Feature", "properties": { "id": "1306", "nombre": "Pont de les Drassanes (1306)", "linea": "30,4,95,N8", "longitud": "-0.3299745828044704", "latitud": "39.45506261133725", "tipo": "emt", "municipio": "Aiora" }, "geometry": { "type": "Point", "coordinates": [ -0.32997458280447, 39.455062611337247 ] } },
{ "type": "Feature", "properties": { "id": "1500", "nombre": "Sants Just i Pastor - Escultor Esteve Edo (1500)", "linea": "32", "longitud": "-0.3390583913822912", "latitud": "39.46691242145077", "tipo": "emt", "municipio": "Aiora" }, "geometry": { "type": "Point", "coordinates": [ -0.339058391382291, 39.466912421450772 ] } },
{ "type": "Feature", "properties": { "id": "1602", "nombre": "Serradora - Peanya (1602)", "linea": "99,N9", "longitud": "-0.3375800691131813", "latitud": "39.46279175204722", "tipo": "emt", "municipio": "Aiora" }, "geometry": { "type": "Point", "coordinates": [ -0.337580069113181, 39.462791752047224 ] } },
{ "type": "Feature", "properties": { "id": "1239", "nombre": "Primat Reig - Xàbia (1239)", "linea": "10,90,98", "longitud": "-0.356596088318809", "latitud": "39.47901319651021", "tipo": "emt", "municipio": "La Roqueta" }, "geometry": { "type": "Point", "coordinates": [ -0.356596088318809, 39.479013196510209 ] } },
{ "type": "Feature", "properties": { "id": "1538", "nombre": "França-Albereda (1538)", "linea": "19,N9", "longitud": "-0.3521466572906376", "latitud": "39.46005182152625", "tipo": "emt", "municipio": "La Roqueta" }, "geometry": { "type": "Point", "coordinates": [ -0.352146657290638, 39.46005182152625 ] } },
{ "type": "Feature", "properties": { "id": "1540", "nombre": "França-Trafalgar (1540)", "linea": "19,N9", "longitud": "-0.3456023537080434", "latitud": "39.45861530746599", "tipo": "emt", "municipio": "La Gran Via" }, "geometry": { "type": "Point", "coordinates": [ -0.345602353708043, 39.45861530746599 ] } },
{ "type": "Feature", "properties": { "id": "1427", "nombre": "Jacinto Benavente - Borriana (1427)", "linea": "13,24,25,95", "longitud": "-0.3628317805160905", "latitud": "39.46632864471147", "tipo": "emt", "municipio": "La Gran Via" }, "geometry": { "type": "Point", "coordinates": [ -0.362831780516091, 39.466328644711474 ] } },
{ "type": "Feature", "properties": { "id": "1764", "nombre": "Jacinto Benavente - Palau de la Música (1764)", "linea": "24,25,95", "longitud": "-0.3625584170618676", "latitud": "39.46683775245832", "tipo": "emt", "municipio": "La Gran Via" }, "geometry": { "type": "Point", "coordinates": [ -0.362558417061868, 39.466837752458325 ] } },
{ "type": "Feature", "properties": { "id": "725", "nombre": "Regne de València - Mestre Gozalbo (725)", "linea": "19", "longitud": "-0.3676614927874143", "latitud": "39.46384499789331", "tipo": "emt", "municipio": "La Gran Via" }, "geometry": { "type": "Point", "coordinates": [ -0.367661492787414, 39.463844997893311 ] } },
{ "type": "Feature", "properties": { "id": "268", "nombre": "Joan XXIII (parell) - Félix del Río (268)", "linea": "60,64", "longitud": "-0.382308920049371", "latitud": "39.4912216304024", "tipo": "emt", "municipio": "La Gran Via" }, "geometry": { "type": "Point", "coordinates": [ -0.382308920049371, 39.4912216304024 ] } },
{ "type": "Feature", "properties": { "id": "732", "nombre": "Ciscar - Mestre Racional (732)", "linea": "13", "longitud": "-0.3638254251834878", "latitud": "39.46350784461669", "tipo": "emt", "municipio": "La Gran Via" }, "geometry": { "type": "Point", "coordinates": [ -0.363825425183488, 39.463507844616686 ] } },
{ "type": "Feature", "properties": { "id": "124", "nombre": "Blasco Ibáñez - José María Orense (124)", "linea": "31,81,N1", "longitud": "-0.340052576937374", "latitud": "39.47216399351745", "tipo": "emt", "municipio": "La Gran Via" }, "geometry": { "type": "Point", "coordinates": [ -0.340052576937374, 39.472163993517448 ] } },
{ "type": "Feature", "properties": { "id": "733", "nombre": "Ciscar - Borriana (733)", "linea": "13,40", "longitud": "-0.3651252342108835", "latitud": "39.46545629263329", "tipo": "emt", "municipio": "La Gran Via" }, "geometry": { "type": "Point", "coordinates": [ -0.365125234210884, 39.465456292633291 ] } },
{ "type": "Feature", "properties": { "id": "734", "nombre": "Ciscar - Comte d'Altea (734)", "linea": "13,40", "longitud": "-0.3663166285891424", "latitud": "39.46717694166819", "tipo": "emt", "municipio": "La Gran Via" }, "geometry": { "type": "Point", "coordinates": [ -0.366316628589142, 39.467176941668193 ] } },
{ "type": "Feature", "properties": { "id": "514", "nombre": "Tres Creus (carril bus) - Llombai (514)", "linea": "71,73,99,N5", "longitud": "-0.4054479622256522", "latitud": "39.46410335444224", "tipo": "emt", "municipio": "Tres Forques" }, "geometry": { "type": "Point", "coordinates": [ -0.405447962225652, 39.464103354442237 ] } },
{ "type": "Feature", "properties": { "id": "1307", "nombre": "Tres Creus - Llombai (1307)", "linea": "70", "longitud": "-0.4052608054741534", "latitud": "39.46439767508708", "tipo": "emt", "municipio": "Tres Forques" }, "geometry": { "type": "Point", "coordinates": [ -0.405260805474153, 39.464397675087085 ] } },
{ "type": "Feature", "properties": { "id": "1133", "nombre": "Tossal del Rei (1133)", "linea": "12,16,N2", "longitud": "-0.3723487535040463", "latitud": "39.49631621156632", "tipo": "emt", "municipio": "Tres Forques" }, "geometry": { "type": "Point", "coordinates": [ -0.372348753504046, 39.496316211566324 ] } },
{ "type": "Feature", "properties": { "id": "62", "nombre": "Mercat de Natzaret (62)", "linea": "30,4,95,N8", "longitud": "-0.3341561776066225", "latitud": "39.45023729846008", "tipo": "emt", "municipio": "Tres Forques" }, "geometry": { "type": "Point", "coordinates": [ -0.334156177606622, 39.450237298460074 ] } },
{ "type": "Feature", "properties": { "id": "60", "nombre": "Pont de les Drassanes (60)", "linea": "30,4,95,N8", "longitud": "-0.3306578542809831", "latitud": "39.454493936024", "tipo": "emt", "municipio": "Tres Forques" }, "geometry": { "type": "Point", "coordinates": [ -0.330657854280983, 39.454493936024001 ] } },
{ "type": "Feature", "properties": { "id": "1132", "nombre": "Músic Espí - Gravador Fabregat (1132)", "linea": "12", "longitud": "-0.3741982329483814", "latitud": "39.49696940247059", "tipo": "emt", "municipio": "Cami Fondo" }, "geometry": { "type": "Point", "coordinates": [ -0.374198232948381, 39.49696940247059 ] } },
{ "type": "Feature", "properties": { "id": "1617", "nombre": "Port - Riu Escalona (1617)", "linea": "4,92,N8", "longitud": "-0.3526632875858894", "latitud": "39.46577323434218", "tipo": "emt", "municipio": "Cami Fondo" }, "geometry": { "type": "Point", "coordinates": [ -0.352663287585889, 39.46577323434218 ] } },
{ "type": "Feature", "properties": { "id": "1055", "nombre": "Aragó - Ernest Ferrer (1055)", "linea": "10,12,79,93,N1", "longitud": "-0.3568933589312842", "latitud": "39.4728157944994", "tipo": "emt", "municipio": "Patraix" }, "geometry": { "type": "Point", "coordinates": [ -0.356893358931284, 39.472815794499397 ] } },
{ "type": "Feature", "properties": { "id": "1038", "nombre": "Arxiduc Carles (imparell) - Tres Forques (1038)", "linea": "72", "longitud": "-0.3964277824215156", "latitud": "39.46344373708717", "tipo": "emt", "municipio": "Patraix" }, "geometry": { "type": "Point", "coordinates": [ -0.396427782421516, 39.463443737087168 ] } },
{ "type": "Feature", "properties": { "id": "1254", "nombre": "Cid - Aiora (1254)", "linea": "67,70,89,93,N4", "longitud": "-0.3923113127113459", "latitud": "39.46723397815293", "tipo": "emt", "municipio": "Patraix" }, "geometry": { "type": "Point", "coordinates": [ -0.392311312711346, 39.467233978152933 ] } },
{ "type": "Feature", "properties": { "id": "1083", "nombre": "Aragó (1083)", "linea": "10,12,80,93,N1", "longitud": "-0.3578193955924653", "latitud": "39.47279886321418", "tipo": "emt", "municipio": "Patraix" }, "geometry": { "type": "Point", "coordinates": [ -0.357819395592465, 39.47279886321418 ] } },
{ "type": "Feature", "properties": { "id": "531", "nombre": "Tres Forques (imparell) - Arxiduc Carles (531)", "linea": "71,N5", "longitud": "-0.396888496609976", "latitud": "39.4637962038548", "tipo": "emt", "municipio": "Patraix" }, "geometry": { "type": "Point", "coordinates": [ -0.396888496609976, 39.463796203854798 ] } },
{ "type": "Feature", "properties": { "id": "511", "nombre": "Tres Forques (parell) - Arxiduc Carles (511)", "linea": "71,N5", "longitud": "-0.3968986906759247", "latitud": "39.4640549316569", "tipo": "emt", "municipio": "Patraix" }, "geometry": { "type": "Point", "coordinates": [ -0.396898690675925, 39.464054931656896 ] } },
{ "type": "Feature", "properties": { "id": "532", "nombre": "Tres Forques - Churat i Saurí (532)", "linea": "71", "longitud": "-0.3919199326488302", "latitud": "39.46400204524694", "tipo": "emt", "municipio": "Patraix" }, "geometry": { "type": "Point", "coordinates": [ -0.39191993264883, 39.464002045246943 ] } },
{ "type": "Feature", "properties": { "id": "1678", "nombre": "Cardenal Benlloch - Sants Just i Pastor (1678)", "linea": "18,89", "longitud": "-0.3538671785622053", "latitud": "39.47214092415209", "tipo": "emt", "municipio": "Patraix" }, "geometry": { "type": "Point", "coordinates": [ -0.353867178562205, 39.472140924152086 ] } },
{ "type": "Feature", "properties": { "id": "1744", "nombre": "Albereda (riu) - L'Hemisfèric (1744)", "linea": "94", "longitud": "-0.3529621413320647", "latitud": "39.45943549573665", "tipo": "emt", "municipio": "Patraix" }, "geometry": { "type": "Point", "coordinates": [ -0.352962141332065, 39.459435495736649 ] } },
{ "type": "Feature", "properties": { "id": "1748", "nombre": "Marítim - Serradora (1748)", "linea": "99", "longitud": "-0.336123890213226", "latitud": "39.46401999477247", "tipo": "emt", "municipio": "Patraix" }, "geometry": { "type": "Point", "coordinates": [ -0.336123890213226, 39.464019994772471 ] } },
{ "type": "Feature", "properties": { "id": "1751", "nombre": "La Malva-rosa - Mendizàbal (1751)", "linea": "99", "longitud": "-0.3292264613206788", "latitud": "39.48387408481384", "tipo": "emt", "municipio": "Russafa" }, "geometry": { "type": "Point", "coordinates": [ -0.329226461320679, 39.483874084813834 ] } },
{ "type": "Feature", "properties": { "id": "2127", "nombre": "Filipines - Gibraltar (2127)", "linea": "8", "longitud": "-0.3788205964376223", "latitud": "39.4607583215138", "tipo": "emt", "municipio": "Russafa" }, "geometry": { "type": "Point", "coordinates": [ -0.378820596437622, 39.460758321513801 ] } },
{ "type": "Feature", "properties": { "id": "1769", "nombre": "la Murta (imparell) - Cementeri (1769)", "linea": "14,9", "longitud": "-0.3780329532518725", "latitud": "39.42507766761667", "tipo": "emt", "municipio": "Russafa" }, "geometry": { "type": "Point", "coordinates": [ -0.378032953251873, 39.425077667616669 ] } },
{ "type": "Feature", "properties": { "id": "1839", "nombre": "Orriols (1839)", "linea": "11,12", "longitud": "-0.3683987623827159", "latitud": "39.49289523298874", "tipo": "emt", "municipio": "Russafa" }, "geometry": { "type": "Point", "coordinates": [ -0.368398762382716, 39.492895232988744 ] } },
{ "type": "Feature", "properties": { "id": "708", "nombre": "Germanies - Sevilla (708)", "linea": "15,19,79,92,93", "longitud": "-0.3746594381490225", "latitud": "39.46435627681756", "tipo": "emt", "municipio": "Russafa" }, "geometry": { "type": "Point", "coordinates": [ -0.374659438149022, 39.464356276817561 ] } },
{ "type": "Feature", "properties": { "id": "717", "nombre": "Cadis - Puerto Rico (717)", "linea": "7,N7", "longitud": "-0.3736885919328791", "latitud": "39.46186663193128", "tipo": "emt", "municipio": "Russafa" }, "geometry": { "type": "Point", "coordinates": [ -0.373688591932879, 39.461866631931279 ] } },
{ "type": "Feature", "properties": { "id": "718", "nombre": "Cadis - dels Centelles (718)", "linea": "7,N7", "longitud": "-0.3718067286186897", "latitud": "39.4592662745097", "tipo": "emt", "municipio": "Russafa" }, "geometry": { "type": "Point", "coordinates": [ -0.37180672861869, 39.459266274509702 ] } },
{ "type": "Feature", "properties": { "id": "137", "nombre": "Amistat (137)", "linea": "32", "longitud": "-0.3498450829022355", "latitud": "39.47030864145061", "tipo": "emt", "municipio": "Russafa" }, "geometry": { "type": "Point", "coordinates": [ -0.349845082902235, 39.470308641450607 ] } },
{ "type": "Feature", "properties": { "id": "728", "nombre": "Pintor Salvador Abril - Mestre J. Serrano (728)", "linea": "14,15,35,6,N9", "longitud": "-0.3709369933054984", "latitud": "39.46375709314925", "tipo": "emt", "municipio": "Russafa" }, "geometry": { "type": "Point", "coordinates": [ -0.370936993305498, 39.463757093149248 ] } },
{ "type": "Feature", "properties": { "id": "1613", "nombre": "Comissaria Policia - Marítim (1613)", "linea": "95,N9", "longitud": "-0.3284097712575995", "latitud": "39.46290421170919", "tipo": "emt", "municipio": "Russafa" }, "geometry": { "type": "Point", "coordinates": [ -0.3284097712576, 39.462904211709187 ] } },
{ "type": "Feature", "properties": { "id": "886", "nombre": "Peris i Valero - Pintor Salvador Abril (886)", "linea": "14,35,N9", "longitud": "-0.3678117213164141", "latitud": "39.46042515743724", "tipo": "emt", "municipio": "Russafa" }, "geometry": { "type": "Point", "coordinates": [ -0.367811721316414, 39.460425157437243 ] } },
{ "type": "Feature", "properties": { "id": "2006", "nombre": "Pare Esteban Pernet  - Centre Comercial (2006)", "linea": "71", "longitud": "-0.4125941963771926", "latitud": "39.46699042836268", "tipo": "emt", "municipio": "Penya-Roja" }, "geometry": { "type": "Point", "coordinates": [ -0.412594196377193, 39.466990428362678 ] } },
{ "type": "Feature", "properties": { "id": "1462", "nombre": "Albereda - Pont del Regne (1462)", "linea": "19,40,94", "longitud": "-0.3567920097923907", "latitud": "39.46097446479127", "tipo": "emt", "municipio": "Penya-Roja" }, "geometry": { "type": "Point", "coordinates": [ -0.356792009792391, 39.460974464791271 ] } },
{ "type": "Feature", "properties": { "id": "951", "nombre": "Cases de Bàrcena III - (951)", "linea": "16", "longitud": "-0.3573106563254097", "latitud": "39.52234005222628", "tipo": "emt", "municipio": "Penya-Roja" }, "geometry": { "type": "Point", "coordinates": [ -0.35731065632541, 39.522340052226276 ] } },
{ "type": "Feature", "properties": { "id": "1813", "nombre": "Reus (1813)", "linea": "98", "longitud": "-0.382808970297176", "latitud": "39.48572281620208", "tipo": "emt", "municipio": "Penya-Roja" }, "geometry": { "type": "Point", "coordinates": [ -0.382808970297176, 39.485722816202077 ] } },
{ "type": "Feature", "properties": { "id": "1826", "nombre": "Joan XXIII (imparell) - Félix del Río (1826)", "linea": "64", "longitud": "-0.3824033616671084", "latitud": "39.49053076657013", "tipo": "emt", "municipio": "Penya-Roja" }, "geometry": { "type": "Point", "coordinates": [ -0.382403361667108, 39.490530766570132 ] } },
{ "type": "Feature", "properties": { "id": "1950", "nombre": "Illes Canàries (1950)", "linea": "35", "longitud": "-0.3491471614381523", "latitud": "39.46316071041991", "tipo": "emt", "municipio": "Penya-Roja" }, "geometry": { "type": "Point", "coordinates": [ -0.349147161438152, 39.463160710419906 ] } },
{ "type": "Feature", "properties": { "id": "1745", "nombre": "Albereda (riu) - Museu de les Ciències (1745)", "linea": "94", "longitud": "-0.3502611281751168", "latitud": "39.45757031587636", "tipo": "emt", "municipio": "Penya-Roja" }, "geometry": { "type": "Point", "coordinates": [ -0.350261128175117, 39.45757031587636 ] } },
{ "type": "Feature", "properties": { "id": "1759", "nombre": "Menorca -  Centre Comercial (1759)", "linea": "94,99,N9", "longitud": "-0.345891153851769", "latitud": "39.45742892594355", "tipo": "emt", "municipio": "Penya-Roja" }, "geometry": { "type": "Point", "coordinates": [ -0.345891153851769, 39.457428925943553 ] } },
{ "type": "Feature", "properties": { "id": "1833", "nombre": "Centre de Salut Assutzena (1833)", "linea": "12,N10", "longitud": "-0.3907715436438417", "latitud": "39.49406711392466", "tipo": "emt", "municipio": "Penya-Roja" }, "geometry": { "type": "Point", "coordinates": [ -0.390771543643842, 39.494067113924665 ] } },
{ "type": "Feature", "properties": { "id": "1837", "nombre": "Riu Nervión - Riu Segre (1837)", "linea": "12,N10", "longitud": "-0.3821985883275548", "latitud": "39.49565698533578", "tipo": "emt", "municipio": "Penya-Roja" }, "geometry": { "type": "Point", "coordinates": [ -0.382198588327555, 39.495656985335778 ] } },