{"type":"FeatureCollection","features":[{"type":"Feature","geometry":{"coordinates":[-0.385803848863486,39.52764376726197],"type":"Point"},"properties":{"geo_point_2d":{"lon":-0.38580384886348595,"lat":39.52764376726197},"codbarrio":"1","nombre":"BENIFARAIG","coddistbar":"171","coddistrit":"17","codbar":171,"transporte":"emt","stop_id":1137,"stop_name":"Ferrer i Bign\ufffd - Aiacor","stop_desc":"C FERRER Y BIGNE 21 - BENIFARAIG","x":724691.91,"y":4378596.09,"zone_id":null}},{"type":"Feature","geometry":{"coordinates":[-0.399336927420872,39.49103152203733],"type":"Point"},"properties":{"geo_point_2d":{"lon":-0.3993369274208722,"lat":39.49103152203733},"codbarrio":"1","nombre":"BENICALAP","coddistbar":"161","coddistrit":"16","codbar":161,"transporte":"metrovlc","stop_id":54,"stop_name":"Beniferri","stop_desc":"NULL","x":723646.02,"y":4374498.31,"zone_id":"A"}},{"type":"Feature","geometry":{"coordinates":[-0.387258306578868,39.489562835999216],"type":"Point"},"properties":{"geo_point_2d":{"lon":-0.3872583065788684,"lat":39.489562835999216},"codbarrio":"1","nombre":"BENICALAP","coddistbar":"161","coddistrit":"16","codbar":161,"transporte":"metrovlc","stop_id":96,"stop_name":"Tr\ufffdnsits","stop_desc":"NULL","x":724689.6,"y":4374365.36,"zone_id":"A"}},{"type":"Feature","geometry":{"coordinates":[-0.396816655939636,39.49443419501499],"type":"Point"},"properties":{"geo_point_2d":{"lon":-0.39681665593963605,"lat":39.49443419501499},"codbarrio":"1","nombre":"BENICALAP","coddistbar":"161","coddistrit":"16","codbar":161,"transporte":"metrovlc","stop_id":99,"stop_name":"Florista","stop_desc":"NULL","x":723851.8600000001,"y":4374882.28,"zone_id":"A"}},{"type":"Feature","geometry":{"coordinates":[-0.392778225524496,39.49607883121975],"type":"Point"},"properties":{"geo_point_2d":{"lon":-0.3927782255244965,"lat":39.49607883121975},"codbarrio":"1","nombre":"BENICALAP","coddistbar":"161","coddistrit":"16","codbar":161,"transporte":"emt","stop_id":1067,"stop_name":"Equador - Pintor Matarana","stop_desc":"AV ECUADOR  EL 93 (DAVANT) - VAL\ufffdNCIA","x":724193.89,"y":4375074.89,"zone_id":null}},{"type":"Feature","geometry":{"coordinates":[-0.391460962857036,39.48803711704195],"type":"Point"},"properties":{"geo_point_2d":{"lon":-0.39146096285703635,"lat":39.48803711704195},"codbarrio":"1","nombre":"BENICALAP","coddistbar":"161","coddistrit":"16","codbar":161,"transporte":"emt","stop_id":1183,"stop_name":"General Avil\ufffds (par) - Dr. Nicasi Benlloch","stop_desc":"AV GENERAL AVILES 10 - VAL\ufffdNCIA","x":724333.04,"y":4374185.52,"zone_id":null}},{"type":"Feature","geometry":{"coordinates":[-0.401818139798389,39.494183715692415],"type":"Point"},"properties":{"geo_point_2d":{"lon":-0.40181813979838915,"lat":39.494183715692415},"codbarrio":"1","nombre":"BENICALAP","coddistbar":"161","coddistrit":"16","codbar":161,"transporte":"emt","stop_id":1319,"stop_name":"Corts Valencianes - Palau de Congressos","stop_desc":"AV CORTS VALENCIANES P.CONGRESSOS (PAR) - VAL\ufffdNCIA","x":723422.52,"y":4374842.05,"zone_id":null}},{"type":"Feature","geometry":{"coordinates":[-0.396208839095057,39.494049233440656],"type":"Point"},"properties":{"geo_point_2d":{"lon":-0.39620883909505716,"lat":39.494049233440656},"codbarrio":"1","nombre":"BENICALAP","coddistbar":"161","coddistrit":"16","codbar":161,"transporte":"emt","stop_id":1331,"stop_name":"Florista - Carrasqueta","stop_desc":"C FLORISTA 113 - VAL\ufffdNCIA","x":723905.37,"y":4374841.06,"zone_id":null}},{"type":"Feature","geometry":{"coordinates":[-0.39403448223015,39.49194918548131],"type":"Point"},"properties":{"geo_point_2d":{"lon":-0.39403448223014986,"lat":39.49194918548131},"codbarrio":"1","nombre":"BENICALAP","coddistbar":"161","coddistrit":"16","codbar":161,"transporte":"emt","stop_id":1332,"stop_name":"Florista - Faura","stop_desc":"C FLORISTA 63 - VAL\ufffdNCIA","x":724099.1199999999,"y":4374613.36,"zone_id":null}},{"type":"Feature","geometry":{"coordinates":[-0.388570246131688,39.48893270455264],"type":"Point"},"properties":{"geo_point_2d":{"lon":-0.38857024613168817,"lat":39.48893270455264},"codbarrio":"1","nombre":"BENICALAP","coddistbar":"161","coddistrit":"16","codbar":161,"transporte":"emt","stop_id":1684,"stop_name":"Dr. Peset Aleixandre - Av. Burjassot","stop_desc":"AV DOCTOR PESET ALEIXANDRE 138 - VAL\ufffdNCIA","x":724578.7899999999,"y":4374292.14,"zone_id":null}},{"type":"Feature","geometry":{"coordinates":[-0.384842300215999,39.497039556121486],"type":"Point"},"properties":{"geo_point_2d":{"lon":-0.38484230021599897,"lat":39.497039556121486},"codbarrio":"1","nombre":"BENICALAP","coddistbar":"161","coddistrit":"16","codbar":161,"transporte":"emt","stop_id":1824,"stop_name":"Joan XXIII - Germans Machado","stop_desc":"AV JUAN XXIII 51 ACC - VAL\ufffdNCIA","x":724873.29,"y":4375201.33,"zone_id":null}},{"type":"Feature","geometry":{"coordinates":[-0.384097526225865,39.49502149111441],"type":"Point"},"properties":{"geo_point_2d":{"lon":-0.3840975262258647,"lat":39.49502149111441},"codbarrio":"1","nombre":"BENICALAP","coddistbar":"161","coddistrit":"16","codbar":161,"transporte":"emt","stop_id":1825,"stop_name":"Joan XXIII - Federico Alcacer Aguilar","stop_desc":"AV JUAN XXIII 45 ACC - VAL\ufffdNCIA","x":724943.85,"y":4374979.18,"zone_id":null}},{"type":"Feature","geometry":{"coordinates":[-0.382403322625228,39.49053056749751],"type":"Point"},"properties":{"geo_point_2d":{"lon":-0.3824033226252276,"lat":39.49053056749751},"codbarrio":"1","nombre":"BENICALAP","coddistbar":"161","coddistrit":"16","codbar":161,"transporte":"emt","stop_id":1826,"stop_name":"Joan XXIII (impar) - F\ufffdlix del R\ufffdo","stop_desc":"AV JUAN XXIII 3 - VAL\ufffdNCIA","x":725104.05,"y":4374484.91,"zone_id":null}},{"type":"Feature","geometry":{"coordinates":[-0.390771536735855,39.49406698764656],"type":"Point"},"properties":{"geo_point_2d":{"lon":-0.3907715367358549,"lat":39.49406698764656},"codbarrio":"1","nombre":"BENICALAP","coddistbar":"161","coddistrit":"16","codbar":161,"transporte":"emt","stop_id":1833,"stop_name":"Equador - Verbena","stop_desc":"AV ECUADOR  EL S\/N (JUNT.C\/VERBENA) - VAL\ufffdNCIA","x":724372.94,"y":4374856.57,"zone_id":null}},{"type":"Feature","geometry":{"coordinates":[-0.386254266776117,39.494982731923734],"type":"Point"},"properties":{"geo_point_2d":{"lon":-0.386254266776117,"lat":39.494982731923734},"codbarrio":"1","nombre":"BENICALAP","coddistbar":"161","coddistrit":"16","codbar":161,"transporte":"emt","stop_id":1835,"stop_name":"Federico Alcacer Aguilar - Poeta Serrano Clavero","stop_desc":"C  26 (DAVANT) - VAL\ufffdNCIA","x":724758.49,"y":4374969.49,"zone_id":null}},{"type":"Feature","geometry":{"coordinates":[-0.382198617977801,39.49565681483716],"type":"Point"},"properties":{"geo_point_2d":{"lon":-0.38219861797780147,"lat":39.49565681483716},"codbarrio":"1","nombre":"BENICALAP","coddistbar":"161","coddistrit":"16","codbar":161,"transporte":"emt","stop_id":1837,"stop_name":"Riu Nervi\ufffdn - Riu Segre","stop_desc":"C  11 - VAL\ufffdNCIA","x":725105.11,"y":4375054.45,"zone_id":null}},{"type":"Feature","geometry":{"coordinates":[-0.383564556976775,39.49321953677064],"type":"Point"},"properties":{"geo_point_2d":{"lon":-0.38356455697677544,"lat":39.49321953677064},"codbarrio":"1","nombre":"BENICALAP","coddistbar":"161","coddistrit":"16","codbar":161,"transporte":"emt","stop_id":1847,"stop_name":"Castellonet - Joan XXIII","stop_desc":"C  1 (DAVANT) - VAL\ufffdNCIA","x":724995.5,"y":4374780.49,"zone_id":null}},{"type":"Feature","geometry":{"coordinates":[-0.390846013478566,39.494261177862555],"type":"Point"},"properties":{"geo_point_2d":{"lon":-0.390846013478566,"lat":39.494261177862555},"codbarrio":"1","nombre":"BENICALAP","coddistbar":"161","coddistrit":"16","codbar":161,"transporte":"emt","stop_id":1850,"stop_name":"Equador - Music Fayos","stop_desc":"AV ECUADOR  EL 69 (DAVANT) - VAL\ufffdNCIA","x":724365.91,"y":4374877.94,"zone_id":null}},{"type":"Feature","geometry":{"coordinates":[-0.381096509693065,39.49658988180053],"type":"Point"},"properties":{"geo_point_2d":{"lon":-0.38109650969306463,"lat":39.49658988180053},"codbarrio":"1","nombre":"BENICALAP","coddistbar":"161","coddistrit":"16","codbar":161,"transporte":"emt","stop_id":304,"stop_name":"Cam\ufffd de Montcada (impar) - Alemany","stop_desc":"CAMI MONCADA 123 - VAL\ufffdNCIA","x":725196.8800000001,"y":4375160.78,"zone_id":null}},{"type":"Feature","geometry":{"coordinates":[-0.393309681454328,39.49239327713208],"type":"Point"},"properties":{"geo_point_2d":{"lon":-0.3933096814543277,"lat":39.49239327713208},"codbarrio":"1","nombre":"BENICALAP","coddistbar":"161","coddistrit":"16","codbar":161,"transporte":"emt","stop_id":308,"stop_name":"Burjassot - Pintor Matarana","stop_desc":"AV BURJASOT 186 - VAL\ufffdNCIA","x":724160.03,"y":4374664.46,"zone_id":null}},{"type":"Feature","geometry":{"coordinates":[-0.399523811535687,39.49104606478308],"type":"Point"},"properties":{"geo_point_2d":{"lon":-0.39952381153568656,"lat":39.49104606478308},"codbarrio":"1","nombre":"BENICALAP","coddistbar":"161","coddistrit":"16","codbar":161,"transporte":"emt","stop_id":376,"stop_name":"Corts Valencianes (par) - la Safor","stop_desc":"AV CORTS VALENCIANES 22 - VAL\ufffdNCIA","x":723629.9000000001,"y":4374499.46,"zone_id":null}},{"type":"Feature","geometry":{"coordinates":[-0.372536979944256,39.495952415263645],"type":"Point"},"properties":{"geo_point_2d":{"lon":-0.37253697994425605,"lat":39.495952415263645},"codbarrio":"2","nombre":"TORREFIEL","coddistbar":"152","coddistrit":"15","codbar":152,"transporte":"metrovlc","stop_id":132,"stop_name":"Tossal del Rei","stop_desc":"NULL","x":725935.0700000001,"y":4375111.47,"zone_id":"A"}},{"type":"Feature","geometry":{"coordinates":[-0.378782914275381,39.49424173601723],"type":"Point"},"properties":{"geo_point_2d":{"lon":-0.3787829142753814,"lat":39.49424173601723},"codbarrio":"2","nombre":"TORREFIEL","coddistbar":"152","coddistrit":"15","codbar":152,"transporte":"emt","stop_id":1062,"stop_name":"Pere Cabanes - Bisbe Laguarda","stop_desc":"C PEDRO CABANES 88 - VAL\ufffdNCIA","x":725403.44,"y":4374905.92,"zone_id":null}},{"type":"Feature","geometry":{"coordinates":[-0.376234033688455,39.49793924075617],"type":"Point"},"properties":{"geo_point_2d":{"lon":-0.37623403368845504,"lat":39.49793924075617},"codbarrio":"2","nombre":"TORREFIEL","coddistbar":"152","coddistrit":"15","codbar":152,"transporte":"emt","stop_id":1128,"stop_name":"Sant Dom\ufffdnec Savio - Alemany","stop_desc":"C SANTO DOMINGO SAVIO 94 (DAVANT) - VAL\ufffdNCIA","x":725610.69,"y":4375322.74,"zone_id":null}},{"type":"Feature","geometry":{"coordinates":[-0.377254859522519,39.496467463898234],"type":"Point"},"properties":{"geo_point_2d":{"lon":-0.37725485952251914,"lat":39.496467463898234},"codbarrio":"2","nombre":"TORREFIEL","coddistbar":"152","coddistrit":"15","codbar":152,"transporte":"emt","stop_id":1131,"stop_name":"Pintor Jacomart - Comte de Torrefiel","stop_desc":"C PINTOR JACOMART 29 - VAL\ufffdNCIA","x":725527.66,"y":4375156.81,"zone_id":null}},{"type":"Feature","geometry":{"coordinates":[-0.372348746968391,39.496316076287215],"type":"Point"},"properties":{"geo_point_2d":{"lon":-0.3723487469683912,"lat":39.496316076287215},"codbarrio":"2","nombre":"TORREFIEL","coddistbar":"152","coddistrit":"15","codbar":152,"transporte":"emt","stop_id":1133,"stop_name":"Comte de Lumiares - Tossal del Rei","stop_desc":"C CONDE DE LUMIARES 26 (DAVANT) - VAL\ufffdNCIA","x":725950.08,"y":4375152.31,"zone_id":null}},{"type":"Feature","geometry":{"coordinates":[-0.37273030705366,39.494718802885814],"type":"Point"},"properties":{"geo_point_2d":{"lon":-0.37273030705365956,"lat":39.494718802885814},"codbarrio":"2","nombre":"TORREFIEL","coddistbar":"152","coddistrit":"15","codbar":152,"transporte":"emt","stop_id":1151,"stop_name":"Comte de Lumiares - Falcons","stop_desc":"C CONDE DE LUMIARES 4 (DAVANT) - VAL\ufffdNCIA","x":725922.44,"y":4374974.05,"zone_id":null}},{"type":"Feature","geometry":{"coordinates":[-0.37963338512161,39.490916501508266],"type":"Point"},"properties":{"geo_point_2d":{"lon":-0.37963338512161005,"lat":39.490916501508266},"codbarrio":"2","nombre":"TORREFIEL","coddistbar":"152","coddistrit":"15","codbar":152,"transporte":"emt","stop_id":1683,"stop_name":"Dr. Peset Aleixandre - Montcada","stop_desc":"AV DOCTOR PESET ALEIXANDRE 60 (ACC.) - VAL\ufffdNCIA","x":725341.04,"y":4374534.68,"zone_id":null}},{"type":"Feature","geometry":{"coordinates":[-0.379046888587608,39.491601363680964],"type":"Point"},"properties":{"geo_point_2d":{"lon":-0.3790468885876079,"lat":39.491601363680964},"codbarrio":"2","nombre":"TORREFIEL","coddistbar":"152","coddistrit":"15","codbar":152,"transporte":"emt","stop_id":306,"stop_name":"Cam\ufffd de Montcada - F\ufffdlix del R\ufffdo","stop_desc":"CAMI MONCADA 61 - VAL\ufffdNCIA","x":725389.27,"y":4374612.17,"zone_id":null}},{"type":"Feature","geometry":{"coordinates":[-0.382922228294837,39.48998199984601],"type":"Point"},"properties":{"geo_point_2d":{"lon":-0.3829222282948374,"lat":39.48998199984601},"codbarrio":"4","nombre":"TORMOS","coddistbar":"054","coddistrit":"5","codbar":54,"transporte":"emt","stop_id":242,"stop_name":"Dr. Peset Aleixandre - Guardacostes","stop_desc":"AV DOCTOR PESET ALEIXANDRE 105 - VAL\ufffdNCIA","x":725061.19,"y":4374422.72,"zone_id":null}},{"type":"Feature","geometry":{"coordinates":[-0.374452740783936,39.49152962561542],"type":"Point"},"properties":{"geo_point_2d":{"lon":-0.37445274078393626,"lat":39.49152962561542},"codbarrio":"4","nombre":"TORMOS","coddistbar":"054","coddistrit":"5","codbar":54,"transporte":"emt","stop_id":325,"stop_name":"Constituci\ufffd - Dr. Peset Aleixandre","stop_desc":"AV CONSTITUCION 127 - VAL\ufffdNCIA","x":725784.63,"y":4374615.72,"zone_id":null}},{"type":"Feature","geometry":{"coordinates":[-0.371558840945691,39.49014270271203],"type":"Point"},"properties":{"geo_point_2d":{"lon":-0.3715588409456911,"lat":39.49014270271203},"codbarrio":"5","nombre":"SANT ANTONI","coddistbar":"055","coddistrit":"5","codbar":55,"transporte":"emt","stop_id":206,"stop_name":"Primat Reig - Bilbao","stop_desc":"AV PRIMADO REIG 14 - VAL\ufffdNCIA","x":726038.02,"y":4374469.03,"zone_id":null}},{"type":"Feature","geometry":{"coordinates":[-0.369074074389299,39.48827489614073],"type":"Point"},"properties":{"geo_point_2d":{"lon":-0.36907407438929907,"lat":39.48827489614073},"codbarrio":"5","nombre":"SANT ANTONI","coddistbar":"055","coddistrit":"5","codbar":55,"transporte":"emt","stop_id":207,"stop_name":"Primat Reig - Almassora","stop_desc":"AV PRIMADO REIG 44 - VAL\ufffdNCIA","x":726257.79,"y":4374267.94,"zone_id":null}},{"type":"Feature","geometry":{"coordinates":[-0.357947260537358,39.483371570569695],"type":"Point"},"properties":{"geo_point_2d":{"lon":-0.3579472605373582,"lat":39.483371570569695},"codbarrio":"1","nombre":"BENIMACLET","coddistbar":"141","coddistrit":"14","codbar":141,"transporte":"metrovlc","stop_id":90,"stop_name":"Vicente Zaragoz\ufffd","stop_desc":"NULL","x":727230.7899999999,"y":4373751.68,"zone_id":"A"}},{"type":"Feature","geometry":{"coordinates":[-0.363394609990823,39.48567424928379],"type":"Point"},"properties":{"geo_point_2d":{"lon":-0.3633946099908227,"lat":39.48567424928379},"codbarrio":"1","nombre":"BENIMACLET","coddistbar":"141","coddistrit":"14","codbar":141,"transporte":"emt","stop_id":1231,"stop_name":"Dolores Marqu\ufffds - Benicarl\ufffd","stop_desc":"C DOLORES MARQUES 1 - VAL\ufffdNCIA","x":726754.7400000001,"y":4373993.55,"zone_id":null}},{"type":"Feature","geometry":{"coordinates":[-0.362043079748276,39.488281969006714],"type":"Point"},"properties":{"geo_point_2d":{"lon":-0.36204307974827554,"lat":39.488281969006714},"codbarrio":"1","nombre":"BENIMACLET","coddistbar":"141","coddistrit":"14","codbar":141,"transporte":"emt","stop_id":1233,"stop_name":"Dolores Marqu\ufffds - Assagador d'Alboraia","stop_desc":"C DOLORES MARQUES 27 - VAL\ufffdNCIA","x":726862.5100000001,"y":4374286.42,"zone_id":null}},{"type":"Feature","geometry":{"coordinates":[-0.360474513075941,39.48228453283069],"type":"Point"},"properties":{"geo_point_2d":{"lon":-0.3604745130759408,"lat":39.48228453283069},"codbarrio":"1","nombre":"BENIMACLET","coddistbar":"141","coddistrit":"14","codbar":141,"transporte":"emt","stop_id":1679,"stop_name":"Primat Reig - Conca Tramoyeres","stop_desc":"AV PRIMADO REIG 151 - VAL\ufffdNCIA","x":727016.94,"y":4373624.64,"zone_id":null}},{"type":"Feature","geometry":{"coordinates":[-0.36205010254655,39.485119784431234],"type":"Point"},"properties":{"geo_point_2d":{"lon":-0.3620501025465501,"lat":39.485119784431234},"codbarrio":"1","nombre":"BENIMACLET","coddistbar":"141","coddistrit":"14","codbar":141,"transporte":"emt","stop_id":177,"stop_name":"Emili Bar\ufffd - Reverend Rafael Tramoyeres","stop_desc":"C EMILIO BARO 14 - VAL\ufffdNCIA","x":726872.1900000001,"y":4373935.39,"zone_id":null}},{"type":"Feature","geometry":{"coordinates":[-0.354269746778333,39.47969817836995],"type":"Point"},"properties":{"geo_point_2d":{"lon":-0.3542697467783333,"lat":39.47969817836995},"codbarrio":"1","nombre":"BENIMACLET","coddistbar":"141","coddistrit":"14","codbar":141,"transporte":"emt","stop_id":1902,"stop_name":"Catalunya - Guardia Civil","stop_desc":"AV CATALU\ufffdA S\/N (JARD\ufffd) - VAL\ufffdNCIA","x":727559.1,"y":4373353.21,"zone_id":null}},{"type":"Feature","geometry":{"coordinates":[-0.366171259222875,39.48613270459626],"type":"Point"},"properties":{"geo_point_2d":{"lon":-0.36617125922287475,"lat":39.48613270459626},"codbarrio":"1","nombre":"BENIMACLET","coddistbar":"141","coddistrit":"14","codbar":141,"transporte":"emt","stop_id":216,"stop_name":"Primat Reig - Calder\ufffdn de la Barca","stop_desc":"AV PRIMADO REIG 101 (DAVANT JARD\ufffd) - VAL\ufffdNCIA","x":726514.42,"y":4374037.45,"zone_id":null}},{"type":"Feature","geometry":{"coordinates":[-0.357189289950929,39.48549508398447],"type":"Point"},"properties":{"geo_point_2d":{"lon":-0.3571892899509292,"lat":39.48549508398447},"codbarrio":"1","nombre":"BENIMACLET","coddistbar":"141","coddistrit":"14","codbar":141,"transporte":"emt","stop_id":965,"stop_name":"Germans Villalonga - Enric Navarro","stop_desc":"C HERMANOS VILLALONGA 29 - VAL\ufffdNCIA","x":727289.07,"y":4373989.31,"zone_id":null}},{"type":"Feature","geometry":{"coordinates":[-0.35757404406791,39.484078559363404],"type":"Point"},"properties":{"geo_point_2d":{"lon":-0.35757404406791016,"lat":39.484078559363404},"codbarrio":"1","nombre":"BENIMACLET","coddistbar":"141","coddistrit":"14","codbar":141,"transporte":"emt","stop_id":966,"stop_name":"Germans Villalonga - Dr. Vicent Zaragoz\ufffd","stop_desc":"C HERMANOS VILLALONGA 5 - VAL\ufffdNCIA","x":727260.59,"y":4373831.1,"zone_id":null}},{"type":"Feature","geometry":{"coordinates":[-0.359174459578562,39.48177419707162],"type":"Point"},"properties":{"geo_point_2d":{"lon":-0.3591744595785618,"lat":39.48177419707162},"codbarrio":"1","nombre":"BENIMACLET","coddistbar":"141","coddistrit":"14","codbar":141,"transporte":"emt","stop_id":967,"stop_name":"Ram\ufffdn Asensio - Gu\ufffdrdia Civil","stop_desc":"C RAMON ASENSIO ILLETA - VAL\ufffdNCIA","x":727130.43,"y":4373571.27,"zone_id":null}},{"type":"Feature","geometry":{"coordinates":[-0.357820588835768,39.48586627723645],"type":"Point"},"properties":{"geo_point_2d":{"lon":-0.35782058883576806,"lat":39.48586627723645},"codbarrio":"1","nombre":"BENIMACLET","coddistbar":"141","coddistrit":"14","codbar":141,"transporte":"emt","stop_id":987,"stop_name":"Mistral - Murta","stop_desc":"C MISTRAL 38 - VAL\ufffdNCIA","x":727233.56,"y":4374028.92,"zone_id":null}},{"type":"Feature","geometry":{"coordinates":[-0.386812966018187,39.48635749372254],"type":"Point"},"properties":{"geo_point_2d":{"lon":-0.3868129660181875,"lat":39.48635749372254},"codbarrio":"1","nombre":"MARXALENES","coddistbar":"051","coddistrit":"5","codbar":51,"transporte":"emt","stop_id":2160,"stop_name":"Burjassot - Marxalenes","stop_desc":"AV BURJASOT S\/N - VAL\ufffdNCIA","x":724738.2300000001,"y":4374010.67,"zone_id":null}},{"type":"Feature","geometry":{"coordinates":[-0.378759298694314,39.48522530969868],"type":"Point"},"properties":{"geo_point_2d":{"lon":-0.3787592986943139,"lat":39.48522530969868},"codbarrio":"1","nombre":"MARXALENES","coddistbar":"051","coddistrit":"5","codbar":51,"transporte":"emt","stop_id":328,"stop_name":"Constituci\ufffd - M\ufffdlaga","stop_desc":"AV CONSTITUCION 27 - VAL\ufffdNCIA","x":725434.6099999999,"y":4373905.13,"zone_id":null}},{"type":"Feature","geometry":{"coordinates":[-0.389068856411042,39.48833455459579],"type":"Point"},"properties":{"geo_point_2d":{"lon":-0.38906885641104155,"lat":39.48833455459579},"codbarrio":"1","nombre":"MARXALENES","coddistbar":"051","coddistrit":"5","codbar":51,"transporte":"emt","stop_id":333,"stop_name":"Burjassot - Dr. Peset Aleixandre","stop_desc":"AV BURJASOT 114 - VAL\ufffdNCIA","x":724537.83,"y":4374224.5,"zone_id":null}},{"type":"Feature","geometry":{"coordinates":[-0.381205289274826,39.482982409377264],"type":"Point"},"properties":{"geo_point_2d":{"lon":-0.38120528927482583,"lat":39.482982409377264},"codbarrio":"1","nombre":"MARXALENES","coddistbar":"051","coddistrit":"5","codbar":51,"transporte":"emt","stop_id":344,"stop_name":"Pla de la Sa\ufffddia - Burjassot","stop_desc":"C LLANO DE LA ZAIDIA 18 - VAL\ufffdNCIA","x":725231.46,"y":4373650.04,"zone_id":null}},{"type":"Feature","geometry":{"coordinates":[-0.390596854504333,39.48801933698775],"type":"Point"},"properties":{"geo_point_2d":{"lon":-0.3905968545043331,"lat":39.48801933698775},"codbarrio":"3","nombre":"EL CALVARI","coddistbar":"043","coddistrit":"4","codbar":43,"transporte":"emt","stop_id":1829,"stop_name":"General Avil\ufffds - Conchita Piquer","stop_desc":"AV GENERAL AVILES 1 - VAL\ufffdNCIA","x":724407.42,"y":4374185.7,"zone_id":null}},{"type":"Feature","geometry":{"coordinates":[-0.373180526894506,39.481780856191584],"type":"Point"},"properties":{"geo_point_2d":{"lon":-0.37318052689450615,"lat":39.481780856191584},"codbarrio":"2","nombre":"MORVEDRE","coddistbar":"052","coddistrit":"5","codbar":52,"transporte":"metrovlc","stop_id":92,"stop_name":"Pont de Fusta","stop_desc":"NULL","x":725925.62,"y":4373536.77,"zone_id":"A"}},{"type":"Feature","geometry":{"coordinates":[-0.372969998668439,39.485473749022596],"type":"Point"},"properties":{"geo_point_2d":{"lon":-0.3729699986684393,"lat":39.485473749022596},"codbarrio":"2","nombre":"MORVEDRE","coddistbar":"052","coddistrit":"5","codbar":52,"transporte":"emt","stop_id":1807,"stop_name":"Argenter Su\ufffdrez - Ministre Luis Mayans","stop_desc":"C  16 - VAL\ufffdNCIA","x":725931.77,"y":4373947.22,"zone_id":null}},{"type":"Feature","geometry":{"coordinates":[-0.378839939329111,39.48308799310452],"type":"Point"},"properties":{"geo_point_2d":{"lon":-0.3788399393291107,"lat":39.48308799310452},"codbarrio":"2","nombre":"MORVEDRE","coddistbar":"052","coddistrit":"5","codbar":52,"transporte":"emt","stop_id":329,"stop_name":"Constituci\ufffd - Pla de la Sa\ufffddia","stop_desc":"AV CONSTITUCION ILLETA SA\ufffdDIA - VAL\ufffdNCIA","x":725434.58,"y":4373667.68,"zone_id":null}},{"type":"Feature","geometry":{"coordinates":[-0.374011121268418,39.48090757992308],"type":"Point"},"properties":{"geo_point_2d":{"lon":-0.3740111212684179,"lat":39.48090757992308},"codbarrio":"2","nombre":"MORVEDRE","coddistbar":"052","coddistrit":"5","codbar":52,"transporte":"emt","stop_id":341,"stop_name":"Cronista Rivelles - Santa Am\ufffdlia","stop_desc":"C CRONISTA RIVELLES 1 FGV - VAL\ufffdNCIA","x":725857.0,"y":4373437.75,"zone_id":null}},{"type":"Feature","geometry":{"coordinates":[-0.37549619662076,39.48200605885308],"type":"Point"},"properties":{"geo_point_2d":{"lon":-0.3754961966207597,"lat":39.48200605885308},"codbarrio":"2","nombre":"MORVEDRE","coddistbar":"052","coddistrit":"5","codbar":52,"transporte":"emt","stop_id":342,"stop_name":"Guadalaviar - Sagunt","stop_desc":"C GUADALAVIAR 2 - VAL\ufffdNCIA","x":725725.7,"y":4373555.96,"zone_id":null}},{"type":"Feature","geometry":{"coordinates":[-0.369712257268435,39.48494105537715],"type":"Point"},"properties":{"geo_point_2d":{"lon":-0.3697122572684346,"lat":39.48494105537715},"codbarrio":"3","nombre":"TRINITAT","coddistbar":"053","coddistrit":"5","codbar":53,"transporte":"emt","stop_id":1318,"stop_name":"Molinell (par) - Alboraia","stop_desc":"C MOLINELL 8 - VAL\ufffdNCIA","x":726213.71,"y":4373896.27,"zone_id":null}},{"type":"Feature","geometry":{"coordinates":[-0.365261896671986,39.48199409226757],"type":"Point"},"properties":{"geo_point_2d":{"lon":-0.36526189667198644,"lat":39.48199409226757},"codbarrio":"3","nombre":"TRINITAT","coddistbar":"053","coddistrit":"5","codbar":53,"transporte":"emt","stop_id":172,"stop_name":"Cabanilles - \ufffdlvaro de Baz\ufffdn","stop_desc":"C CAVANILLES 18 (DAVANT) - VAL\ufffdNCIA","x":726606.08,"y":4373580.34,"zone_id":null}},{"type":"Feature","geometry":{"coordinates":[-0.366183597378527,39.48014188377589],"type":"Point"},"properties":{"geo_point_2d":{"lon":-0.36618359737852746,"lat":39.48014188377589},"codbarrio":"3","nombre":"TRINITAT","coddistbar":"053","coddistrit":"5","codbar":53,"transporte":"emt","stop_id":173,"stop_name":"Cabanilles - Vivers","stop_desc":"C CAVANILLES 2 (DAVANT) - VAL\ufffdNCIA","x":726532.81,"y":4373372.42,"zone_id":null}},{"type":"Feature","geometry":{"coordinates":[-0.369378912664264,39.48413398096493],"type":"Point"},"properties":{"geo_point_2d":{"lon":-0.36937891266426354,"lat":39.48413398096493},"codbarrio":"3","nombre":"TRINITAT","coddistbar":"053","coddistrit":"5","codbar":53,"transporte":"emt","stop_id":2232,"stop_name":"Alboraia - Jaca","stop_desc":"C ALBORAYA 44 ACC. - VAL\ufffdNCIA","x":726245.0,"y":4373807.52,"zone_id":null}},{"type":"Feature","geometry":{"coordinates":[-0.384989740882885,39.483100789035255],"type":"Point"},"properties":{"geo_point_2d":{"lon":-0.3849897408828854,"lat":39.483100789035255},"codbarrio":"2","nombre":"LES TENDETES","coddistbar":"042","coddistrit":"4","codbar":42,"transporte":"emt","stop_id":1311,"stop_name":"Pare Ferr\ufffds - Men\ufffdndez Pidal","stop_desc":"C PADRE FERRIS 21 - VAL\ufffdNCIA","x":724905.55,"y":4373653.72,"zone_id":null}},{"type":"Feature","geometry":{"coordinates":[-0.386569219300259,39.4846303415136],"type":"Point"},"properties":{"geo_point_2d":{"lon":-0.3865692193002586,"lat":39.4846303415136},"codbarrio":"2","nombre":"LES TENDETES","coddistbar":"042","coddistrit":"4","codbar":42,"transporte":"emt","stop_id":1584,"stop_name":"Joaqu\ufffdm Ballester - Pare Ferr\ufffds","stop_desc":"C JOAQU\ufffdN BALLESTER 8 - VAL\ufffdNCIA","x":724764.76,"y":4373819.56,"zone_id":null}},{"type":"Feature","geometry":{"coordinates":[-0.385471613084134,39.48481366339586],"type":"Point"},"properties":{"geo_point_2d":{"lon":-0.3854716130841338,"lat":39.48481366339586},"codbarrio":"2","nombre":"LES TENDETES","coddistbar":"042","coddistrit":"4","codbar":42,"transporte":"emt","stop_id":1812,"stop_name":"Joaqu\ufffdm Ballester (impar) - Pare Ferris","stop_desc":"C JOAQU\ufffdN BALLESTER 3 - VAL\ufffdNCIA","x":724858.58,"y":4373842.65,"zone_id":null}},{"type":"Feature","geometry":{"coordinates":[-0.384558994148234,39.48291208995815],"type":"Point"},"properties":{"geo_point_2d":{"lon":-0.3845589941482335,"lat":39.48291208995815},"codbarrio":"2","nombre":"LES TENDETES","coddistbar":"042","coddistrit":"4","codbar":42,"transporte":"emt","stop_id":2319,"stop_name":"Pare Ferris - Gregori Gea","stop_desc":"C PADRE FERRIS 14 - VAL\ufffdNCIA","x":724943.21,"y":4373633.85,"zone_id":null}},{"type":"Feature","geometry":{"coordinates":[-0.386398991047368,39.484897947778165],"type":"Point"},"properties":{"geo_point_2d":{"lon":-0.386398991047368,"lat":39.484897947778165},"codbarrio":"2","nombre":"LES TENDETES","coddistbar":"042","coddistrit":"4","codbar":42,"transporte":"emt","stop_id":354,"stop_name":"Pare Ferr\ufffds - Joaqu\ufffdm Ballester","stop_desc":"C PADRE FERRIS 41 - VAL\ufffdNCIA","x":724778.54,"y":4373849.69,"zone_id":null}},{"type":"Feature","geometry":{"coordinates":[-0.391946736634951,39.48372577931639],"type":"Point"},"properties":{"geo_point_2d":{"lon":-0.39194673663495105,"lat":39.48372577931639},"codbarrio":"1","nombre":"CAMPANAR","coddistbar":"041","coddistrit":"4","codbar":41,"transporte":"emt","stop_id":1265,"stop_name":"Campanar (par) - la Fe","stop_desc":"AV CAMPANAR CONSELLERIA - VAL\ufffdNCIA","x":724305.12,"y":4373705.74,"zone_id":null}},{"type":"Feature","geometry":{"coordinates":[-0.391507121534477,39.484112659277606],"type":"Point"},"properties":{"geo_point_2d":{"lon":-0.39150712153447664,"lat":39.484112659277606},"codbarrio":"1","nombre":"CAMPANAR","coddistbar":"041","coddistrit":"4","codbar":41,"transporte":"emt","stop_id":1266,"stop_name":"Campanar (impar) - la Fe","stop_desc":"AV CAMPANAR 21 - VAL\ufffdNCIA","x":724341.69,"y":4373749.78,"zone_id":null}},{"type":"Feature","geometry":{"coordinates":[-0.396103592058122,39.48504131725152],"type":"Point"},"properties":{"geo_point_2d":{"lon":-0.3961035920581221,"lat":39.48504131725152},"codbarrio":"1","nombre":"CAMPANAR","coddistbar":"041","coddistrit":"4","codbar":41,"transporte":"emt","stop_id":1272,"stop_name":"Pius XII (impar) - Monestir de Poblet","stop_desc":"AV PIO XII 51 - VAL\ufffdNCIA","x":723943.34,"y":4373841.42,"zone_id":null}},{"type":"Feature","geometry":{"coordinates":[-0.397790057418861,39.47915535179728],"type":"Point"},"properties":{"geo_point_2d":{"lon":-0.39779005741886087,"lat":39.47915535179728},"codbarrio":"1","nombre":"CAMPANAR","coddistbar":"041","coddistrit":"4","codbar":41,"transporte":"emt","stop_id":2097,"stop_name":"Vall de la Ballestera (impar) - Mestre Rodrigo","stop_desc":"C VALLE DE LA BALLESTERA 37 - VAL\ufffdNCIA","x":723817.1599999999,"y":4373183.87,"zone_id":null}},{"type":"Feature","geometry":{"coordinates":[-0.395881990513572,39.48558985228374],"type":"Point"},"properties":{"geo_point_2d":{"lon":-0.3958819905135718,"lat":39.48558985228374},"codbarrio":"1","nombre":"CAMPANAR","coddistbar":"041","coddistrit":"4","codbar":41,"transporte":"emt","stop_id":2307,"stop_name":"General Avil\ufffds (illeta) - Pius XII","stop_desc":"AV PIO XII S\/N (ILLETA) - VAL\ufffdNCIA","x":723960.64,"y":4373902.86,"zone_id":null}},{"type":"Feature","geometry":{"coordinates":[-0.387566268944343,39.480012419854894],"type":"Point"},"properties":{"geo_point_2d":{"lon":-0.387566268944343,"lat":39.480012419854894},"codbarrio":"1","nombre":"CAMPANAR","coddistbar":"041","coddistrit":"4","codbar":41,"transporte":"emt","stop_id":348,"stop_name":"Men\ufffdndez Pidal - Estaci\ufffd d'autobusos (riu)","stop_desc":"AV MENENDEZ PIDAL 14 (DAVANT RIU) - VAL\ufffdNCIA","x":724693.87,"y":4373304.47,"zone_id":null}},{"type":"Feature","geometry":{"coordinates":[-0.389696200404275,39.482990126740766],"type":"Point"},"properties":{"geo_point_2d":{"lon":-0.38969620040427505,"lat":39.482990126740766},"codbarrio":"1","nombre":"CAMPANAR","coddistbar":"041","coddistrit":"4","codbar":41,"transporte":"emt","stop_id":358,"stop_name":"Joaqu\ufffdm Ballester (par) - Ricardo Mic\ufffd","stop_desc":"C JOAQU\ufffdN BALLESTER DAVANT JARD\ufffd - VAL\ufffdNCIA","x":724501.07,"y":4373629.69,"zone_id":null}},{"type":"Feature","geometry":{"coordinates":[-0.391925494711242,39.48200173830809],"type":"Point"},"properties":{"geo_point_2d":{"lon":-0.39192549471124233,"lat":39.48200173830809},"codbarrio":"1","nombre":"CAMPANAR","coddistbar":"041","coddistrit":"4","codbar":41,"transporte":"emt","stop_id":359,"stop_name":"Joaqu\ufffdm Ballester - Campanar","stop_desc":"C JOAQU\ufffdN BALLESTER 45 (LA FE) - VAL\ufffdNCIA","x":724312.49,"y":4373514.42,"zone_id":null}},{"type":"Feature","geometry":{"coordinates":[-0.394769553432147,39.47777563031264],"type":"Point"},"properties":{"geo_point_2d":{"lon":-0.39476955343214676,"lat":39.47777563031264},"codbarrio":"1","nombre":"CAMPANAR","coddistbar":"041","coddistrit":"4","codbar":41,"transporte":"emt","stop_id":368,"stop_name":"Campanar - Tirso de Molina","stop_desc":"AV CAMPANAR 128 - VAL\ufffdNCIA","x":724081.42,"y":4373038.23,"zone_id":null}},{"type":"Feature","geometry":{"coordinates":[-0.393283870955687,39.48223347469082],"type":"Point"},"properties":{"geo_point_2d":{"lon":-0.39328387095568706,"lat":39.48223347469082},"codbarrio":"1","nombre":"CAMPANAR","coddistbar":"041","coddistrit":"4","codbar":41,"transporte":"emt","stop_id":372,"stop_name":"Pius XII - Campanar","stop_desc":"AV PIO XII 28 - VAL\ufffdNCIA","x":724194.9,"y":4373536.76,"zone_id":null}},{"type":"Feature","geometry":{"coordinates":[-0.393545485113117,39.48091270611318],"type":"Point"},"properties":{"geo_point_2d":{"lon":-0.393545485113117,"lat":39.48091270611318},"codbarrio":"1","nombre":"CAMPANAR","coddistbar":"041","coddistrit":"4","codbar":41,"transporte":"emt","stop_id":64,"stop_name":"Vall de la Ballestera - Campanar","stop_desc":"C VALLE DE LA BALLESTERA 1 - VAL\ufffdNCIA","x":724176.64,"y":4373389.5,"zone_id":null}},{"type":"Feature","geometry":{"coordinates":[-0.360317075555786,39.48181205051496],"type":"Point"},"properties":{"geo_point_2d":{"lon":-0.36031707555578646,"lat":39.48181205051496},"codbarrio":"3","nombre":"JAUME ROIG","coddistbar":"063","coddistrit":"6","codbar":63,"transporte":"emt","stop_id":1694,"stop_name":"Primat Reig - Dr. G\ufffdmez Ferrer","stop_desc":"AV PRIMADO REIG 96 - VAL\ufffdNCIA","x":727032.02,"y":4373572.59,"zone_id":null}},{"type":"Feature","geometry":{"coordinates":[-0.363380335320216,39.48407378921563],"type":"Point"},"properties":{"geo_point_2d":{"lon":-0.3633803353202159,"lat":39.48407378921563},"codbarrio":"3","nombre":"JAUME ROIG","coddistbar":"063","coddistrit":"6","codbar":63,"transporte":"emt","stop_id":186,"stop_name":"Primat Reig - Jaume Roig","stop_desc":"AV PRIMADO REIG 70 - VAL\ufffdNCIA","x":726761.17,"y":4373815.93,"zone_id":null}},{"type":"Feature","geometry":{"coordinates":[-0.377758991438298,39.48037493312812],"type":"Point"},"properties":{"geo_point_2d":{"lon":-0.37775899143829844,"lat":39.48037493312812},"codbarrio":"3","nombre":"EL CARME","coddistbar":"013","coddistrit":"1","codbar":13,"transporte":"emt","stop_id":1959,"stop_name":"Blanqueria - Pare d' \ufffdrfens","stop_desc":"C BLANQUERIAS 14 - VAL\ufffdNCIA","x":725536.33,"y":4373369.23,"zone_id":null}},{"type":"Feature","geometry":{"coordinates":[-0.382931307860638,39.48002289886695],"type":"Point"},"properties":{"geo_point_2d":{"lon":-0.382931307860638,"lat":39.48002289886695},"codbarrio":"3","nombre":"EL CARME","coddistbar":"013","coddistrit":"1","codbar":13,"transporte":"emt","stop_id":796,"stop_name":"Guillem de Castro - Na Jordana","stop_desc":"C GUILLEM DE CASTRO IVAM - VAL\ufffdNCIA","x":725092.54,"y":4373317.21,"zone_id":null}},{"type":"Feature","geometry":{"coordinates":[-0.361921106855253,39.478211909227944],"type":"Point"},"properties":{"geo_point_2d":{"lon":-0.36192110685525275,"lat":39.478211909227944},"codbarrio":"4","nombre":"CIUTAT UNIVERSITARIA","coddistbar":"064","coddistrit":"6","codbar":64,"transporte":"emt","stop_id":1241,"stop_name":"Blasco Ib\ufffd\ufffdez - Dr. Moliner","stop_desc":"AV BLASCO IBA\ufffdEZ BARDISSA CENTRAL - VAL\ufffdNCIA","x":726905.75,"y":4373168.92,"zone_id":null}},{"type":"Feature","geometry":{"coordinates":[-0.363939496206747,39.478716980540995],"type":"Point"},"properties":{"geo_point_2d":{"lon":-0.3639394962067466,"lat":39.478716980540995},"codbarrio":"4","nombre":"CIUTAT UNIVERSITARIA","coddistbar":"064","coddistrit":"6","codbar":64,"transporte":"emt","stop_id":1382,"stop_name":"Blasco Ib\ufffd\ufffdez (central) - Hospital Cl\ufffdnic","stop_desc":"AV BLASCO IBA\ufffdEZ BARDISSA CENTRAL (H.CL\ufffdNIC) - VAL\ufffdNCIA","x":726730.48,"y":4373219.9,"zone_id":null}},{"type":"Feature","geometry":{"coordinates":[-0.35607284780181,39.47689181946896],"type":"Point"},"properties":{"geo_point_2d":{"lon":-0.35607284780180964,"lat":39.47689181946896},"codbarrio":"4","nombre":"CIUTAT UNIVERSITARIA","coddistbar":"064","coddistrit":"6","codbar":64,"transporte":"emt","stop_id":155,"stop_name":"Blasco Ib\ufffd\ufffdez - Almela i Vives","stop_desc":"AV BLASCO IBA\ufffdEZ 31 - VAL\ufffdNCIA","x":727413.14,"y":4373037.14,"zone_id":null}},{"type":"Feature","geometry":{"coordinates":[-0.357522461391183,39.477320637554044],"type":"Point"},"properties":{"geo_point_2d":{"lon":-0.35752246139118254,"lat":39.477320637554044},"codbarrio":"4","nombre":"CIUTAT UNIVERSITARIA","coddistbar":"064","coddistrit":"6","codbar":64,"transporte":"emt","stop_id":157,"stop_name":"Blasco Ib\ufffd\ufffdez - Gasc\ufffd Oliag","stop_desc":"AV BLASCO IBA\ufffdEZ 25 - VAL\ufffdNCIA","x":727287.04,"y":4373081.08,"zone_id":null}},{"type":"Feature","geometry":{"coordinates":[-0.363076205992258,39.47899162010702],"type":"Point"},"properties":{"geo_point_2d":{"lon":-0.36307620599225804,"lat":39.47899162010702},"codbarrio":"4","nombre":"CIUTAT UNIVERSITARIA","coddistbar":"064","coddistrit":"6","codbar":64,"transporte":"emt","stop_id":160,"stop_name":"Blasco Ib\ufffd\ufffdez - Hospital Cl\ufffdnic","stop_desc":"AV BLASCO IBA\ufffdEZ 17 - VAL\ufffdNCIA","x":726803.85,"y":4373252.56,"zone_id":null}},{"type":"Feature","geometry":{"coordinates":[-0.386131817645403,39.472321778587094],"type":"Point"},"properties":{"geo_point_2d":{"lon":-0.3861318176454027,"lat":39.472321778587094},"codbarrio":"1","nombre":"EL BOTANIC","coddistbar":"031","coddistrit":"3","codbar":31,"transporte":"emt","stop_id":694,"stop_name":"Ferran el Cat\ufffdlic - Juan de Mena","stop_desc":"GV FERNANDO EL CATOLICO 36 - VAL\ufffdNCIA","x":724842.04,"y":4372454.37,"zone_id":null}},{"type":"Feature","geometry":{"coordinates":[-0.388011404888916,39.47494299203561],"type":"Point"},"properties":{"geo_point_2d":{"lon":-0.38801140488891556,"lat":39.47494299203561},"codbarrio":"1","nombre":"EL BOTANIC","coddistbar":"031","coddistrit":"3","codbar":31,"transporte":"emt","stop_id":695,"stop_name":"Ferran el Cat\ufffdlic (par) - Quart","stop_desc":"GV FERNANDO EL CATOLICO 70 - VAL\ufffdNCIA","x":724671.9,"y":4372740.64,"zone_id":null}},{"type":"Feature","geometry":{"coordinates":[-0.384671343399494,39.475720463105716],"type":"Point"},"properties":{"geo_point_2d":{"lon":-0.3846713433994941,"lat":39.475720463105716},"codbarrio":"1","nombre":"EL BOTANIC","coddistbar":"031","coddistrit":"3","codbar":31,"transporte":"emt","stop_id":803,"stop_name":"Quart - Guillem de Castro","stop_desc":"C QUART 66 - VAL\ufffdNCIA","x":724956.73,"y":4372835.28,"zone_id":null}},{"type":"Feature","geometry":{"coordinates":[-0.36142480369254,39.477484353947006],"type":"Point"},"properties":{"geo_point_2d":{"lon":-0.36142480369253954,"lat":39.477484353947006},"codbarrio":"1","nombre":"EXPOSICIO","coddistbar":"061","coddistrit":"6","codbar":61,"transporte":"emt","stop_id":166,"stop_name":"Blasco Ib\ufffd\ufffdez - Facultat de Geografia","stop_desc":"AV BLASCO IBA\ufffdEZ 28 - VAL\ufffdNCIA","x":726950.81,"y":4373089.41,"zone_id":null}},{"type":"Feature","geometry":{"coordinates":[-0.362503803017958,39.47554944150895],"type":"Point"},"properties":{"geo_point_2d":{"lon":-0.36250380301795787,"lat":39.47554944150895},"codbarrio":"1","nombre":"EXPOSICIO","coddistbar":"061","coddistrit":"6","codbar":61,"transporte":"emt","stop_id":871,"stop_name":"Misser Masc\ufffd - Dr. Moliner","stop_desc":"C POETA MICER MASCO 11 - VAL\ufffdNCIA","x":726864.28,"y":4372871.91,"zone_id":null}},{"type":"Feature","geometry":{"coordinates":[-0.375188769178854,39.473767246457165],"type":"Point"},"properties":{"geo_point_2d":{"lon":-0.3751887691788538,"lat":39.473767246457165},"codbarrio":"1","nombre":"LA SEU","coddistbar":"011","coddistrit":"1","codbar":11,"transporte":"emt","stop_id":2222,"stop_name":"Pla\ufffda de la Reina","stop_desc":"C PAZ S\/N - VAL\ufffdNCIA","x":725778.8,"y":4372642.2,"zone_id":null}},{"type":"Feature","geometry":{"coordinates":[-0.375251055121561,39.47909356777751],"type":"Point"},"properties":{"geo_point_2d":{"lon":-0.3752510551215609,"lat":39.47909356777751},"codbarrio":"1","nombre":"LA SEU","coddistbar":"011","coddistrit":"1","codbar":11,"transporte":"emt","stop_id":771,"stop_name":"Torres dels Serrans - Comte de Tr\ufffdnor","stop_desc":"TOR TORRES DE SERRANS ILLETA - VAL\ufffdNCIA","x":725756.21,"y":4373233.28,"zone_id":null}},{"type":"Feature","geometry":{"coordinates":[-0.346870129598771,39.4768142295909],"type":"Point"},"properties":{"geo_point_2d":{"lon":-0.34687012959877117,"lat":39.4768142295909},"codbarrio":"4","nombre":"LA VEGA BAIXA","coddistbar":"134","coddistrit":"13","codbar":134,"transporte":"emt","stop_id":1114,"stop_name":"Ramon Llull - Garc\ufffda Donato","stop_desc":"C RAMON LLULL 29 - VAL\ufffdNCIA","x":728205.0600000002,"y":4373051.81,"zone_id":null}},{"type":"Feature","geometry":{"coordinates":[-0.347545411094772,39.47521716927397],"type":"Point"},"properties":{"geo_point_2d":{"lon":-0.3475454110947724,"lat":39.47521716927397},"codbarrio":"4","nombre":"LA VEGA BAIXA","coddistbar":"134","coddistrit":"13","codbar":134,"transporte":"emt","stop_id":112,"stop_name":"Ramon Llull - Leandro de Saralegui","stop_desc":"C RAMON LLULL 5 - VAL\ufffdNCIA","x":728152.1900000001,"y":4372872.82,"zone_id":null}},{"type":"Feature","geometry":{"coordinates":[-0.391763547590034,39.469621437463296],"type":"Point"},"properties":{"geo_point_2d":{"lon":-0.39176354759003396,"lat":39.469621437463296},"codbarrio":"3","nombre":"LA PETXINA","coddistbar":"033","coddistrit":"3","codbar":33,"transporte":"emt","stop_id":441,"stop_name":"P\ufffdrez Gald\ufffds - Calixt III","stop_desc":"AV PEREZ GALDOS 88 - VAL\ufffdNCIA","x":724366.22,"y":4372140.58,"zone_id":null}},{"type":"Feature","geometry":{"coordinates":[-0.387292949697452,39.4730321087598],"type":"Point"},"properties":{"geo_point_2d":{"lon":-0.38729294969745187,"lat":39.4730321087598},"codbarrio":"3","nombre":"LA PETXINA","coddistbar":"033","coddistrit":"3","codbar":33,"transporte":"emt","stop_id":701,"stop_name":"Ferran el Cat\ufffdlic - Gabriel Mir\ufffd","stop_desc":"GV FERNANDO EL CATOLICO 37 - VAL\ufffdNCIA","x":724739.8600000001,"y":4372530.32,"zone_id":null}},{"type":"Feature","geometry":{"coordinates":[-0.391854648225837,39.473809609030965],"type":"Point"},"properties":{"geo_point_2d":{"lon":-0.3918546482258375,"lat":39.473809609030965},"codbarrio":"3","nombre":"LA PETXINA","coddistbar":"033","coddistrit":"3","codbar":33,"transporte":"emt","stop_id":748,"stop_name":"Mestre Guerrero - Joan Llorens","stop_desc":"C MAESTRO GUERRERO 1 (ACC) - VAL\ufffdNCIA","x":724344.92,"y":4372605.25,"zone_id":null}},{"type":"Feature","geometry":{"coordinates":[-0.391280311524937,39.47461183487472],"type":"Point"},"properties":{"geo_point_2d":{"lon":-0.3912803115249366,"lat":39.47461183487472},"codbarrio":"3","nombre":"LA PETXINA","coddistbar":"033","coddistrit":"3","codbar":33,"transporte":"emt","stop_id":749,"stop_name":"Quart - Terol","stop_desc":"C QUART 134 - VAL\ufffdNCIA","x":724391.75,"y":4372695.73,"zone_id":null}},{"type":"Feature","geometry":{"coordinates":[-0.336485827931609,39.47109810116613],"type":"Point"},"properties":{"geo_point_2d":{"lon":-0.33648582793160897,"lat":39.47109810116613},"codbarrio":"4","nombre":"BETERO","coddistbar":"114","coddistrit":"11","codbar":114,"transporte":"emt","stop_id":1211,"stop_name":"Blasco Ib\ufffd\ufffdez (impar) - Jos\ufffd Mar\ufffda Haro","stop_desc":"AV BLASCO IBA\ufffdEZ 173 - VAL\ufffdNCIA","x":729117.14,"y":4372443.67,"zone_id":null}},{"type":"Feature","geometry":{"coordinates":[-0.334274117863456,39.472427975985575],"type":"Point"},"properties":{"geo_point_2d":{"lon":-0.33427411786345596,"lat":39.472427975985575},"codbarrio":"4","nombre":"BETERO","coddistbar":"114","coddistrit":"11","codbar":114,"transporte":"emt","stop_id":1754,"stop_name":"Mar\ufffd Blas de Lezo - Cam\ufffd Cabanyal","stop_desc":"C MARINO BLAS DE LEZO 51 ACC. - VAL\ufffdNCIA","x":729303.05,"y":4372596.92,"zone_id":null}},{"type":"Feature","geometry":{"coordinates":[-0.329471996538712,39.463100251421544],"type":"Point"},"properties":{"geo_point_2d":{"lon":-0.329471996538712,"lat":39.463100251421544},"codbarrio":"2","nombre":"CABANYAL-CANYAMELAR","coddistbar":"112","coddistrit":"11","codbar":112,"transporte":"metrovlc","stop_id":123,"stop_name":"Grau - Canyamelar","stop_desc":"NULL","x":729746.88,"y":4371573.75,"zone_id":"A"}},{"type":"Feature","geometry":{"coordinates":[-0.32585085141775,39.463252831640446],"type":"Point"},"properties":{"geo_point_2d":{"lon":-0.3258508514177504,"lat":39.463252831640446},"codbarrio":"2","nombre":"CABANYAL-CANYAMELAR","coddistbar":"112","coddistrit":"11","codbar":112,"transporte":"metrovlc","stop_id":126,"stop_name":"Marina Reial Joan Carles I","stop_desc":"NULL","x":730057.95,"y":4371599.93,"zone_id":"A"}},{"type":"Feature","geometry":{"coordinates":[-0.327931977120087,39.466522044854365],"type":"Point"},"properties":{"geo_point_2d":{"lon":-0.3279319771200871,"lat":39.466522044854365},"codbarrio":"2","nombre":"CABANYAL-CANYAMELAR","coddistbar":"112","coddistrit":"11","codbar":112,"transporte":"metrovlc","stop_id":127,"stop_name":"Mediterrani","stop_desc":"NULL","x":729868.12,"y":4371957.51,"zone_id":"A"}},{"type":"Feature","geometry":{"coordinates":[-0.328305619163158,39.46723349691897],"type":"Point"},"properties":{"geo_point_2d":{"lon":-0.3283056191631577,"lat":39.46723349691897},"codbarrio":"2","nombre":"CABANYAL-CANYAMELAR","coddistbar":"112","coddistrit":"11","codbar":112,"transporte":"emt","stop_id":10,"stop_name":"Dr. Lluch - Mare de D\ufffdu del Sufragi","stop_desc":"C DOCTOR LLUCH 99 (DAVANT) - VAL\ufffdNCIA","x":729833.63,"y":4372035.53,"zone_id":null}},{"type":"Feature","geometry":{"coordinates":[-0.3285674534067,39.46757139797909],"type":"Point"},"properties":{"geo_point_2d":{"lon":-0.32856745340670007,"lat":39.46757139797909},"codbarrio":"2","nombre":"CABANYAL-CANYAMELAR","coddistbar":"112","coddistrit":"11","codbar":112,"transporte":"emt","stop_id":1242,"stop_name":"Mediterr\ufffdnia - Dr. Lluch","stop_desc":"C MEDITERRANEO 32 - VAL\ufffdNCIA","x":729809.99,"y":4372072.37,"zone_id":null}},{"type":"Feature","geometry":{"coordinates":[-0.335037187742865,39.46667718163825],"type":"Point"},"properties":{"geo_point_2d":{"lon":-0.3350371877428653,"lat":39.46667718163825},"codbarrio":"2","nombre":"CABANYAL-CANYAMELAR","coddistbar":"112","coddistrit":"11","codbar":112,"transporte":"emt","stop_id":1384,"stop_name":"Serradora - Poliesportiu","stop_desc":"C SERRERIA POLIESPORTIU - VAL\ufffdNCIA","x":729256.29,"y":4371956.62,"zone_id":null}},{"type":"Feature","geometry":{"coordinates":[-0.334555285599325,39.4682547311923],"type":"Point"},"properties":{"geo_point_2d":{"lon":-0.3345552855993253,"lat":39.4682547311923},"codbarrio":"2","nombre":"CABANYAL-CANYAMELAR","coddistbar":"112","coddistrit":"11","codbar":112,"transporte":"emt","stop_id":1385,"stop_name":"Mart\ufffd Grajales - Serradora","stop_desc":"C MARTI GRAJALES 2 - VAL\ufffdNCIA","x":729292.57,"y":4372132.96,"zone_id":null}},{"type":"Feature","geometry":{"coordinates":[-0.328529587980686,39.469860907531356],"type":"Point"},"properties":{"geo_point_2d":{"lon":-0.3285295879806858,"lat":39.469860907531356},"codbarrio":"2","nombre":"CABANYAL-CANYAMELAR","coddistbar":"112","coddistrit":"11","codbar":112,"transporte":"emt","stop_id":1672,"stop_name":"Reina - Pescadors","stop_desc":"C REINA (C.) 143 - VAL\ufffdNCIA","x":729805.71,"y":4372326.61,"zone_id":null}},{"type":"Feature","geometry":{"coordinates":[-0.333448149959552,39.475144707608514],"type":"Point"},"properties":{"geo_point_2d":{"lon":-0.3334481499595517,"lat":39.475144707608514},"codbarrio":"2","nombre":"CABANYAL-CANYAMELAR","coddistbar":"112","coddistrit":"11","codbar":112,"transporte":"emt","stop_id":1749,"stop_name":"Llu\ufffds Peix\ufffd - Comte Melito","stop_desc":"C  S\/N - VAL\ufffdNCIA","x":729365.18,"y":4372900.59,"zone_id":null}},{"type":"Feature","geometry":{"coordinates":[-0.325407253725883,39.463170373253035],"type":"Point"},"properties":{"geo_point_2d":{"lon":-0.3254072537258831,"lat":39.463170373253035},"codbarrio":"2","nombre":"CABANYAL-CANYAMELAR","coddistbar":"112","coddistrit":"11","codbar":112,"transporte":"emt","stop_id":2263,"stop_name":"Marcos Sopena - Eug\ufffdnia Vi\ufffdes","stop_desc":"C DOCTOR MARCOS SOPENA S\/N (FGV) - VAL\ufffdNCIA","x":730096.39,"y":4371591.91,"zone_id":null}},{"type":"Feature","geometry":{"coordinates":[-0.324575965523476,39.46830720500591],"type":"Point"},"properties":{"geo_point_2d":{"lon":-0.32457596552347634,"lat":39.46830720500591},"codbarrio":"2","nombre":"CABANYAL-CANYAMELAR","coddistbar":"112","coddistrit":"11","codbar":112,"transporte":"emt","stop_id":2341,"stop_name":"Passeig Mar\ufffdtim - Mediterr\ufffdnia","stop_desc":"C PAVIA 9 (DAVANT) - VAL\ufffdNCIA","x":730150.98,"y":4372164.24,"zone_id":null}},{"type":"Feature","geometry":{"coordinates":[-0.329575337440598,39.47194821277114],"type":"Point"},"properties":{"geo_point_2d":{"lon":-0.32957533744059847,"lat":39.47194821277114},"codbarrio":"2","nombre":"CABANYAL-CANYAMELAR","coddistbar":"112","coddistrit":"11","codbar":112,"transporte":"emt","stop_id":45,"stop_name":"Pintor Ferrandis - Josep Benlliure","stop_desc":"C PINTOR FERRANDIS 30 - VAL\ufffdNCIA","x":729708.87,"y":4372555.64,"zone_id":null}},{"type":"Feature","geometry":{"coordinates":[-0.331789863619322,39.472401501401905],"type":"Point"},"properties":{"geo_point_2d":{"lon":-0.3317898636193223,"lat":39.472401501401905},"codbarrio":"2","nombre":"CABANYAL-CANYAMELAR","coddistbar":"112","coddistrit":"11","codbar":112,"transporte":"emt","stop_id":47,"stop_name":"Esgl\ufffdsia dels \ufffdngels - Pintor Ferrandis","stop_desc":"PL IGLESIA DE LOS ANGELES 2 (DAVANT JARD\ufffd) - VAL\ufffdNCIA","x":729516.86,"y":4372600.31,"zone_id":null}},{"type":"Feature","geometry":{"coordinates":[-0.325669345444872,39.47252133956445],"type":"Point"},"properties":{"geo_point_2d":{"lon":-0.3256693454448722,"lat":39.47252133956445},"codbarrio":"2","nombre":"CABANYAL-CANYAMELAR","coddistbar":"112","coddistrit":"11","codbar":112,"transporte":"emt","stop_id":83,"stop_name":"Eug\ufffdnia Vi\ufffdes - Camps","stop_desc":"C EUGENIA VI\ufffdES 231 - VAL\ufffdNCIA","x":730043.0200000001,"y":4372629.23,"zone_id":null}},{"type":"Feature","geometry":{"coordinates":[-0.325700285899262,39.46959601771084],"type":"Point"},"properties":{"geo_point_2d":{"lon":-0.325700285899262,"lat":39.46959601771084},"codbarrio":"2","nombre":"CABANYAL-CANYAMELAR","coddistbar":"112","coddistrit":"11","codbar":112,"transporte":"emt","stop_id":84,"stop_name":"Eug\ufffdnia Vi\ufffdes - Francesc Miralles","stop_desc":"C EUGENIA VI\ufffdES 183 - VAL\ufffdNCIA","x":730049.9999999999,"y":4372304.43,"zone_id":null}},{"type":"Feature","geometry":{"coordinates":[-0.36531668099172,39.4731558364109],"type":"Point"},"properties":{"geo_point_2d":{"lon":-0.36531668099171977,"lat":39.4731558364109},"codbarrio":"2","nombre":"MESTALLA","coddistbar":"062","coddistrit":"6","codbar":62,"transporte":"metrovlc","stop_id":14,"stop_name":"Alameda","stop_desc":"NULL","x":726630.07,"y":4372599.13,"zone_id":"A"}},{"type":"Feature","geometry":{"coordinates":[-0.356893411175871,39.472815642538706],"type":"Point"},"properties":{"geo_point_2d":{"lon":-0.35689341117587137,"lat":39.472815642538706},"codbarrio":"2","nombre":"MESTALLA","coddistbar":"062","coddistrit":"6","codbar":62,"transporte":"emt","stop_id":1055,"stop_name":"Arag\ufffd - Ernest Ferrer","stop_desc":"AV ARAG\ufffdN 34 - VAL\ufffdNCIA","x":727355.83,"y":4372582.6,"zone_id":null}},{"type":"Feature","geometry":{"coordinates":[-0.362098017249942,39.47361127252344],"type":"Point"},"properties":{"geo_point_2d":{"lon":-0.36209801724994184,"lat":39.47361127252344},"codbarrio":"2","nombre":"MESTALLA","coddistbar":"062","coddistrit":"6","codbar":62,"transporte":"emt","stop_id":1218,"stop_name":"Amadeu de Savoia - Mu\ufffdoz Seca","stop_desc":"C AMADEO DE SABOYA 14 - VAL\ufffdNCIA","x":726905.4899999999,"y":4372657.79,"zone_id":null}},{"type":"Feature","geometry":{"coordinates":[-0.364430697191043,39.47381491757256],"type":"Point"},"properties":{"geo_point_2d":{"lon":-0.364430697191043,"lat":39.47381491757256},"codbarrio":"2","nombre":"MESTALLA","coddistbar":"062","coddistrit":"6","codbar":62,"transporte":"emt","stop_id":1245,"stop_name":"Albereda - Armando Palacio Vald\ufffds","stop_desc":"PSEG ALAMEDA DAVANT P.VALD\ufffdS) - VAL\ufffdNCIA","x":726704.15,"y":4372674.52,"zone_id":null}},{"type":"Feature","geometry":{"coordinates":[-0.360000123579523,39.46794684126069],"type":"Point"},"properties":{"geo_point_2d":{"lon":-0.3600001235795228,"lat":39.46794684126069},"codbarrio":"2","nombre":"MESTALLA","coddistbar":"062","coddistrit":"6","codbar":62,"transporte":"emt","stop_id":1615,"stop_name":"Port - Saragossa","stop_desc":"AV PUERTO 2 ACCS. - VAL\ufffdNCIA","x":727104.4,"y":4372034.31,"zone_id":null}},{"type":"Feature","geometry":{"coordinates":[-0.356929923049909,39.47616124722011],"type":"Point"},"properties":{"geo_point_2d":{"lon":-0.3569299230499089,"lat":39.47616124722011},"codbarrio":"2","nombre":"MESTALLA","coddistbar":"062","coddistrit":"6","codbar":62,"transporte":"emt","stop_id":168,"stop_name":"Blasco Ib\ufffd\ufffdez - Su\ufffdcia","stop_desc":"AV BLASCO IBA\ufffdEZ 50 (COPUT) - VAL\ufffdNCIA","x":727341.79,"y":4372953.88,"zone_id":null}},{"type":"Feature","geometry":{"coordinates":[-0.354259689323291,39.47204888196909],"type":"Point"},"properties":{"geo_point_2d":{"lon":-0.35425968932329055,"lat":39.47204888196909},"codbarrio":"2","nombre":"MESTALLA","coddistbar":"062","coddistrit":"6","codbar":62,"transporte":"emt","stop_id":226,"stop_name":"Cardenal Benlloch - Ernest Ferrer","stop_desc":"AV CARDENAL BENLLOCH 69 - VAL\ufffdNCIA","x":727584.91,"y":4372504.14,"zone_id":null}},{"type":"Feature","geometry":{"coordinates":[-0.359491458891524,39.47303055689049],"type":"Point"},"properties":{"geo_point_2d":{"lon":-0.3594914588915244,"lat":39.47303055689049},"codbarrio":"2","nombre":"MESTALLA","coddistbar":"062","coddistrit":"6","codbar":62,"transporte":"emt","stop_id":869,"stop_name":"Amadeu de Savoia - Su\ufffdcia","stop_desc":"C AMADEO DE SABOYA 15 - VAL\ufffdNCIA","x":727131.62,"y":4372599.9,"zone_id":null}},{"type":"Feature","geometry":{"coordinates":[-0.360330836354344,39.47272269811785],"type":"Point"},"properties":{"geo_point_2d":{"lon":-0.3603308363543444,"lat":39.47272269811785},"codbarrio":"2","nombre":"MESTALLA","coddistbar":"062","coddistrit":"6","codbar":62,"transporte":"emt","stop_id":874,"stop_name":"Finl\ufffdndia - General Gil Dolz","stop_desc":"C FINLANDIA 2 ACC - VAL\ufffdNCIA","x":727060.41,"y":4372563.61,"zone_id":null}},{"type":"Feature","geometry":{"coordinates":[-0.369882363789264,39.473944288271376],"type":"Point"},"properties":{"geo_point_2d":{"lon":-0.36988236378926365,"lat":39.473944288271376},"codbarrio":"2","nombre":"LA XEREA","coddistbar":"012","coddistrit":"1","codbar":12,"transporte":"emt","stop_id":2223,"stop_name":"Tetuan","stop_desc":"PL TETUAN 3 - VAL\ufffdNCIA","x":726234.73,"y":4372675.17,"zone_id":null}},{"type":"Feature","geometry":{"coordinates":[-0.369426641667578,39.472203205460815],"type":"Point"},"properties":{"geo_point_2d":{"lon":-0.36942664166757844,"lat":39.472203205460815},"codbarrio":"2","nombre":"LA XEREA","coddistbar":"012","coddistrit":"1","codbar":12,"transporte":"emt","stop_id":2256,"stop_name":"Porta de la Mar (par) - Palau de Just\ufffdcia","stop_desc":"C PALACIO DE JUSTICIA 1 (DAVANT) - VAL\ufffdNCIA","x":726279.5800000001,"y":4372483.05,"zone_id":null}},{"type":"Feature","geometry":{"coordinates":[-0.380872996883443,39.47511258638515],"type":"Point"},"properties":{"geo_point_2d":{"lon":-0.3808729968834428,"lat":39.47511258638515},"codbarrio":"5","nombre":"EL MERCAT","coddistbar":"015","coddistrit":"1","codbar":15,"transporte":"emt","stop_id":1734,"stop_name":"Carda - Moro Zeit","stop_desc":"C CARDA 21ACC (DAVANT) - VAL\ufffdNCIA","x":725285.45,"y":4372777.3,"zone_id":null}},{"type":"Feature","geometry":{"coordinates":[-0.380412328784568,39.472712168556434],"type":"Point"},"properties":{"geo_point_2d":{"lon":-0.38041232878456754,"lat":39.472712168556434},"codbarrio":"5","nombre":"EL MERCAT","coddistbar":"015","coddistrit":"1","codbar":15,"transporte":"emt","stop_id":2287,"stop_name":"Editor Manuel Aguilar - Guillem Sorolla","stop_desc":"C EDITOR MANUEL AGUILAR 5 - VAL\ufffdNCIA","x":725332.83,"y":4372512.0,"zone_id":null}},{"type":"Feature","geometry":{"coordinates":[-0.379805701663639,39.47143266594265],"type":"Point"},"properties":{"geo_point_2d":{"lon":-0.37980570166363853,"lat":39.47143266594265},"codbarrio":"4","nombre":"EL PILAR","coddistbar":"014","coddistrit":"1","codbar":14,"transporte":"emt","stop_id":2290,"stop_name":"Av. de l'Oest - Hospital","stop_desc":"AV BARON DE CARCER 30 - VAL\ufffdNCIA","x":725389.15,"y":4372371.49,"zone_id":null}},{"type":"Feature","geometry":{"coordinates":[-0.38394828314839,39.47501402357978],"type":"Point"},"properties":{"geo_point_2d":{"lon":-0.3839482831483903,"lat":39.47501402357978},"codbarrio":"4","nombre":"EL PILAR","coddistbar":"014","coddistrit":"1","codbar":14,"transporte":"emt","stop_id":793,"stop_name":"Guillem de Castro - Torres de Quart","stop_desc":"C GUILLEM DE CASTRO 78 - VAL\ufffdNCIA","x":725021.2100000001,"y":4372758.67,"zone_id":null}},{"type":"Feature","geometry":{"coordinates":[-0.370927795657235,39.47014605671977],"type":"Point"},"properties":{"geo_point_2d":{"lon":-0.37092779565723527,"lat":39.47014605671977},"codbarrio":"6","nombre":"SANT FRANCESC","coddistbar":"016","coddistrit":"1","codbar":16,"transporte":"metrovlc","stop_id":15,"stop_name":"Col\ufffdn","stop_desc":"NULL","x":726157.1,"y":4372250.93,"zone_id":"A"}},{"type":"Feature","geometry":{"coordinates":[-0.380278288505877,39.46851572967579],"type":"Point"},"properties":{"geo_point_2d":{"lon":-0.38027828850587686,"lat":39.46851572967579},"codbarrio":"6","nombre":"SANT FRANCESC","coddistbar":"016","coddistrit":"1","codbar":16,"transporte":"emt","stop_id":1520,"stop_name":"Guillem de Castro - Sant Agust\ufffd","stop_desc":"PL SAN AGUSTIN 2 - VAL\ufffdNCIA","x":725357.91,"y":4372046.52,"zone_id":null}},{"type":"Feature","geometry":{"coordinates":[-0.376862598031618,39.4720853525868],"type":"Point"},"properties":{"geo_point_2d":{"lon":-0.37686259803161754,"lat":39.4720853525868},"codbarrio":"6","nombre":"SANT FRANCESC","coddistbar":"016","coddistrit":"1","codbar":16,"transporte":"emt","stop_id":2220,"stop_name":"Pl. de l'Ajuntament - Mercat Central - Llotja","stop_desc":"PL AYUNTAMIENTO 9 (DAVANT) ILLETA - VAL\ufffdNCIA","x":725640.24,"y":4372451.31,"zone_id":null}},{"type":"Feature","geometry":{"coordinates":[-0.369568138618417,39.472075780989066],"type":"Point"},"properties":{"geo_point_2d":{"lon":-0.36956813861841664,"lat":39.472075780989066},"codbarrio":"6","nombre":"SANT FRANCESC","coddistbar":"016","coddistrit":"1","codbar":16,"transporte":"emt","stop_id":2257,"stop_name":"Porta de la Mar (impar) - Palau de Just\ufffdcia","stop_desc":"C PALACIO DE JUSTICIA 1 - VAL\ufffdNCIA","x":726267.82,"y":4372468.55,"zone_id":null}},{"type":"Feature","geometry":{"coordinates":[-0.369197149641258,39.471467127571806],"type":"Point"},"properties":{"geo_point_2d":{"lon":-0.3691971496412579,"lat":39.471467127571806},"codbarrio":"6","nombre":"SANT FRANCESC","coddistbar":"016","coddistrit":"1","codbar":16,"transporte":"emt","stop_id":2258,"stop_name":"Porta de la Mar -  Col\ufffdn","stop_desc":"C COLON 84 (DAVANT) - VAL\ufffdNCIA","x":726301.71,"y":4372401.92,"zone_id":null}},{"type":"Feature","geometry":{"coordinates":[-0.37649527099215,39.4675144646991],"type":"Point"},"properties":{"geo_point_2d":{"lon":-0.3764952709921496,"lat":39.4675144646991},"codbarrio":"6","nombre":"SANT FRANCESC","coddistbar":"016","coddistrit":"1","codbar":16,"transporte":"emt","stop_id":2261,"stop_name":"X\ufffdtiva - Estaci\ufffd del Nord","stop_desc":"C XATIVA 17 - VAL\ufffdNCIA","x":725686.62,"y":4371944.85,"zone_id":null}},{"type":"Feature","geometry":{"coordinates":[-0.37955776906375,39.46949117420052],"type":"Point"},"properties":{"geo_point_2d":{"lon":-0.37955776906375016,"lat":39.46949117420052},"codbarrio":"6","nombre":"SANT FRANCESC","coddistbar":"016","coddistrit":"1","codbar":16,"transporte":"emt","stop_id":2282,"stop_name":"Av. de l'Oest (impar) - Sant Agust\ufffd","stop_desc":"AV BARON DE CARCER 47 - VAL\ufffdNCIA","x":725416.75,"y":4372156.6,"zone_id":null}},{"type":"Feature","geometry":{"coordinates":[-0.377100515129238,39.46863035326306],"type":"Point"},"properties":{"geo_point_2d":{"lon":-0.37710051512923765,"lat":39.46863035326306},"codbarrio":"6","nombre":"SANT FRANCESC","coddistbar":"016","coddistrit":"1","codbar":16,"transporte":"emt","stop_id":2313,"stop_name":"Marqu\ufffds de Sotelo - Periodista Azzati","stop_desc":"AV MARQU\ufffdS DE SOTELO 8 - VAL\ufffdNCIA","x":725630.9399999998,"y":4372067.2,"zone_id":null}},{"type":"Feature","geometry":{"coordinates":[-0.367812813402364,39.469262050347254],"type":"Point"},"properties":{"geo_point_2d":{"lon":-0.36781281340236444,"lat":39.469262050347254},"codbarrio":"2","nombre":"EL PLA DEL REMEI","coddistbar":"022","coddistrit":"2","codbar":22,"transporte":"emt","stop_id":1805,"stop_name":"Comte de Salvatierra - Ciril Amor\ufffds","stop_desc":"C CONDE DE SALVATIERRA 27 - VAL\ufffdNCIA","x":726427.9599999998,"y":4372160.63,"zone_id":null}},{"type":"Feature","geometry":{"coordinates":[-0.365870260761571,39.47068412458924],"type":"Point"},"properties":{"geo_point_2d":{"lon":-0.3658702607615708,"lat":39.47068412458924},"codbarrio":"2","nombre":"EL PLA DEL REMEI","coddistbar":"022","coddistrit":"2","codbar":22,"transporte":"emt","stop_id":2206,"stop_name":"Pl. Am\ufffdrica - Navarro Reverter","stop_desc":"AV NAVARRO REVERTER 24 - VAL\ufffdNCIA","x":726590.47,"y":4372323.37,"zone_id":null}},{"type":"Feature","geometry":{"coordinates":[-0.36774082986781,39.47182152734822],"type":"Point"},"properties":{"geo_point_2d":{"lon":-0.36774082986780976,"lat":39.47182152734822},"codbarrio":"2","nombre":"EL PLA DEL REMEI","coddistbar":"022","coddistrit":"2","codbar":22,"transporte":"emt","stop_id":2251,"stop_name":"Porta de la Mar (impar) - Navarro Reverter","stop_desc":"AV NAVARRO REVERTER 1 - VAL\ufffdNCIA","x":726425.85,"y":4372444.92,"zone_id":null}},{"type":"Feature","geometry":{"coordinates":[-0.36581861288965,39.468488864689924],"type":"Point"},"properties":{"geo_point_2d":{"lon":-0.36581861288965045,"lat":39.468488864689924},"codbarrio":"2","nombre":"EL PLA DEL REMEI","coddistbar":"022","coddistrit":"2","codbar":22,"transporte":"emt","stop_id":686,"stop_name":"Marqu\ufffds del T\ufffdria (impar) - C\ufffdnovas","stop_desc":"GV MARQU\ufffdS DEL TURIA BARDISSA C\ufffdNOVAS (IMPAR) - VAL\ufffdNCIA","x":726602.04,"y":4372079.82,"zone_id":null}},{"type":"Feature","geometry":{"coordinates":[-0.370766088693746,39.466443208149585],"type":"Point"},"properties":{"geo_point_2d":{"lon":-0.3707660886937458,"lat":39.466443208149585},"codbarrio":"2","nombre":"EL PLA DEL REMEI","coddistbar":"022","coddistrit":"2","codbar":22,"transporte":"emt","stop_id":688,"stop_name":"Marqu\ufffds del T\ufffdria - Hern\ufffdn Cort\ufffds","stop_desc":"GV MARQU\ufffdS DEL TURIA 35 - VAL\ufffdNCIA","x":726183.01,"y":4371840.31,"zone_id":null}},{"type":"Feature","geometry":{"coordinates":[-0.364878991905582,39.46952681509829],"type":"Point"},"properties":{"geo_point_2d":{"lon":-0.36487899190558154,"lat":39.46952681509829},"codbarrio":"2","nombre":"EL PLA DEL REMEI","coddistbar":"022","coddistrit":"2","codbar":22,"transporte":"emt","stop_id":777,"stop_name":"Am\ufffdrica - Marqu\ufffds del T\ufffdria","stop_desc":"PL AMERICA 2 - VAL\ufffdNCIA","x":726679.51,"y":4372197.4,"zone_id":null}},{"type":"Feature","geometry":{"coordinates":[-0.372523147732682,39.46603439880883],"type":"Point"},"properties":{"geo_point_2d":{"lon":-0.37252314773268197,"lat":39.46603439880883},"codbarrio":"2","nombre":"EL PLA DEL REMEI","coddistbar":"022","coddistrit":"2","codbar":22,"transporte":"emt","stop_id":823,"stop_name":"F\ufffdlix Pizcueta - Ciril Amor\ufffds","stop_desc":"C FELIX  PIZCUETA 22 - VAL\ufffdNCIA","x":726033.1599999999,"y":4371790.52,"zone_id":null}},{"type":"Feature","geometry":{"coordinates":[-0.370616847583939,39.467020448347206],"type":"Point"},"properties":{"geo_point_2d":{"lon":-0.3706168475839394,"lat":39.467020448347206},"codbarrio":"2","nombre":"EL PLA DEL REMEI","coddistbar":"022","coddistrit":"2","codbar":22,"transporte":"emt","stop_id":834,"stop_name":"Hern\ufffdn Cort\ufffds - Ciril Amor\ufffds","stop_desc":"C HERNAN CORTES 26 - VAL\ufffdNCIA","x":726193.98,"y":4371904.76,"zone_id":null}},{"type":"Feature","geometry":{"coordinates":[-0.35284872626788,39.4708923659718],"type":"Point"},"properties":{"geo_point_2d":{"lon":-0.3528487262678802,"lat":39.4708923659718},"codbarrio":"2","nombre":"ALBORS","coddistbar":"122","coddistrit":"12","codbar":122,"transporte":"emt","stop_id":139,"stop_name":"Sants Just i Pastor - Llu\ufffds de Mil\ufffd","stop_desc":"C SANTOS JUSTO Y PASTOR 22 - VAL\ufffdNCIA","x":727710.07,"y":4372379.33,"zone_id":null}},{"type":"Feature","geometry":{"coordinates":[-0.349070335343696,39.46978590365663],"type":"Point"},"properties":{"geo_point_2d":{"lon":-0.34907033534369625,"lat":39.46978590365663},"codbarrio":"2","nombre":"ALBORS","coddistbar":"122","coddistrit":"12","codbar":122,"transporte":"emt","stop_id":140,"stop_name":"Sants Just i Pastor - Duc de Gaeta","stop_desc":"C SANTOS JUSTO Y PASTOR 56 - VAL\ufffdNCIA","x":728038.75,"y":4372266.07,"zone_id":null}},{"type":"Feature","geometry":{"coordinates":[-0.386002694993465,39.46154289038019],"type":"Point"},"properties":{"geo_point_2d":{"lon":-0.386002694993465,"lat":39.46154289038019},"codbarrio":"4","nombre":"ARRANCAPINS","coddistbar":"034","coddistrit":"3","codbar":34,"transporte":"emt","stop_id":1690,"stop_name":"Giorgeta - Albacete","stop_desc":"AV GIORGETA 13 - VAL\ufffdNCIA","x":724887.87,"y":4371258.21,"zone_id":null}},{"type":"Feature","geometry":{"coordinates":[-0.387536069121874,39.463668586957226],"type":"Point"},"properties":{"geo_point_2d":{"lon":-0.3875360691218742,"lat":39.463668586957226},"codbarrio":"4","nombre":"ARRANCAPINS","coddistbar":"034","coddistrit":"3","codbar":34,"transporte":"emt","stop_id":1691,"stop_name":"P\ufffdrez Gald\ufffds - Mart\ufffdnez Aloy","stop_desc":"AV PEREZ GALDOS 20 - VAL\ufffdNCIA","x":724749.09,"y":4371490.34,"zone_id":null}},{"type":"Feature","geometry":{"coordinates":[-0.390179388201697,39.46739555821404],"type":"Point"},"properties":{"geo_point_2d":{"lon":-0.3901793882016968,"lat":39.46739555821404},"codbarrio":"4","nombre":"ARRANCAPINS","coddistbar":"034","coddistrit":"3","codbar":34,"transporte":"emt","stop_id":1692,"stop_name":"P\ufffdrez Gald\ufffds - Heroi Romeu","stop_desc":"AV PEREZ GALDOS 62 (ACC.) - VAL\ufffdNCIA","x":724509.6700000002,"y":4371897.45,"zone_id":null}},{"type":"Feature","geometry":{"coordinates":[-0.381951740931186,39.46071811730741],"type":"Point"},"properties":{"geo_point_2d":{"lon":-0.3819517409311864,"lat":39.46071811730741},"codbarrio":"4","nombre":"ARRANCAPINS","coddistbar":"034","coddistrit":"3","codbar":34,"transporte":"emt","stop_id":2284,"stop_name":"Estaci\ufffd J. Sorolla - Mestre Sosa","stop_desc":"C BAILEN S\/N (ESTACIO) - VAL\ufffdNCIA","x":725239.09,"y":4371176.78,"zone_id":null}},{"type":"Feature","geometry":{"coordinates":[-0.38510279785219,39.46999048190105],"type":"Point"},"properties":{"geo_point_2d":{"lon":-0.3851027978521904,"lat":39.46999048190105},"codbarrio":"4","nombre":"ARRANCAPINS","coddistbar":"034","coddistrit":"3","codbar":34,"transporte":"emt","stop_id":702,"stop_name":"Ferran el Cat\ufffdlic (impar) - \ufffdngel Guimer\ufffd","stop_desc":"GV FERNANDO EL CATOLICO 9 - VAL\ufffdNCIA","x":724938.08,"y":4372198.16,"zone_id":null}},{"type":"Feature","geometry":{"coordinates":[-0.385139373476827,39.470484897558826],"type":"Point"},"properties":{"geo_point_2d":{"lon":-0.3851393734768274,"lat":39.470484897558826},"codbarrio":"4","nombre":"ARRANCAPINS","coddistbar":"034","coddistrit":"3","codbar":34,"transporte":"emt","stop_id":703,"stop_name":"Ferran el Cat\ufffdlic (central) - \ufffdngel Guimer\ufffd","stop_desc":"GV FERNANDO EL CATOLICO BARDISSA CENTRAL - VAL\ufffdNCIA","x":724933.34,"y":4372252.95,"zone_id":null}},{"type":"Feature","geometry":{"coordinates":[-0.338236953238218,39.46493894538717],"type":"Point"},"properties":{"geo_point_2d":{"lon":-0.33823695323821834,"lat":39.46493894538717},"codbarrio":"1","nombre":"AIORA","coddistbar":"121","coddistrit":"12","codbar":121,"transporte":"metrovlc","stop_id":115,"stop_name":"Mar\ufffdtim - Serrer\ufffda","stop_desc":"NULL","x":728986.69,"y":4371755.53,"zone_id":"A"}},{"type":"Feature","geometry":{"coordinates":[-0.342969495920819,39.46642666483745],"type":"Point"},"properties":{"geo_point_2d":{"lon":-0.3429694959208192,"lat":39.46642666483745},"codbarrio":"1","nombre":"AIORA","coddistbar":"121","coddistrit":"12","codbar":121,"transporte":"metrovlc","stop_id":22,"stop_name":"Ayora","stop_desc":"NULL","x":728574.63,"y":4371908.65,"zone_id":"A"}},{"type":"Feature","geometry":{"coordinates":[-0.350947308600259,39.46597115226733],"type":"Point"},"properties":{"geo_point_2d":{"lon":-0.3509473086002593,"lat":39.46597115226733},"codbarrio":"1","nombre":"AIORA","coddistbar":"121","coddistrit":"12","codbar":121,"transporte":"emt","stop_id":1110,"stop_name":"Dr. Manuel Candela (par) - Port","stop_desc":"C DOCTOR MANUEL CANDELA 6 - VAL\ufffdNCIA","x":727889.7200000001,"y":4371837.87,"zone_id":null}},{"type":"Feature","geometry":{"coordinates":[-0.350040395912034,39.46811762414188],"type":"Point"},"properties":{"geo_point_2d":{"lon":-0.3500403959120343,"lat":39.46811762414188},"codbarrio":"1","nombre":"AIORA","coddistbar":"121","coddistrit":"12","codbar":121,"transporte":"emt","stop_id":144,"stop_name":"Dr. Manuel Candela (par) - Rodr\ufffdguez de Cepeda","stop_desc":"C DOCTOR MANUEL CANDELA 28 - VAL\ufffdNCIA","x":727960.74,"y":4372078.43,"zone_id":null}},{"type":"Feature","geometry":{"coordinates":[-0.343027377647489,39.46806668060438],"type":"Point"},"properties":{"geo_point_2d":{"lon":-0.34302737764748903,"lat":39.46806668060438},"codbarrio":"1","nombre":"AIORA","coddistbar":"121","coddistrit":"12","codbar":121,"transporte":"emt","stop_id":1499,"stop_name":"Sants Just i Pastor - Ind\ufffdstria","stop_desc":"C SANTOS JUSTO Y PASTOR JUNT ESTACI\ufffd METRO - VAL\ufffdNCIA","x":728564.28,"y":4372090.55,"zone_id":null}},{"type":"Feature","geometry":{"coordinates":[-0.339058419405388,39.466912295970026],"type":"Point"},"properties":{"geo_point_2d":{"lon":-0.33905841940538844,"lat":39.466912295970026},"codbarrio":"1","nombre":"AIORA","coddistbar":"121","coddistrit":"12","codbar":121,"transporte":"emt","stop_id":1500,"stop_name":"Sants Just i Pastor - Escultor Esteve Edo","stop_desc":"C SANTOS JUSTO Y PASTOR JUNT COLEGI - VAL\ufffdNCIA","x":728909.54,"y":4371972.49,"zone_id":null}},{"type":"Feature","geometry":{"coordinates":[-0.337580109091982,39.462791617831904],"type":"Point"},"properties":{"geo_point_2d":{"lon":-0.3375801090919822,"lat":39.462791617831904},"codbarrio":"1","nombre":"AIORA","coddistbar":"121","coddistrit":"12","codbar":121,"transporte":"emt","stop_id":1602,"stop_name":"Serradora - Peanya","stop_desc":"C SERRERIA 11 - VAL\ufffdNCIA","x":729050.25,"y":4371518.84,"zone_id":null}},{"type":"Feature","geometry":{"coordinates":[-0.336183584916527,39.46457406781298],"type":"Point"},"properties":{"geo_point_2d":{"lon":-0.33618358491652695,"lat":39.46457406781298},"codbarrio":"1","nombre":"AIORA","coddistbar":"121","coddistrit":"12","codbar":121,"transporte":"emt","stop_id":1757,"stop_name":"Serradora - Jeroni de Montsoriu","stop_desc":"C SERRERIA 35 - VAL\ufffdNCIA","x":729164.56,"y":4371720.25,"zone_id":null}},{"type":"Feature","geometry":{"coordinates":[-0.37771207576385,39.46724535782602],"type":"Point"},"properties":{"geo_point_2d":{"lon":-0.3777120757638496,"lat":39.46724535782602},"codbarrio":"2","nombre":"LA ROQUETA","coddistbar":"032","coddistrit":"3","codbar":32,"transporte":"emt","stop_id":2309,"stop_name":"Estaci\ufffd del Nord - Bail\ufffdn","stop_desc":"C BAILEN SN (ESTACI\ufffd) - VAL\ufffdNCIA","x":725582.8,"y":4371911.93,"zone_id":null}},{"type":"Feature","geometry":{"coordinates":[-0.381215670024839,39.46596619352814],"type":"Point"},"properties":{"geo_point_2d":{"lon":-0.381215670024839,"lat":39.46596619352814},"codbarrio":"2","nombre":"LA ROQUETA","coddistbar":"032","coddistrit":"3","codbar":32,"transporte":"emt","stop_id":815,"stop_name":"Espanya - Julio Antonio","stop_desc":"PL ESPA\ufffdA 3 - VAL\ufffdNCIA","x":725285.4899999999,"y":4371761.17,"zone_id":null}},{"type":"Feature","geometry":{"coordinates":[-0.362831833422293,39.466328474745225],"type":"Point"},"properties":{"geo_point_2d":{"lon":-0.3628318334222926,"lat":39.466328474745225},"codbarrio":"3","nombre":"LA GRAN VIA","coddistbar":"023","coddistrit":"2","codbar":23,"transporte":"emt","stop_id":1427,"stop_name":"Jacinto Benavente - Borriana","stop_desc":"AV JACINTO BENAVENTE 16 - VAL\ufffdNCIA","x":726866.03,"y":4371847.53,"zone_id":null}},{"type":"Feature","geometry":{"coordinates":[-0.362558412244817,39.46683757217342],"type":"Point"},"properties":{"geo_point_2d":{"lon":-0.36255841224481716,"lat":39.46683757217342},"codbarrio":"3","nombre":"LA GRAN VIA","coddistbar":"023","coddistrit":"2","codbar":23,"transporte":"emt","stop_id":1764,"stop_name":"Jacinto Benavente - Palau de la M\ufffdsica","stop_desc":"AV JACINTO BENAVENTE 14 (DAVANT) - VAL\ufffdNCIA","x":726887.9,"y":4371904.73,"zone_id":null}},{"type":"Feature","geometry":{"coordinates":[-0.364236241923049,39.46321185480006],"type":"Point"},"properties":{"geo_point_2d":{"lon":-0.36423624192304893,"lat":39.46321185480006},"codbarrio":"3","nombre":"LA GRAN VIA","coddistbar":"023","coddistrit":"2","codbar":23,"transporte":"emt","stop_id":2355,"stop_name":"Regne de Val\ufffdncia - Joaqu\ufffdn Costa","stop_desc":"AV REGNE DE VALENCIA 69 - VAL\ufffdNCIA","x":726755.32,"y":4371498.04,"zone_id":null}},{"type":"Feature","geometry":{"coordinates":[-0.367661508806521,39.46384488114191],"type":"Point"},"properties":{"geo_point_2d":{"lon":-0.36766150880652076,"lat":39.46384488114191},"codbarrio":"3","nombre":"LA GRAN VIA","coddistbar":"023","coddistrit":"2","codbar":23,"transporte":"emt","stop_id":725,"stop_name":"Regne de Val\ufffdncia - Mestre Gozalbo","stop_desc":"AV REGNE DE VALENCIA 43 - VAL\ufffdNCIA","x":726458.55,"y":4371559.69,"zone_id":null}},{"type":"Feature","geometry":{"coordinates":[-0.363825385525915,39.46350766354142],"type":"Point"},"properties":{"geo_point_2d":{"lon":-0.3638253855259147,"lat":39.46350766354142},"codbarrio":"3","nombre":"LA GRAN VIA","coddistbar":"023","coddistrit":"2","codbar":23,"transporte":"emt","stop_id":732,"stop_name":"Ciscar - Mestre Racional","stop_desc":"C CISCAR 61 - VAL\ufffdNCIA","x":726789.71,"y":4371531.91,"zone_id":null}},{"type":"Feature","geometry":{"coordinates":[-0.365125264564825,39.46545610413703],"type":"Point"},"properties":{"geo_point_2d":{"lon":-0.3651252645648251,"lat":39.46545610413703},"codbarrio":"3","nombre":"LA GRAN VIA","coddistbar":"023","coddistrit":"2","codbar":23,"transporte":"emt","stop_id":733,"stop_name":"Ciscar - Borriana","stop_desc":"C CISCAR 31 - VAL\ufffdNCIA","x":726671.54,"y":4371744.92,"zone_id":null}},{"type":"Feature","geometry":{"coordinates":[-0.366316646988388,39.467176761909506],"type":"Point"},"properties":{"geo_point_2d":{"lon":-0.36631664698838795,"lat":39.467176761909506},"codbarrio":"3","nombre":"LA GRAN VIA","coddistbar":"023","coddistrit":"2","codbar":23,"transporte":"emt","stop_id":734,"stop_name":"Ciscar - Comte d'Altea","stop_desc":"C CISCAR 11 - VAL\ufffdNCIA","x":726563.4499999998,"y":4371932.92,"zone_id":null}},{"type":"Feature","geometry":{"coordinates":[-0.397574945517802,39.468219589785335],"type":"Point"},"properties":{"geo_point_2d":{"lon":-0.3975749455178018,"lat":39.468219589785335},"codbarrio":"3","nombre":"TRES FORQUES","coddistbar":"073","coddistrit":"7","codbar":73,"transporte":"metrovlc","stop_id":18,"stop_name":"Av. del Cid","stop_desc":"NULL","x":723870.7400000001,"y":4371970.51,"zone_id":"A"}},{"type":"Feature","geometry":{"coordinates":[-0.405260751754051,39.46439755677277],"type":"Point"},"properties":{"geo_point_2d":{"lon":-0.40526075175405113,"lat":39.46439755677277},"codbarrio":"3","nombre":"TRES FORQUES","coddistbar":"073","coddistrit":"7","codbar":73,"transporte":"emt","stop_id":1307,"stop_name":"Tres Creus - Llombai","stop_desc":"AV TRES CRUCES 49 - VAL\ufffdNCIA","x":723221.71,"y":4371527.18,"zone_id":null}},{"type":"Feature","geometry":{"coordinates":[-0.402520515073844,39.46896508519518],"type":"Point"},"properties":{"geo_point_2d":{"lon":-0.40252051507384357,"lat":39.46896508519518},"codbarrio":"3","nombre":"TRES FORQUES","coddistbar":"073","coddistrit":"7","codbar":73,"transporte":"emt","stop_id":506,"stop_name":"Cid - Josep Maestre","stop_desc":"AV CID 51 - VAL\ufffdNCIA","x":723442.86,"y":4372040.98,"zone_id":null}},{"type":"Feature","geometry":{"coordinates":[-0.396604094733863,39.46797568737925],"type":"Point"},"properties":{"geo_point_2d":{"lon":-0.39660409473386293,"lat":39.46797568737925},"codbarrio":"3","nombre":"TRES FORQUES","coddistbar":"073","coddistrit":"7","codbar":73,"transporte":"emt","stop_id":508,"stop_name":"Cid - \ufffdnguera","stop_desc":"AV CID JARD\ufffd ENGUERA - VAL\ufffdNCIA","x":723955.05,"y":4371945.85,"zone_id":null}},{"type":"Feature","geometry":{"coordinates":[-0.399663939290613,39.46395120895064],"type":"Point"},"properties":{"geo_point_2d":{"lon":-0.3996639392906132,"lat":39.46395120895064},"codbarrio":"3","nombre":"TRES FORQUES","coddistbar":"073","coddistrit":"7","codbar":73,"transporte":"emt","stop_id":512,"stop_name":"Tres Forques - Santa Cruz de Tenerife","stop_desc":"C TRES FORQUES 82 - VAL\ufffdNCIA","x":723704.69,"y":4371491.52,"zone_id":null}},{"type":"Feature","geometry":{"coordinates":[-0.40544800341482,39.464103184193775],"type":"Point"},"properties":{"geo_point_2d":{"lon":-0.4054480034148204,"lat":39.464103184193775},"codbarrio":"3","nombre":"TRES FORQUES","coddistbar":"073","coddistrit":"7","codbar":73,"transporte":"emt","stop_id":514,"stop_name":"Tres Creus (carril bus) - Llombai","stop_desc":"AV TRES CRUCES 49 (ACC\ufffdS CARRIL BUS) - VAL\ufffdNCIA","x":723206.54,"y":4371494.04,"zone_id":null}},{"type":"Feature","geometry":{"coordinates":[-0.351917623016684,39.46329135610718],"type":"Point"},"properties":{"geo_point_2d":{"lon":-0.3519176230166835,"lat":39.46329135610718},"codbarrio":"4","nombre":"CAMI FONDO","coddistbar":"124","coddistrit":"12","codbar":124,"transporte":"emt","stop_id":1109,"stop_name":"Tom\ufffds Monta\ufffdana (impar) - Ast\ufffdries","stop_desc":"C PADRE TOMAS MONTA\ufffdANA 24 (DAVANT) - VAL\ufffdNCIA","x":727814.98,"y":4371537.95,"zone_id":null}},{"type":"Feature","geometry":{"coordinates":[-0.352307636531053,39.46360780180353],"type":"Point"},"properties":{"geo_point_2d":{"lon":-0.35230763653105346,"lat":39.46360780180353},"codbarrio":"4","nombre":"CAMI FONDO","coddistbar":"124","coddistrit":"12","codbar":124,"transporte":"emt","stop_id":1120,"stop_name":"Tom\ufffds Monta\ufffdana (par) - Ast\ufffdries","stop_desc":"C PADRE TOMAS MONTA\ufffdANA 22 - VAL\ufffdNCIA","x":727780.39,"y":4371572.09,"zone_id":null}},{"type":"Feature","geometry":{"coordinates":[-0.352663236343778,39.465773052999566],"type":"Point"},"properties":{"geo_point_2d":{"lon":-0.35266323634377805,"lat":39.465773052999566},"codbarrio":"4","nombre":"CAMI FONDO","coddistbar":"124","coddistrit":"12","codbar":124,"transporte":"emt","stop_id":1617,"stop_name":"Port - Riu Escalona","stop_desc":"AV PUERTO 104 - VAL\ufffdNCIA","x":727742.73,"y":4371811.54,"zone_id":null}},{"type":"Feature","geometry":{"coordinates":[-0.396427778188286,39.46344353879806],"type":"Point"},"properties":{"geo_point_2d":{"lon":-0.3964277781882855,"lat":39.46344353879806},"codbarrio":"1","nombre":"PATRAIX","coddistbar":"081","coddistrit":"8","codbar":81,"transporte":"emt","stop_id":1038,"stop_name":"Arxiduc Carles (impar) - Tres Forques","stop_desc":"C ARCHIDUQUE CARLOS 63 - VAL\ufffdNCIA","x":723984.76,"y":4371443.21,"zone_id":null}},{"type":"Feature","geometry":{"coordinates":[-0.392311273650476,39.46723377908242],"type":"Point"},"properties":{"geo_point_2d":{"lon":-0.3923112736504759,"lat":39.46723377908242},"codbarrio":"1","nombre":"PATRAIX","coddistbar":"081","coddistrit":"8","codbar":81,"transporte":"emt","stop_id":1254,"stop_name":"Cid - Aiora","stop_desc":"AV CID 11 - VAL\ufffdNCIA","x":724326.77,"y":4371874.18,"zone_id":null}},{"type":"Feature","geometry":{"coordinates":[-0.387345196550586,39.46291467213292],"type":"Point"},"properties":{"geo_point_2d":{"lon":-0.3873451965505862,"lat":39.46291467213292},"codbarrio":"1","nombre":"PATRAIX","coddistbar":"081","coddistrit":"8","codbar":81,"transporte":"emt","stop_id":432,"stop_name":"P\ufffdrez Gald\ufffds - Lladr\ufffd i Mall\ufffd","stop_desc":"AV PEREZ GALDOS 5 - VAL\ufffdNCIA","x":724767.94,"y":4371407.13,"zone_id":null}},{"type":"Feature","geometry":{"coordinates":[-0.396888480427216,39.4637960143069],"type":"Point"},"properties":{"geo_point_2d":{"lon":-0.39688848042721625,"lat":39.4637960143069},"codbarrio":"1","nombre":"PATRAIX","coddistbar":"081","coddistrit":"8","codbar":81,"transporte":"emt","stop_id":531,"stop_name":"Tres Forques (impar) - Arxiduc Carles","stop_desc":"C TRES FORQUES 77 - VAL\ufffdNCIA","x":723943.99,"y":4371481.19,"zone_id":null}},{"type":"Feature","geometry":{"coordinates":[-0.391919891236905,39.46400190918527],"type":"Point"},"properties":{"geo_point_2d":{"lon":-0.39191989123690524,"lat":39.46400190918527},"codbarrio":"1","nombre":"PATRAIX","coddistbar":"081","coddistrit":"8","codbar":81,"transporte":"emt","stop_id":532,"stop_name":"Tres Forques - Churat i Saur\ufffd","stop_desc":"C TRES FORQUES 33 - VAL\ufffdNCIA","x":724370.83,"y":4371516.41,"zone_id":null}},{"type":"Feature","geometry":{"coordinates":[-0.389069331431588,39.46411195382883],"type":"Point"},"properties":{"geo_point_2d":{"lon":-0.3890693314315881,"lat":39.46411195382883},"codbarrio":"1","nombre":"PATRAIX","coddistbar":"081","coddistrit":"8","codbar":81,"transporte":"emt","stop_id":533,"stop_name":"Tres Forques - P\ufffdrez Gald\ufffds","stop_desc":"C TRES FORQUES 3 - VAL\ufffdNCIA","x":724615.74,"y":4371535.73,"zone_id":null}},{"type":"Feature","geometry":{"coordinates":[-0.388743392832128,39.460240655941426],"type":"Point"},"properties":{"geo_point_2d":{"lon":-0.38874339283212844,"lat":39.460240655941426},"codbarrio":"1","nombre":"PATRAIX","coddistbar":"081","coddistrit":"8","codbar":81,"transporte":"emt","stop_id":548,"stop_name":"Jes\ufffds (Pla\ufffda) - Beat Nicolau Factor","stop_desc":"C JESUS 12 (PLA\ufffdA) - VAL\ufffdNCIA","x":724656.24,"y":4371106.82,"zone_id":null}},{"type":"Feature","geometry":{"coordinates":[-0.390308938188488,39.46172786341891],"type":"Point"},"properties":{"geo_point_2d":{"lon":-0.39030893818848805,"lat":39.46172786341891},"codbarrio":"1","nombre":"PATRAIX","coddistbar":"081","coddistrit":"8","codbar":81,"transporte":"emt","stop_id":554,"stop_name":"Conca - Moss\ufffdn Fenollar","stop_desc":"C CUENCA 97 - VAL\ufffdNCIA","x":724516.75,"y":4371268.0,"zone_id":null}},{"type":"Feature","geometry":{"coordinates":[-0.388570690044697,39.463774270536945],"type":"Point"},"properties":{"geo_point_2d":{"lon":-0.3885706900446968,"lat":39.463774270536945},"codbarrio":"1","nombre":"PATRAIX","coddistbar":"081","coddistrit":"8","codbar":81,"transporte":"emt","stop_id":555,"stop_name":"Conca - P\ufffdrez Gald\ufffds","stop_desc":"C CUENCA 71 - VAL\ufffdNCIA","x":724659.73,"y":4371499.49,"zone_id":null}},{"type":"Feature","geometry":{"coordinates":[-0.388602566924827,39.45929814133013],"type":"Point"},"properties":{"geo_point_2d":{"lon":-0.38860256692482653,"lat":39.45929814133013},"codbarrio":"1","nombre":"PATRAIX","coddistbar":"081","coddistrit":"8","codbar":81,"transporte":"emt","stop_id":557,"stop_name":"Gaspar Aguilar - Jes\ufffds","stop_desc":"AV GASPAR AGUILAR 2 - VAL\ufffdNCIA","x":724671.39,"y":4371002.55,"zone_id":null}},{"type":"Feature","geometry":{"coordinates":[-0.393327897761816,39.46467258467682],"type":"Point"},"properties":{"geo_point_2d":{"lon":-0.39332789776181565,"lat":39.46467258467682},"codbarrio":"1","nombre":"PATRAIX","coddistbar":"081","coddistrit":"8","codbar":81,"transporte":"emt","stop_id":758,"stop_name":"Aiora - Mariano Ribera","stop_desc":"C AYORA 31 - VAL\ufffdNCIA","x":724247.5300000001,"y":4371587.35,"zone_id":null}},{"type":"Feature","geometry":{"coordinates":[-0.378820590564681,39.4607581682316],"type":"Point"},"properties":{"geo_point_2d":{"lon":-0.3788205905646815,"lat":39.4607581682316},"codbarrio":"1","nombre":"RUSSAFA","coddistbar":"021","coddistrit":"2","codbar":21,"transporte":"emt","stop_id":2127,"stop_name":"Filipines - Gibraltar","stop_desc":"C FILIPINAS 2ACC - VAL\ufffdNCIA","x":725508.38,"y":4371189.06,"zone_id":null}},{"type":"Feature","geometry":{"coordinates":[-0.376955109546882,39.46614307452049],"type":"Point"},"properties":{"geo_point_2d":{"lon":-0.3769551095468821,"lat":39.46614307452049},"codbarrio":"1","nombre":"RUSSAFA","coddistbar":"021","coddistrit":"2","codbar":21,"transporte":"emt","stop_id":2330,"stop_name":"Alacant - Castell\ufffd","stop_desc":"C ALICANTE FTE 3 ACC - VAL\ufffdNCIA","x":725651.49,"y":4371791.47,"zone_id":null}},{"type":"Feature","geometry":{"coordinates":[-0.375009892120028,39.464579728738755],"type":"Point"},"properties":{"geo_point_2d":{"lon":-0.3750098921200279,"lat":39.464579728738755},"codbarrio":"1","nombre":"RUSSAFA","coddistbar":"021","coddistrit":"2","codbar":21,"transporte":"emt","stop_id":690,"stop_name":"Germanies - Castell\ufffd","stop_desc":"GV GERMANIAS 16 - VAL\ufffdNCIA","x":725823.91,"y":4371622.81,"zone_id":null}},{"type":"Feature","geometry":{"coordinates":[-0.374659396770712,39.46435614075085],"type":"Point"},"properties":{"geo_point_2d":{"lon":-0.3746593967707121,"lat":39.46435614075085},"codbarrio":"1","nombre":"RUSSAFA","coddistbar":"021","coddistrit":"2","codbar":21,"transporte":"emt","stop_id":708,"stop_name":"Germanies - Sevilla","stop_desc":"GV GERMANIAS 13 - VAL\ufffdNCIA","x":725854.7899999999,"y":4371598.87,"zone_id":null}},{"type":"Feature","geometry":{"coordinates":[-0.373688538268446,39.46186651360417],"type":"Point"},"properties":{"geo_point_2d":{"lon":-0.3736885382684458,"lat":39.46186651360417},"codbarrio":"1","nombre":"RUSSAFA","coddistbar":"021","coddistrit":"2","codbar":21,"transporte":"emt","stop_id":717,"stop_name":"Cadis - Puerto Rico","stop_desc":"C CADIZ 44 - VAL\ufffdNCIA","x":725946.38,"y":4371324.95,"zone_id":null}},{"type":"Feature","geometry":{"coordinates":[-0.371806711826821,39.459266102962765],"type":"Point"},"properties":{"geo_point_2d":{"lon":-0.37180671182682123,"lat":39.459266102962765},"codbarrio":"1","nombre":"RUSSAFA","coddistbar":"021","coddistrit":"2","codbar":21,"transporte":"emt","stop_id":718,"stop_name":"Cadis - dels Centelles","stop_desc":"C CADIZ 92 - VAL\ufffdNCIA","x":726116.72,"y":4371041.02,"zone_id":null}},{"type":"Feature","geometry":{"coordinates":[-0.370936975159655,39.46375695760685],"type":"Point"},"properties":{"geo_point_2d":{"lon":-0.37093697515965507,"lat":39.46375695760685},"codbarrio":"1","nombre":"RUSSAFA","coddistbar":"021","coddistrit":"2","codbar":21,"transporte":"emt","stop_id":728,"stop_name":"Pintor Salvador Abril - Mestre J. Serrano","stop_desc":"C PINTOR SALVADOR ABRIL 14 - VAL\ufffdNCIA","x":726177.01,"y":4371541.7,"zone_id":null}},{"type":"Feature","geometry":{"coordinates":[-0.367811691225994,39.46042503063265],"type":"Point"},"properties":{"geo_point_2d":{"lon":-0.36781169122599405,"lat":39.46042503063265},"codbarrio":"1","nombre":"RUSSAFA","coddistbar":"021","coddistrit":"2","codbar":21,"transporte":"emt","stop_id":886,"stop_name":"Peris i Valero - Pintor Salvador Abril","stop_desc":"AV PERIS Y VALERO 131 - VAL\ufffdNCIA","x":726456.72,"y":4371179.7,"zone_id":null}},{"type":"Feature","geometry":{"coordinates":[-0.356590346045555,39.46155967389087],"type":"Point"},"properties":{"geo_point_2d":{"lon":-0.35659034604555534,"lat":39.46155967389087},"codbarrio":"5","nombre":"PENYA-ROJA","coddistbar":"125","coddistrit":"12","codbar":125,"transporte":"emt","stop_id":1461,"stop_name":"Fran\ufffda - Albereda","stop_desc":"AV FRANCIA 1 - VAL\ufffdNCIA","x":727418.57,"y":4371333.92,"zone_id":null}},{"type":"Feature","geometry":{"coordinates":[-0.35679206338968,39.46097427682594],"type":"Point"},"properties":{"geo_point_2d":{"lon":-0.3567920633896803,"lat":39.46097427682594},"codbarrio":"5","nombre":"PENYA-ROJA","coddistbar":"125","coddistrit":"12","codbar":125,"transporte":"emt","stop_id":1462,"stop_name":"Albereda - Pont del Regne","stop_desc":"PSEG ALAMEDA PONT DEL REGNE - VAL\ufffdNCIA","x":727403.1199999999,"y":4371268.43,"zone_id":null}},{"type":"Feature","geometry":{"coordinates":[-0.343502223638204,39.458958960016034],"type":"Point"},"properties":{"geo_point_2d":{"lon":-0.34350222363820354,"lat":39.458958960016034},"codbarrio":"5","nombre":"PENYA-ROJA","coddistbar":"125","coddistrit":"12","codbar":125,"transporte":"emt","stop_id":1532,"stop_name":"Menorca - Fran\ufffda","stop_desc":"C  s\/n - VAL\ufffdNCIA","x":728553.24,"y":4371078.36,"zone_id":null}},{"type":"Feature","geometry":{"coordinates":[-0.358412293362391,39.463167097325396],"type":"Point"},"properties":{"geo_point_2d":{"lon":-0.35841229336239105,"lat":39.463167097325396},"codbarrio":"5","nombre":"PENYA-ROJA","coddistbar":"125","coddistrit":"12","codbar":125,"transporte":"emt","stop_id":1536,"stop_name":"Albereda - Eduard Bosc\ufffd","stop_desc":"PSEG ALAMEDA s\/n - VAL\ufffdNCIA","x":727256.57,"y":4371507.75,"zone_id":null}},{"type":"Feature","geometry":{"coordinates":[-0.358793015290691,39.4631861106446],"type":"Point"},"properties":{"geo_point_2d":{"lon":-0.3587930152906909,"lat":39.4631861106446},"codbarrio":"5","nombre":"PENYA-ROJA","coddistbar":"125","coddistrit":"12","codbar":125,"transporte":"emt","stop_id":1537,"stop_name":"Albereda - Pont \ufffdngel Custodi","stop_desc":"PSEG ALAMEDA s\/n - VAL\ufffdNCIA","x":727223.75,"y":4371508.9,"zone_id":null}},{"type":"Feature","geometry":{"coordinates":[-0.345602394353062,39.45861515524532],"type":"Point"},"properties":{"geo_point_2d":{"lon":-0.3456023943530616,"lat":39.45861515524532},"codbarrio":"5","nombre":"PENYA-ROJA","coddistbar":"125","coddistrit":"12","codbar":125,"transporte":"emt","stop_id":1540,"stop_name":"Fran\ufffda-Trafalgar","stop_desc":"AV FRANCIA 44 - VAL\ufffdNCIA","x":728373.65,"y":4371034.87,"zone_id":null}},{"type":"Feature","geometry":{"coordinates":[-0.352962193573413,39.459435343777365],"type":"Point"},"properties":{"geo_point_2d":{"lon":-0.35296219357341285,"lat":39.459435343777365},"codbarrio":"5","nombre":"PENYA-ROJA","coddistbar":"125","coddistrit":"12","codbar":125,"transporte":"emt","stop_id":1744,"stop_name":"Albereda (riu) - L'Hemisf\ufffdric","stop_desc":"PSEG ALAMEDA DAVANT TORRE FRAN\ufffdA - VAL\ufffdNCIA","x":727737.68,"y":4371107.28,"zone_id":null}},{"type":"Feature","geometry":{"coordinates":[-0.35026109982505,39.45757014406331],"type":"Point"},"properties":{"geo_point_2d":{"lon":-0.3502610998250505,"lat":39.45757014406331},"codbarrio":"5","nombre":"PENYA-ROJA","coddistbar":"125","coddistrit":"12","codbar":125,"transporte":"emt","stop_id":1745,"stop_name":"Albereda (riu) - Museu de les Ci\ufffdncies","stop_desc":"PSEG ALAMEDA S\/N (DAVANT 47) - VAL\ufffdNCIA","x":727976.1900000001,"y":4370907.07,"zone_id":null}},{"type":"Feature","geometry":{"coordinates":[-0.345891181515928,39.45742880946139],"type":"Point"},"properties":{"geo_point_2d":{"lon":-0.34589118151592835,"lat":39.45742880946139},"codbarrio":"5","nombre":"PENYA-ROJA","coddistbar":"125","coddistrit":"12","codbar":125,"transporte":"emt","stop_id":1759,"stop_name":"Menorca (par) - Centre Comercial","stop_desc":"C  24 ACC. - VAL\ufffdNCIA","x":728352.68,"y":4370902.45,"zone_id":null}},{"type":"Feature","geometry":{"coordinates":[-0.348178843264035,39.4575659832341],"type":"Point"},"properties":{"geo_point_2d":{"lon":-0.34817884326403536,"lat":39.4575659832341},"codbarrio":"5","nombre":"PENYA-ROJA","coddistbar":"125","coddistrit":"12","codbar":125,"transporte":"emt","stop_id":1954,"stop_name":"Pintor Maella - Luis Bolinches Compa\ufffd","stop_desc":"C  37 (DAVANT) - VAL\ufffdNCIA","x":728155.38,"y":4370911.88,"zone_id":null}},{"type":"Feature","geometry":{"coordinates":[-0.35772842380462,39.46429782795898],"type":"Point"},"properties":{"geo_point_2d":{"lon":-0.3577284238046197,"lat":39.46429782795898},"codbarrio":"5","nombre":"PENYA-ROJA","coddistbar":"125","coddistrit":"12","codbar":125,"transporte":"emt","stop_id":231,"stop_name":"Eduard Bosc\ufffd - Balears","stop_desc":"C EDUARDO BOSCA 31 - VAL\ufffdNCIA","x":727311.73,"y":4371634.99,"zone_id":null}},{"type":"Feature","geometry":{"coordinates":[-0.339545112958274,39.461045407643695],"type":"Point"},"properties":{"geo_point_2d":{"lon":-0.33954511295827433,"lat":39.461045407643695},"codbarrio":"3","nombre":"LA CREU DEL GRAU","coddistbar":"123","coddistrit":"12","codbar":123,"transporte":"emt","stop_id":1593,"stop_name":"Eivissa - Prof.Vicente Llorens","stop_desc":"C  3 - VAL\ufffdNCIA","x":728886.9,"y":4371320.01,"zone_id":null}},{"type":"Feature","geometry":{"coordinates":[-0.344618160839368,39.463105251510754],"type":"Point"},"properties":{"geo_point_2d":{"lon":-0.34461816083936836,"lat":39.463105251510754},"codbarrio":"3","nombre":"LA CREU DEL GRAU","coddistbar":"123","coddistrit":"12","codbar":123,"transporte":"emt","stop_id":1595,"stop_name":"Illes Can\ufffdries - Trafalgar","stop_desc":"C ISLAS CANARIAS 193 - VAL\ufffdNCIA","x":728443.65,"y":4371535.78,"zone_id":null}},{"type":"Feature","geometry":{"coordinates":[-0.341827675348232,39.462537418305075],"type":"Point"},"properties":{"geo_point_2d":{"lon":-0.34182767534823155,"lat":39.462537418305075},"codbarrio":"3","nombre":"LA CREU DEL GRAU","coddistbar":"123","coddistrit":"12","codbar":123,"transporte":"emt","stop_id":1621,"stop_name":"Port - Noguera","stop_desc":"AV PUERTO 230 - VAL\ufffdNCIA","x":728685.61,"y":4371479.83,"zone_id":null}},{"type":"Feature","geometry":{"coordinates":[-0.349147202762181,39.463160540196],"type":"Point"},"properties":{"geo_point_2d":{"lon":-0.34914720276218086,"lat":39.463160540196},"codbarrio":"3","nombre":"LA CREU DEL GRAU","coddistbar":"123","coddistrit":"12","codbar":123,"transporte":"emt","stop_id":1950,"stop_name":"Pere II El Cerimonios - Luis Merelo y Mas","stop_desc":"C  1-3 (DAVANT) - VAL\ufffdNCIA","x":728053.78,"y":4371530.44,"zone_id":null}},{"type":"Feature","geometry":{"coordinates":[-0.361179249798225,39.46242754503716],"type":"Point"},"properties":{"geo_point_2d":{"lon":-0.3611792497982254,"lat":39.46242754503716},"codbarrio":"1","nombre":"MONT-OLIVET","coddistbar":"101","coddistrit":"10","codbar":101,"transporte":"emt","stop_id":1363,"stop_name":"Regne de Val\ufffdncia (impar) - Alcalde Reig","stop_desc":"AV REGNE DE VALENCIA 100 (DAVANT) - VAL\ufffdNCIA","x":727020.9,"y":4371418.68,"zone_id":null}},{"type":"Feature","geometry":{"coordinates":[-0.360132542305357,39.461807121832805],"type":"Point"},"properties":{"geo_point_2d":{"lon":-0.3601325423053567,"lat":39.461807121832805},"codbarrio":"1","nombre":"MONT-OLIVET","coddistbar":"101","coddistrit":"10","codbar":101,"transporte":"emt","stop_id":1663,"stop_name":"Alcalde Reig - Pont del Regne","stop_desc":"C ALCALDE REIG 6 (DAVANT) - VAL\ufffdNCIA","x":727112.9799999999,"y":4371352.45,"zone_id":null}},{"type":"Feature","geometry":{"coordinates":[-0.358717008018068,39.459861493499595],"type":"Point"},"properties":{"geo_point_2d":{"lon":-0.35871700801806805,"lat":39.459861493499595},"codbarrio":"1","nombre":"MONT-OLIVET","coddistbar":"101","coddistrit":"10","codbar":101,"transporte":"emt","stop_id":1665,"stop_name":"Alcalde Reig (impar) - Pere Aleixandre","stop_desc":"C ALCALDE REIG 9 (ACCES)(DAVANT) - VAL\ufffdNCIA","x":727241.11,"y":4371140.05,"zone_id":null}},{"type":"Feature","geometry":{"coordinates":[-0.363177535719752,39.462132549161765],"type":"Point"},"properties":{"geo_point_2d":{"lon":-0.3631775357197517,"lat":39.462132549161765},"codbarrio":"1","nombre":"MONT-OLIVET","coddistbar":"101","coddistrit":"10","codbar":101,"transporte":"emt","stop_id":1688,"stop_name":"Peris i Valero - Escultor Josep Capuz","stop_desc":"AV PERIS Y VALERO 186 - VAL\ufffdNCIA","x":726849.92,"y":4371380.9,"zone_id":null}},{"type":"Feature","geometry":{"coordinates":[-0.365744273562781,39.455844060247586],"type":"Point"},"properties":{"geo_point_2d":{"lon":-0.3657442735627814,"lat":39.455844060247586},"codbarrio":"1","nombre":"MONT-OLIVET","coddistbar":"101","coddistrit":"10","codbar":101,"transporte":"emt","stop_id":339,"stop_name":"la Plata - Sapadors","stop_desc":"AV PLATA  DE  LA 59 - VAL\ufffdNCIA","x":726649.48,"y":4370676.4,"zone_id":null}},{"type":"Feature","geometry":{"coordinates":[-0.365600113126539,39.46106769649227],"type":"Point"},"properties":{"geo_point_2d":{"lon":-0.365600113126539,"lat":39.46106769649227},"codbarrio":"1","nombre":"MONT-OLIVET","coddistbar":"101","coddistrit":"10","codbar":101,"transporte":"emt","stop_id":600,"stop_name":"Peris i Valero - Pere Aleixandre","stop_desc":"AV PERIS Y VALERO 156 - VAL\ufffdNCIA","x":726644.9299999999,"y":4371256.6,"zone_id":null}},{"type":"Feature","geometry":{"coordinates":[-0.361295756879039,39.459867190398676],"type":"Point"},"properties":{"geo_point_2d":{"lon":-0.36129575687903936,"lat":39.459867190398676},"codbarrio":"1","nombre":"MONT-OLIVET","coddistbar":"101","coddistrit":"10","codbar":101,"transporte":"emt","stop_id":680,"stop_name":"Escultor J. Capuz (impar) - Pere Aleixandre","stop_desc":"C ESCULTOR JOSE CAPUZ 31 - VAL\ufffdNCIA","x":727019.2,"y":4371134.18,"zone_id":null}},{"type":"Feature","geometry":{"coordinates":[-0.3623830826831,39.46152867971114],"type":"Point"},"properties":{"geo_point_2d":{"lon":-0.3623830826831003,"lat":39.46152867971114},"codbarrio":"1","nombre":"MONT-OLIVET","coddistbar":"101","coddistrit":"10","codbar":101,"transporte":"emt","stop_id":681,"stop_name":"Escultor J. Capuz (impar) - Llu\ufffds Oliag","stop_desc":"C ESCULTOR JOSE CAPUZ 11 - VAL\ufffdNCIA","x":726920.24,"y":4371315.87,"zone_id":null}},{"type":"Feature","geometry":{"coordinates":[-0.362602167785322,39.46151914762836],"type":"Point"},"properties":{"geo_point_2d":{"lon":-0.36260216778532167,"lat":39.46151914762836},"codbarrio":"1","nombre":"MONT-OLIVET","coddistbar":"101","coddistrit":"10","codbar":101,"transporte":"emt","stop_id":682,"stop_name":"Escultor J. Capuz (par) - Llu\ufffds Oliag","stop_desc":"C ESCULTOR JOSE CAPUZ 12 - VAL\ufffdNCIA","x":726901.42,"y":4371314.26,"zone_id":null}},{"type":"Feature","geometry":{"coordinates":[-0.386196915504676,39.460713402068755],"type":"Point"},"properties":{"geo_point_2d":{"lon":-0.3861969155046764,"lat":39.460713402068755},"codbarrio":"1","nombre":"LA RAIOSA","coddistbar":"091","coddistrit":"9","codbar":91,"transporte":"emt","stop_id":1784,"stop_name":"Carcaixent - Giorgeta","stop_desc":"C CARCAGENTE 4 DUP - VAL\ufffdNCIA","x":724873.83,"y":4371165.65,"zone_id":null}},{"type":"Feature","geometry":{"coordinates":[-0.386971116713817,39.45831059062129],"type":"Point"},"properties":{"geo_point_2d":{"lon":-0.3869711167138167,"lat":39.45831059062129},"codbarrio":"1","nombre":"LA RAIOSA","coddistbar":"091","coddistrit":"9","codbar":91,"transporte":"emt","stop_id":1785,"stop_name":"Uruguai (par) - Jeroni Muny\ufffds","stop_desc":"C URUGUAY 8 - VAL\ufffdNCIA","x":724814.95,"y":4370897.0,"zone_id":null}},{"type":"Feature","geometry":{"coordinates":[-0.383933737438978,39.45799713059618],"type":"Point"},"properties":{"geo_point_2d":{"lon":-0.38393373743897824,"lat":39.45799713059618},